$GPGGA,000000,03018.0837,N,09743.9094,W,1,8,1.1,2.004825912857216,M,24.5,M,,0000*5c
$GPGSA,A,3,,,,,,,,,,,,,1.500,2.121,2.121,*1a
$GPGSV,1,1,1,1,1,1,1,,,,,,,,,,,,*48
$GPGSV,1,1,1,1,1,1,1,,,,,,,,,,,,*48
$GPGGA,000001,03018.0844,N,09743.9075,W,1,8,1.1,0.6770544630884885,M,24.5,M,,0000*6d
$GPGSA,A,3,,,,,,,,,,,,,1.500,2.121,2.121,*1a
$GPGSV,1,1,1,1,1,1,1,,,,,,,,,,,,*48
$GPGSV,1,1,1,1,1,1,1,,,,,,,,,,,,*48
$GPGGA,000002,03018.0857,N,09743.9090,W,1,8,1.1,-0.47873093102117004,M,24.5,M,,0000*78
$GPGSA,A,3,,,,,,,,,,,,,1.500,2.121,2.121,*1a
$GPGSV,1,1,1,1,1,1,1,,,,,,,,,,,,*48
$GPGSV,1,1,1,1,1,1,1,,,,,,,,,,,,*48
$GPGGA,000003,03018.0842,N,09743.9092,W,1,8,1.1,4.154527840957824,M,24.5,M,,0000*5a
$GPGSA,A,3,,,,,,,,,,,,,1.500,2.121,2.121,*1a
$GPGSV,1,1,1,1,1,1,1,,,,,,,,,,,,*48
$GPGSV,1,1,1,1,1,1,1,,,,,,,,,,,,*48
$GPGGA,000004,03018.0844,N,09743.9094,W,1,8,1.1,1.7499906141306356,M,24.5,M,,0000*6c
$GPGSA,A,3,,,,,,,,,,,,,1.500,2.121,2.121,*1a
$GPGSV,1,1,1,1,1,1,1,,,,,,,,,,,,*48
$GPGSV,1,1,1,1,1,1,1,,,,,,,,,,,,*48
$GPGGA,000005,03018.0844,N,09743.9095,W,1,8,1.1,-0.7181024191298468,M,24.5,M,,0000*44
$GPGSA,A,3,,,,,,,,,,,,,1.500,2.121,2.121,*1a
$GPGSV,1,1,1,1,1,1,1,,,,,,,,,,,,*48
$GPGSV,1,1,1,1,1,1,1,,,,,,,,,,,,*48
$GPGGA,000006,03018.0843,N,09743.9102,W,1,8,1.1,2.5632092028750275,M,24.5,M,,0000*68
$GPGSA,A,3,,,,,,,,,,,,,1.500,2.121,2.121,*1a
$GPGSV,1,1,1,1,1,1,1,,,,,,,,,,,,*48
$GPGSV,1,1,1,1,1,1,1,,,,,,,,,,,,*48
$GPGGA,000007,03018.0838,N,09743.9100,W,1,8,1.1,1.1993103447664457,M,24.5,M,,0000*60
$GPGSA,A,3,,,,,,,,,,,,,1.500,2.121,2.121,*1a
$GPGSV,1,1,1,1,1,1,1,,,,,,,,,,,,*48
$GPGSV,1,1,1,1,1,1,1,,,,,,,,,,,,*48
$GPGGA,000008,03018.0846,N,09743.9094,W,1,8,1.1,-0.05928570298044944,M,24.5,M,,0000*7d
$GPGSA,A,3,,,,,,,,,,,,,1.500,2.121,2.121,*1a
$GPGSV,1,1,1,1,1,1,1,,,,,,,,,,,,*48
$GPGSV,1,1,1,1,1,1,1,,,,,,,,,,,,*48
$GPGGA,000009,03018.0850,N,09743.9111,W,1,8,1.1,-0.5736311781010812,M,24.5,M,,0000*49
$GPGSA,A,3,,,,,,,,,,,,,1.500,2.121,2.121,*1a
$GPGSV,1,1,1,1,1,1,1,,,,,,,,,,,,*48
$GPGSV,1,1,1,1,1,1,1,,,,,,,,,,,,*48
$GPGGA,000010,03018.0836,N,09743.9097,W,1,8,1.1,-0.6370720711067901,M,24.5,M,,0000*47
$GPGSA,A,3,,,,,,,,,,,,,1.500,2.121,2.121,*1a
$GPGSV,1,1,1,1,1,1,1,,,,,,,,,,,,*48
$GPGSV,1,1,1,1,1,1,1,,,,,,,,,,,,*48
$GPGGA,000011,03018.0846,N,09743.9088,W,1,8,1.1,0.8299936971241634,M,24.5,M,,0000*64
$GPGSA,A,3,,,,,,,,,,,,,1.500,2.121,2.121,*1a
$GPGSV,1,1,1,1,1,1,1,,,,,,,,,,,,*48
$GPGSV,1,1,1,1,1,1,1,,,,,,,,,,,,*48
$GPGGA,000012,03018.0845,N,09743.9092,W,1,8,1.1,1.1706691580924173,M,24.5,M,,0000*68
$GPGSA,A,3,,,,,,,,,,,,,1.500,2.121,2.121,*1a
$GPGSV,1,1,1,1,1,1,1,,,,,,,,,,,,*48
$GPGSV,1,1,1,1,1,1,1,,,,,,,,,,,,*48
$GPGGA,000013,03018.0838,N,09743.9094,W,1,8,1.1,3.6122664659615396,M,24.5,M,,0000*69
$GPGSA,A,3,,,,,,,,,,,,,1.500,2.121,2.121,*1a
$GPGSV,1,1,1,1,1,1,1,,,,,,,,,,,,*48
$GPGSV,1,1,1,1,1,1,1,,,,,,,,,,,,*48
$GPGGA,000014,03018.0839,N,09743.9105,W,1,8,1.1,2.0892379286514906,M,24.5,M,,0000*6d
$GPGSA,A,3,,,,,,,,,,,,,1.500,2.121,2.121,*1a
$GPGSV,1,1,1,1,1,1,1,,,,,,,,,,,,*48
$GPGSV,1,1,1,1,1,1,1,,,,,,,,,,,,*48
$GPGGA,000015,03018.0843,N,09743.9084,W,1,8,1.1,0.20501395221676244,M,24.5,M,,0000*5b
$GPGSA,A,3,,,,,,,,,,,,,1.500,2.121,2.121,*1a
$GPGSV,1,1,1,1,1,1,1,,,,,,,,,,,,*48
$GPGSV,1,1,1,1,1,1,1,,,,,,,,,,,,*48
$GPGGA,000016,03018.0840,N,09743.9098,W,1,8,1.1,-0.9946180457119826,M,24.5,M,,0000*4e
$GPGSA,A,3,,,,,,,,,,,,,1.500,2.121,2.121,*1a
$GPGSV,1,1,1,1,1,1,1,,,,,,,,,,,,*48
$GPGSV,1,1,1,1,1,1,1,,,,,,,,,,,,*48
$GPGGA,000017,03018.0844,N,09743.9073,W,1,8,1.1,3.8115093890744327,M,24.5,M,,0000*6f
$GPGSA,A,3,,,,,,,,,,,,,1.500,2.121,2.121,*1a
$GPGSV,1,1,1,1,1,1,1,,,,,,,,,,,,*48
$GPGSV,1,1,1,1,1,1,1,,,,,,,,,,,,*48
$GPGGA,000018,03018.0844,N,09743.9094,W,1,8,1.1,1.9891475744625713,M,24.5,M,,0000*60
$GPGSA,A,3,,,,,,,,,,,,,1.500,2.121,2.121,*1a
$GPGSV,1,1,1,1,1,1,1,,,,,,,,,,,,*48
$GPGSV,1,1,1,1,1,1,1,,,,,,,,,,,,*48
$GPGGA,000019,03018.0842,N,09743.9098,W,1,8,1.1,3.9553382366697085,M,24.5,M,,0000*60
$GPGSA,A,3,,,,,,,,,,,,,1.500,2.121,2.121,*1a
$GPGSV,1,1,1,1,1,1,1,,,,,,,,,,,,*48
$GPGSV,1,1,1,1,1,1,1,,,,,,,,,,,,*48
$GPGGA,000020,03018.0849,N,09743.9089,W,1,8,1.1,1.0000556786797303,M,24.5,M,,0000*60
$GPGSA,A,3,,,,,,,,,,,,,1.500,2.121,2.121,*1a
$GPGSV,1,1,1,1,1,1,1,,,,,,,,,,,,*48
$GPGSV,1,1,1,1,1,1,1,,,,,,,,,,,,*48
$GPGGA,000021,03018.0841,N,09743.9103,W,1,8,1.1,2.359383744870652,M,24.5,M,,0000*51
$GPGSA,A,3,,,,,,,,,,,,,1.500,2.121,2.121,*1a
$GPGSV,1,1,1,1,1,1,1,,,,,,,,,,,,*48
$GPGSV,1,1,1,1,1,1,1,,,,,,,,,,,,*48
$GPGGA,000022,03018.0844,N,09743.9096,W,1,8,1.1,0.06616617238950395,M,24.5,M,,0000*5b
$GPGSA,A,3,,,,,,,,,,,,,1.500,2.121,2.121,*1a
$GPGSV,1,1,1,1,1,1,1,,,,,,,,,,,,*48
$GPGSV,1,1,1,1,1,1,1,,,,,,,,,,,,*48
$GPGGA,000023,03018.0842,N,09743.9094,W,1,8,1.1,2.7579964480750876,M,24.5,M,,0000*61
$GPGSA,A,3,,,,,,,,,,,,,1.500,2.121,2.121,*1a
$GPGSV,1,1,1,1,1,1,1,,,,,,,,,,,,*48
$GPGSV,1,1,1,1,1,1,1,,,,,,,,,,,,*48
$GPGGA,000024,03018.0865,N,09743.9106,W,1,8,1.1,1.2018495198146346,M,24.5,M,,0000*6b
$GPGSA,A,3,,,,,,,,,,,,,1.500,2.121,2.121,*1a
$GPGSV,1,1,1,1,1,1,1,,,,,,,,,,,,*48
$GPGSV,1,1,1,1,1,1,1,,,,,,,,,,,,*48
$GPGGA,000025,03018.0833,N,09743.9081,W,1,8,1.1,2.881186675181155,M,24.5,M,,0000*56
$GPGSA,A,3,,,,,,,,,,,,,1.500,2.121,2.121,*1a
$GPGSV,1,1,1,1,1,1,1,,,,,,,,,,,,*48
$GPGSV,1,1,1,1,1,1,1,,,,,,,,,,,,*48
$GPGGA,000026,03018.0851,N,09743.9097,W,1,8,1.1,1.7086026594597332,M,24.5,M,,0000*6a
$GPGSA,A,3,,,,,,,,,,,,,1.500,2.121,2.121,*1a
$GPGSV,1,1,1,1,1,1,1,,,,,,,,,,,,*48
$GPGSV,1,1,1,1,1,1,1,,,,,,,,,,,,*48
$GPGGA,000027,03018.0852,N,09743.9094,W,1,8,1.1,1.0150361744891738,M,24.5,M,,0000*6c
$GPGSA,A,3,,,,,,,,,,,,,1.500,2.121,2.121,*1a
$GPGSV,1,1,1,1,1,1,1,,,,,,,,,,,,*48
$GPGSV,1,1,1,1,1,1,1,,,,,,,,,,,,*48
$GPGGA,000028,03018.0844,N,09743.9095,W,1,8,1.1,1.7999894440911839,M,24.5,M,,0000*6e
$GPGSA,A,3,,,,,,,,,,,,,1.500,2.121,2.121,*1a
$GPGSV,1,1,1,1,1,1,1,,,,,,,,,,,,*48
$GPGSV,1,1,1,1,1,1,1,,,,,,,,,,,,*48
$GPGGA,000029,03018.0837,N,09743.9091,W,1,8,1.1,1.7527292237666954,M,24.5,M,,0000*69
$GPGSA,A,3,,,,,,,,,,,,,1.500,2.121,2.121,*1a
$GPGSV,1,1,1,1,1,1,1,,,,,,,,,,,,*48
$GPGSV,1,1,1,1,1,1,1,,,,,,,,,,,,*48
$GPGGA,000030,03018.0844,N,09743.9095,W,1,8,1.1,6.034358765513357,M,24.5,M,,0000*5b
$GPGSA,A,3,,,,,,,,,,,,,1.500,2.121,2.121,*1a
$GPGSV,1,1,1,1,1,1,1,,,,,,,,,,,,*48
$GPGSV,1,1,1,1,1,1,1,,,,,,,,,,,,*48
$GPGGA,000031,03018.0845,N,09743.9101,W,1,8,1.1,2.2379822079912235,M,24.5,M,,0000*6f
$GPGSA,A,3,,,,,,,,,,,,,1.500,2.121,2.121,*1a
$GPGSV,1,1,1,1,1,1,1,,,,,,,,,,,,*48
$GPGSV,1,1,1,1,1,1,1,,,,,,,,,,,,*48
$GPGGA,000032,03018.0849,N,09743.9086,W,1,8,1.1,2.422235324750432,M,24.5,M,,0000*5b
$GPGSA,A,3,,,,,,,,,,,,,1.500,2.121,2.121,*1a
$GPGSV,1,1,1,1,1,1,1,,,,,,,,,,,,*48
$GPGSV,1,1,1,1,1,1,1,,,,,,,,,,,,*48
$GPGGA,000033,03018.0845,N,09743.9101,W,1,8,1.1,2.8456139979988677,M,24.5,M,,0000*66
$GPGSA,A,3,,,,,,,,,,,,,1.500,2.121,2.121,*1a
$GPGSV,1,1,1,1,1,1,1,,,,,,,,,,,,*48
$GPGSV,1,1,1,1,1,1,1,,,,,,,,,,,,*48
$GPGGA,000034,03018.0840,N,09743.9094,W,1,8,1.1,2.1244166494526473,M,24.5,M,,0000*6f
$GPGSA,A,3,,,,,,,,,,,,,1.500,2.121,2.121,*1a
$GPGSV,1,1,1,1,1,1,1,,,,,,,,,,,,*48
$GPGSV,1,1,1,1,1,1,1,,,,,,,,,,,,*48
$GPGGA,000035,03018.0849,N,09743.9098,W,1,8,1.1,0.998801331301937,M,24.5,M,,0000*5c
$GPGSA,A,3,,,,,,,,,,,,,1.500,2.121,2.121,*1a
$GPGSV,1,1,1,1,1,1,1,,,,,,,,,,,,*48
$GPGSV,1,1,1,1,1,1,1,,,,,,,,,,,,*48
$GPGGA,000036,03018.0843,N,09743.9097,W,1,8,1.1,1.6637802121514966,M,24.5,M,,0000*61
$GPGSA,A,3,,,,,,,,,,,,,1.500,2.121,2.121,*1a
$GPGSV,1,1,1,1,1,1,1,,,,,,,,,,,,*48
$GPGSV,1,1,1,1,1,1,1,,,,,,,,,,,,*48
$GPGGA,000037,03018.0846,N,09743.9096,W,1,8,1.1,2.4077895882814646,M,24.5,M,,0000*69
$GPGSA,A,3,,,,,,,,,,,,,1.500,2.121,2.121,*1a
$GPGSV,1,1,1,1,1,1,1,,,,,,,,,,,,*48
$GPGSV,1,1,1,1,1,1,1,,,,,,,,,,,,*48
$GPGGA,000038,03018.0854,N,09743.9088,W,1,8,1.1,-0.5431483933646781,M,24.5,M,,0000*41
$GPGSA,A,3,,,,,,,,,,,,,1.500,2.121,2.121,*1a
$GPGSV,1,1,1,1,1,1,1,,,,,,,,,,,,*48
$GPGSV,1,1,1,1,1,1,1,,,,,,,,,,,,*48
$GPGGA,000039,03018.0842,N,09743.9090,W,1,8,1.1,2.1363874641674747,M,24.5,M,,0000*60
$GPGSA,A,3,,,,,,,,,,,,,1.500,2.121,2.121,*1a
$GPGSV,1,1,1,1,1,1,1,,,,,,,,,,,,*48
$GPGSV,1,1,1,1,1,1,1,,,,,,,,,,,,*48
$GPGGA,000040,03018.0847,N,09743.9090,W,1,8,1.1,0.5115096578820013,M,24.5,M,,0000*6a
$GPGSA,A,3,,,,,,,,,,,,,1.500,2.121,2.121,*1a
$GPGSV,1,1,1,1,1,1,1,,,,,,,,,,,,*48
$GPGSV,1,1,1,1,1,1,1,,,,,,,,,,,,*48
$GPGGA,000041,03018.0831,N,09743.9103,W,1,8,1.1,1.484184113532699,M,24.5,M,,0000*59
$GPGSA,A,3,,,,,,,,,,,,,1.500,2.121,2.121,*1a
$GPGSV,1,1,1,1,1,1,1,,,,,,,,,,,,*48
$GPGSV,1,1,1,1,1,1,1,,,,,,,,,,,,*48
$GPGGA,000042,03018.0844,N,09743.9094,W,1,8,1.1,2.037867992933318,M,24.5,M,,0000*5c
$GPGSA,A,3,,,,,,,,,,,,,1.500,2.121,2.121,*1a
$GPGSV,1,1,1,1,1,1,1,,,,,,,,,,,,*48
$GPGSV,1,1,1,1,1,1,1,,,,,,,,,,,,*48
$GPGGA,000043,03018.0849,N,09743.9091,W,1,8,1.1,2.6232999572676734,M,24.5,M,,0000*62
$GPGSA,A,3,,,,,,,,,,,,,1.500,2.121,2.121,*1a
$GPGSV,1,1,1,1,1,1,1,,,,,,,,,,,,*48
$GPGSV,1,1,1,1,1,1,1,,,,,,,,,,,,*48
$GPGGA,000044,03018.0844,N,09743.9096,W,1,8,1.1,2.359558571285448,M,24.5,M,,0000*57
$GPGSA,A,3,,,,,,,,,,,,,1.500,2.121,2.121,*1a
$GPGSV,1,1,1,1,1,1,1,,,,,,,,,,,,*48
$GPGSV,1,1,1,1,1,1,1,,,,,,,,,,,,*48
$GPGGA,000045,03018.0839,N,09743.9104,W,1,8,1.1,1.3252440877886575,M,24.5,M,,0000*69
$GPGSA,A,3,,,,,,,,,,,,,1.500,2.121,2.121,*1a
$GPGSV,1,1,1,1,1,1,1,,,,,,,,,,,,*48
$GPGSV,1,1,1,1,1,1,1,,,,,,,,,,,,*48
$GPGGA,000046,03018.0847,N,09743.9098,W,1,8,1.1,0.2957236514075343,M,24.5,M,,0000*61
$GPGSA,A,3,,,,,,,,,,,,,1.500,2.121,2.121,*1a
$GPGSV,1,1,1,1,1,1,1,,,,,,,,,,,,*48
$GPGSV,1,1,1,1,1,1,1,,,,,,,,,,,,*48
$GPGGA,000047,03018.0843,N,09743.9091,W,1,8,1.1,4.428903815829861,M,24.5,M,,0000*55
$GPGSA,A,3,,,,,,,,,,,,,1.500,2.121,2.121,*1a
$GPGSV,1,1,1,1,1,1,1,,,,,,,,,,,,*48
$GPGSV,1,1,1,1,1,1,1,,,,,,,,,,,,*48
$GPGGA,000048,03018.0831,N,09743.9090,W,1,8,1.1,2.349240007394573,M,24.5,M,,0000*5c
$GPGSA,A,3,,,,,,,,,,,,,1.500,2.121,2.121,*1a
$GPGSV,1,1,1,1,1,1,1,,,,,,,,,,,,*48
$GPGSV,1,1,1,1,1,1,1,,,,,,,,,,,,*48
$GPGGA,000049,03018.0843,N,09743.9092,W,1,8,1.1,1.2577895711460743,M,24.5,M,,0000*6f
$GPGSA,A,3,,,,,,,,,,,,,1.500,2.121,2.121,*1a
$GPGSV,1,1,1,1,1,1,1,,,,,,,,,,,,*48
$GPGSV,1,1,1,1,1,1,1,,,,,,,,,,,,*48
$GPGGA,000050,03018.0841,N,09743.9078,W,1,8,1.1,1.0812991817121593,M,24.5,M,,0000*6e
$GPGSA,A,3,,,,,,,,,,,,,1.500,2.121,2.121,*1a
$GPGSV,1,1,1,1,1,1,1,,,,,,,,,,,,*48
$GPGSV,1,1,1,1,1,1,1,,,,,,,,,,,,*48
$GPGGA,000051,03018.0849,N,09743.9078,W,1,8,1.1,3.8442753265917244,M,24.5,M,,0000*6b
$GPGSA,A,3,,,,,,,,,,,,,1.500,2.121,2.121,*1a
$GPGSV,1,1,1,1,1,1,1,,,,,,,,,,,,*48
$GPGSV,1,1,1,1,1,1,1,,,,,,,,,,,,*48
$GPGGA,000052,03018.0856,N,09743.9083,W,1,8,1.1,4.370319982453139,M,24.5,M,,0000*57
$GPGSA,A,3,,,,,,,,,,,,,1.500,2.121,2.121,*1a
$GPGSV,1,1,1,1,1,1,1,,,,,,,,,,,,*48
$GPGSV,1,1,1,1,1,1,1,,,,,,,,,,,,*48
$GPGGA,000053,03018.0840,N,09743.9101,W,1,8,1.1,1.7630940193274685,M,24.5,M,,0000*64
$GPGSA,A,3,,,,,,,,,,,,,1.500,2.121,2.121,*1a
$GPGSV,1,1,1,1,1,1,1,,,,,,,,,,,,*48
$GPGSV,1,1,1,1,1,1,1,,,,,,,,,,,,*48
$GPGGA,000054,03018.0845,N,09743.9098,W,1,8,1.1,-0.6507043247153499,M,24.5,M,,0000*44
$GPGSA,A,3,,,,,,,,,,,,,1.500,2.121,2.121,*1a
$GPGSV,1,1,1,1,1,1,1,,,,,,,,,,,,*48
$GPGSV,1,1,1,1,1,1,1,,,,,,,,,,,,*48
$GPGGA,000055,03018.0845,N,09743.9091,W,1,8,1.1,-1.2282650417802805,M,24.5,M,,0000*40
$GPGSA,A,3,,,,,,,,,,,,,1.500,2.121,2.121,*1a
$GPGSV,1,1,1,1,1,1,1,,,,,,,,,,,,*48
$GPGSV,1,1,1,1,1,1,1,,,,,,,,,,,,*48
$GPGGA,000056,03018.0843,N,09743.9091,W,1,8,1.1,3.6660503258077393,M,24.5,M,,0000*60
$GPGSA,A,3,,,,,,,,,,,,,1.500,2.121,2.121,*1a
$GPGSV,1,1,1,1,1,1,1,,,,,,,,,,,,*48
$GPGSV,1,1,1,1,1,1,1,,,,,,,,,,,,*48
$GPGGA,000057,03018.0844,N,09743.9097,W,1,8,1.1,1.6107445256735315,M,24.5,M,,0000*66
$GPGSA,A,3,,,,,,,,,,,,,1.500,2.121,2.121,*1a
$GPGSV,1,1,1,1,1,1,1,,,,,,,,,,,,*48
$GPGSV,1,1,1,1,1,1,1,,,,,,,,,,,,*48
$GPGGA,000058,03018.0835,N,09743.9095,W,1,8,1.1,0.7284066495259689,M,24.5,M,,0000*66
$GPGSA,A,3,,,,,,,,,,,,,1.500,2.121,2.121,*1a
$GPGSV,1,1,1,1,1,1,1,,,,,,,,,,,,*48
$GPGSV,1,1,1,1,1,1,1,,,,,,,,,,,,*48
$GPGGA,000059,03018.0844,N,09743.9095,W,1,8,1.1,0.34320047748521265,M,24.5,M,,0000*50
$GPGSA,A,3,,,,,,,,,,,,,1.500,2.121,2.121,*1a
$GPGSV,1,1,1,1,1,1,1,,,,,,,,,,,,*48
$GPGSV,1,1,1,1,1,1,1,,,,,,,,,,,,*48
$GPGGA,000060,03018.0848,N,09743.9095,W,1,8,1.1,-0.49923565940115644,M,24.5,M,,0000*7f
$GPGSA,A,3,,,,,,,,,,,,,1.500,2.121,2.121,*1a
$GPGSV,1,1,1,1,1,1,1,,,,,,,,,,,,*48
$GPGSV,1,1,1,1,1,1,1,,,,,,,,,,,,*48
$GPGGA,000061,03018.0847,N,09743.9098,W,1,8,1.1,-1.720744966684153,M,24.5,M,,0000*76
$GPGSA,A,3,,,,,,,,,,,,,1.500,2.121,2.121,*1a
$GPGSV,1,1,1,1,1,1,1,,,,,,,,,,,,*48
$GPGSV,1,1,1,1,1,1,1,,,,,,,,,,,,*48
$GPGGA,000062,03018.0844,N,09743.9087,W,1,8,1.1,2.572165467947186,M,24.5,M,,0000*52
$GPGSA,A,3,,,,,,,,,,,,,1.500,2.121,2.121,*1a
$GPGSV,1,1,1,1,1,1,1,,,,,,,,,,,,*48
$GPGSV,1,1,1,1,1,1,1,,,,,,,,,,,,*48
$GPGGA,000063,03018.0853,N,09743.9083,W,1,8,1.1,1.6591206026907002,M,24.5,M,,0000*67
$GPGSA,A,3,,,,,,,,,,,,,1.500,2.121,2.121,*1a
$GPGSV,1,1,1,1,1,1,1,,,,,,,,,,,,*48
$GPGSV,1,1,1,1,1,1,1,,,,,,,,,,,,*48
$GPGGA,000064,03018.0843,N,09743.9093,W,1,8,1.1,2.4242479119075786,M,24.5,M,,0000*6c
$GPGSA,A,3,,,,,,,,,,,,,1.500,2.121,2.121,*1a
$GPGSV,1,1,1,1,1,1,1,,,,,,,,,,,,*48
$GPGSV,1,1,1,1,1,1,1,,,,,,,,,,,,*48
$GPGGA,000065,03018.0847,N,09743.9079,W,1,8,1.1,1.2126190229335156,M,24.5,M,,0000*67
$GPGSA,A,3,,,,,,,,,,,,,1.500,2.121,2.121,*1a
$GPGSV,1,1,1,1,1,1,1,,,,,,,,,,,,*48
$GPGSV,1,1,1,1,1,1,1,,,,,,,,,,,,*48
$GPGGA,000066,03018.0837,N,09743.9099,W,1,8,1.1,1.8362352409605025,M,24.5,M,,0000*6e
$GPGSA,A,3,,,,,,,,,,,,,1.500,2.121,2.121,*1a
$GPGSV,1,1,1,1,1,1,1,,,,,,,,,,,,*48
$GPGSV,1,1,1,1,1,1,1,,,,,,,,,,,,*48
$GPGGA,000067,03018.0843,N,09743.9084,W,1,8,1.1,2.714821351922943,M,24.5,M,,0000*58
$GPGSA,A,3,,,,,,,,,,,,,1.500,2.121,2.121,*1a
$GPGSV,1,1,1,1,1,1,1,,,,,,,,,,,,*48
$GPGSV,1,1,1,1,1,1,1,,,,,,,,,,,,*48
$GPGGA,000068,03018.0843,N,09743.9096,W,1,8,1.1,-0.6559254966315136,M,24.5,M,,0000*44
$GPGSA,A,3,,,,,,,,,,,,,1.500,2.121,2.121,*1a
$GPGSV,1,1,1,1,1,1,1,,,,,,,,,,,,*48
$GPGSV,1,1,1,1,1,1,1,,,,,,,,,,,,*48
$GPGGA,000069,03018.0839,N,09743.9092,W,1,8,1.1,-0.41891688204256194,M,24.5,M,,0000*72
$GPGSA,A,3,,,,,,,,,,,,,1.500,2.121,2.121,*1a
$GPGSV,1,1,1,1,1,1,1,,,,,,,,,,,,*48
$GPGSV,1,1,1,1,1,1,1,,,,,,,,,,,,*48
$GPGGA,000070,03018.0839,N,09743.9094,W,1,8,1.1,0.4291584382623048,M,24.5,M,,0000*6c
$GPGSA,A,3,,,,,,,,,,,,,1.500,2.121,2.121,*1a
$GPGSV,1,1,1,1,1,1,1,,,,,,,,,,,,*48
$GPGSV,1,1,1,1,1,1,1,,,,,,,,,,,,*48
$GPGGA,000071,03018.0844,N,09743.9083,W,1,8,1.1,3.3349314805688683,M,24.5,M,,0000*6a
$GPGSA,A,3,,,,,,,,,,,,,1.500,2.121,2.121,*1a
$GPGSV,1,1,1,1,1,1,1,,,,,,,,,,,,*48
$GPGSV,1,1,1,1,1,1,1,,,,,,,,,,,,*48
$GPGGA,000072,03018.0845,N,09743.9091,W,1,8,1.1,1.8248726329717302,M,24.5,M,,0000*69
$GPGSA,A,3,,,,,,,,,,,,,1.500,2.121,2.121,*1a
$GPGSV,1,1,1,1,1,1,1,,,,,,,,,,,,*48
$GPGSV,1,1,1,1,1,1,1,,,,,,,,,,,,*48
$GPGGA,000073,03018.0846,N,09743.9099,W,1,8,1.1,2.2590857216401075,M,24.5,M,,0000*6b
$GPGSA,A,3,,,,,,,,,,,,,1.500,2.121,2.121,*1a
$GPGSV,1,1,1,1,1,1,1,,,,,,,,,,,,*48
$GPGSV,1,1,1,1,1,1,1,,,,,,,,,,,,*48
$GPGGA,000074,03018.0845,N,09743.9096,W,1,8,1.1,0.6513909406267929,M,24.5,M,,0000*66
$GPGSA,A,3,,,,,,,,,,,,,1.500,2.121,2.121,*1a
$GPGSV,1,1,1,1,1,1,1,,,,,,,,,,,,*48
$GPGSV,1,1,1,1,1,1,1,,,,,,,,,,,,*48
$GPGGA,000075,03018.0844,N,09743.9095,W,1,8,1.1,3.2081653064791853,M,24.5,M,,0000*6c
$GPGSA,A,3,,,,,,,,,,,,,1.500,2.121,2.121,*1a
$GPGSV,1,1,1,1,1,1,1,,,,,,,,,,,,*48
$GPGSV,1,1,1,1,1,1,1,,,,,,,,,,,,*48
$GPGGA,000076,03018.0843,N,09743.9095,W,1,8,1.1,0.4035497077249919,M,24.5,M,,0000*65
$GPGSA,A,3,,,,,,,,,,,,,1.500,2.121,2.121,*1a
$GPGSV,1,1,1,1,1,1,1,,,,,,,,,,,,*48
$GPGSV,1,1,1,1,1,1,1,,,,,,,,,,,,*48
$GPGGA,000077,03018.0842,N,09743.9097,W,1,8,1.1,3.0814559452766397,M,24.5,M,,0000*6f
$GPGSA,A,3,,,,,,,,,,,,,1.500,2.121,2.121,*1a
$GPGSV,1,1,1,1,1,1,1,,,,,,,,,,,,*48
$GPGSV,1,1,1,1,1,1,1,,,,,,,,,,,,*48
$GPGGA,000078,03018.0838,N,09743.9105,W,1,8,1.1,3.153853810201202,M,24.5,M,,0000*59
$GPGSA,A,3,,,,,,,,,,,,,1.500,2.121,2.121,*1a
$GPGSV,1,1,1,1,1,1,1,,,,,,,,,,,,*48
$GPGSV,1,1,1,1,1,1,1,,,,,,,,,,,,*48
$GPGGA,000079,03018.0849,N,09743.9090,W,1,8,1.1,1.7877475454821545,M,24.5,M,,0000*61
$GPGSA,A,3,,,,,,,,,,,,,1.500,2.121,2.121,*1a
$GPGSV,1,1,1,1,1,1,1,,,,,,,,,,,,*48
$GPGSV,1,1,1,1,1,1,1,,,,,,,,,,,,*48
$GPGGA,000080,03018.0838,N,09743.9099,W,1,8,1.1,0.8339962868275923,M,24.5,M,,0000*68
$GPGSA,A,3,,,,,,,,,,,,,1.500,2.121,2.121,*1a
$GPGSV,1,1,1,1,1,1,1,,,,,,,,,,,,*48
$GPGSV,1,1,1,1,1,1,1,,,,,,,,,,,,*48
$GPGGA,000081,03018.0842,N,09743.9100,W,1,8,1.1,1.705098615634635,M,24.5,M,,0000*56
$GPGSA,A,3,,,,,,,,,,,,,1.500,2.121,2.121,*1a
$GPGSV,1,1,1,1,1,1,1,,,,,,,,,,,,*48
$GPGSV,1,1,1,1,1,1,1,,,,,,,,,,,,*48
$GPGGA,000082,03018.0839,N,09743.9095,W,1,8,1.1,0.8362446153656704,M,24.5,M,,0000*6d
$GPGSA,A,3,,,,,,,,,,,,,1.500,2.121,2.121,*1a
$GPGSV,1,1,1,1,1,1,1,,,,,,,,,,,,*48
$GPGSV,1,1,1,1,1,1,1,,,,,,,,,,,,*48
$GPGGA,000083,03018.0845,N,09743.9099,W,1,8,1.1,0.018897173470559414,M,24.5,M,,0000*62
$GPGSA,A,3,,,,,,,,,,,,,1.500,2.121,2.121,*1a
$GPGSV,1,1,1,1,1,1,1,,,,,,,,,,,,*48
$GPGSV,1,1,1,1,1,1,1,,,,,,,,,,,,*48
$GPGGA,000084,03018.0841,N,09743.9096,W,1,8,1.1,0.12618464554814146,M,24.5,M,,0000*5f
$GPGSA,A,3,,,,,,,,,,,,,1.500,2.121,2.121,*1a
$GPGSV,1,1,1,1,1,1,1,,,,,,,,,,,,*48
$GPGSV,1,1,1,1,1,1,1,,,,,,,,,,,,*48
$GPGGA,000085,03018.0835,N,09743.9085,W,1,8,1.1,1.3083207731027215,M,24.5,M,,0000*65
$GPGSA,A,3,,,,,,,,,,,,,1.500,2.121,2.121,*1a
$GPGSV,1,1,1,1,1,1,1,,,,,,,,,,,,*48
$GPGSV,1,1,1,1,1,1,1,,,,,,,,,,,,*48
$GPGGA,000086,03018.0845,N,09743.9100,W,1,8,1.1,0.05385513797767327,M,24.5,M,,0000*52
$GPGSA,A,3,,,,,,,,,,,,,1.500,2.121,2.121,*1a
$GPGSV,1,1,1,1,1,1,1,,,,,,,,,,,,*48
$GPGSV,1,1,1,1,1,1,1,,,,,,,,,,,,*48
$GPGGA,000087,03018.0839,N,09743.9089,W,1,8,1.1,1.4762799927580363,M,24.5,M,,0000*6b
$GPGSA,A,3,,,,,,,,,,,,,1.500,2.121,2.121,*1a
$GPGSV,1,1,1,1,1,1,1,,,,,,,,,,,,*48
$GPGSV,1,1,1,1,1,1,1,,,,,,,,,,,,*48
$GPGGA,000088,03018.0845,N,09743.9085,W,1,8,1.1,5.070281545369671,M,24.5,M,,0000*54
$GPGSA,A,3,,,,,,,,,,,,,1.500,2.121,2.121,*1a
$GPGSV,1,1,1,1,1,1,1,,,,,,,,,,,,*48
$GPGSV,1,1,1,1,1,1,1,,,,,,,,,,,,*48
$GPGGA,000089,03018.0845,N,09743.9095,W,1,8,1.1,1.6296396668616238,M,24.5,M,,0000*63
$GPGSA,A,3,,,,,,,,,,,,,1.500,2.121,2.121,*1a
$GPGSV,1,1,1,1,1,1,1,,,,,,,,,,,,*48
$GPGSV,1,1,1,1,1,1,1,,,,,,,,,,,,*48
$GPGGA,000090,03018.0841,N,09743.9096,W,1,8,1.1,0.3578181474743962,M,24.5,M,,0000*61
$GPGSA,A,3,,,,,,,,,,,,,1.500,2.121,2.121,*1a
$GPGSV,1,1,1,1,1,1,1,,,,,,,,,,,,*48
$GPGSV,1,1,1,1,1,1,1,,,,,,,,,,,,*48
$GPGGA,000091,03018.0846,N,09743.9089,W,1,8,1.1,0.5105765074005035,M,24.5,M,,0000*67
$GPGSA,A,3,,,,,,,,,,,,,1.500,2.121,2.121,*1a
$GPGSV,1,1,1,1,1,1,1,,,,,,,,,,,,*48
$GPGSV,1,1,1,1,1,1,1,,,,,,,,,,,,*48
$GPGGA,000092,03018.0843,N,09743.9093,W,1,8,1.1,2.496359918396127,M,24.5,M,,0000*51
$GPGSA,A,3,,,,,,,,,,,,,1.500,2.121,2.121,*1a
$GPGSV,1,1,1,1,1,1,1,,,,,,,,,,,,*48
$GPGSV,1,1,1,1,1,1,1,,,,,,,,,,,,*48
$GPGGA,000093,03018.0841,N,09743.9094,W,1,8,1.1,2.624132267255055,M,24.5,M,,0000*58
$GPGSA,A,3,,,,,,,,,,,,,1.500,2.121,2.121,*1a
$GPGSV,1,1,1,1,1,1,1,,,,,,,,,,,,*48
$GPGSV,1,1,1,1,1,1,1,,,,,,,,,,,,*48
$GPGGA,000094,03018.0847,N,09743.9099,W,1,8,1.1,2.199044084860961,M,24.5,M,,0000*58
$GPGSA,A,3,,,,,,,,,,,,,1.500,2.121,2.121,*1a
$GPGSV,1,1,1,1,1,1,1,,,,,,,,,,,,*48
$GPGSV,1,1,1,1,1,1,1,,,,,,,,,,,,*48
$GPGGA,000095,03018.0852,N,09743.9088,W,1,8,1.1,4.741448704094289,M,24.5,M,,0000*51
$GPGSA,A,3,,,,,,,,,,,,,1.500,2.121,2.121,*1a
$GPGSV,1,1,1,1,1,1,1,,,,,,,,,,,,*48
$GPGSV,1,1,1,1,1,1,1,,,,,,,,,,,,*48
$GPGGA,000096,03018.0844,N,09743.9093,W,1,8,1.1,2.904160383151086,M,24.5,M,,0000*57
$GPGSA,A,3,,,,,,,,,,,,,1.500,2.121,2.121,*1a
$GPGSV,1,1,1,1,1,1,1,,,,,,,,,,,,*48
$GPGSV,1,1,1,1,1,1,1,,,,,,,,,,,,*48
$GPGGA,000097,03018.0847,N,09743.9097,W,1,8,1.1,-2.316197893979907,M,24.5,M,,0000*75
$GPGSA,A,3,,,,,,,,,,,,,1.500,2.121,2.121,*1a
$GPGSV,1,1,1,1,1,1,1,,,,,,,,,,,,*48
$GPGSV,1,1,1,1,1,1,1,,,,,,,,,,,,*48
$GPGGA,000098,03018.0829,N,09743.9106,W,1,8,1.1,0.5636058860503013,M,24.5,M,,0000*65
$GPGSA,A,3,,,,,,,,,,,,,1.500,2.121,2.121,*1a
$GPGSV,1,1,1,1,1,1,1,,,,,,,,,,,,*48
$GPGSV,1,1,1,1,1,1,1,,,,,,,,,,,,*48
$GPGGA,000099,03018.0843,N,09743.9084,W,1,8,1.1,-0.24566332808632474,M,24.5,M,,0000*7e
$GPGSA,A,3,,,,,,,,,,,,,1.500,2.121,2.121,*1a
$GPGSV,1,1,1,1,1,1,1,,,,,,,,,,,,*48
$GPGSV,1,1,1,1,1,1,1,,,,,,,,,,,,*48
$GPGGA,000100,03018.0842,N,09743.9095,W,1,8,1.1,2.7921717285060623,M,24.5,M,,0000*62
$GPGSA,A,3,,,,,,,,,,,,,1.500,2.121,2.121,*1a
$GPGSV,1,1,1,1,1,1,1,,,,,,,,,,,,*48
$GPGSV,1,1,1,1,1,1,1,,,,,,,,,,,,*48
$GPGGA,000101,03018.0849,N,09743.9103,W,1,8,1.1,1.4801493687195582,M,24.5,M,,0000*6f
$GPGSA,A,3,,,,,,,,,,,,,1.500,2.121,2.121,*1a
$GPGSV,1,1,1,1,1,1,1,,,,,,,,,,,,*48
$GPGSV,1,1,1,1,1,1,1,,,,,,,,,,,,*48
$GPGGA,000102,03018.0841,N,09743.9084,W,1,8,1.1,1.5760118021362217,M,24.5,M,,0000*6e
$GPGSA,A,3,,,,,,,,,,,,,1.500,2.121,2.121,*1a
$GPGSV,1,1,1,1,1,1,1,,,,,,,,,,,,*48
$GPGSV,1,1,1,1,1,1,1,,,,,,,,,,,,*48
$GPGGA,000103,03018.0839,N,09743.9095,W,1,8,1.1,1.8880964992248852,M,24.5,M,,0000*6c
$GPGSA,A,3,,,,,,,,,,,,,1.500,2.121,2.121,*1a
$GPGSV,1,1,1,1,1,1,1,,,,,,,,,,,,*48
$GPGSV,1,1,1,1,1,1,1,,,,,,,,,,,,*48
$GPGGA,000104,03018.0834,N,09743.9112,W,1,8,1.1,1.9251690126741308,M,24.5,M,,0000*64
$GPGSA,A,3,,,,,,,,,,,,,1.500,2.121,2.121,*1a
$GPGSV,1,1,1,1,1,1,1,,,,,,,,,,,,*48
$GPGSV,1,1,1,1,1,1,1,,,,,,,,,,,,*48
$GPGGA,000105,03018.0849,N,09743.9090,W,1,8,1.1,0.8398094278835212,M,24.5,M,,0000*6c
$GPGSA,A,3,,,,,,,,,,,,,1.500,2.121,2.121,*1a
$GPGSV,1,1,1,1,1,1,1,,,,,,,,,,,,*48
$GPGSV,1,1,1,1,1,1,1,,,,,,,,,,,,*48
$GPGGA,000106,03018.0848,N,09743.9096,W,1,8,1.1,-0.23002842379385657,M,24.5,M,,0000*7a
$GPGSA,A,3,,,,,,,,,,,,,1.500,2.121,2.121,*1a
$GPGSV,1,1,1,1,1,1,1,,,,,,,,,,,,*48
$GPGSV,1,1,1,1,1,1,1,,,,,,,,,,,,*48
$GPGGA,000107,03018.0835,N,09743.9104,W,1,8,1.1,0.6189213451985265,M,24.5,M,,0000*6f
$GPGSA,A,3,,,,,,,,,,,,,1.500,2.121,2.121,*1a
$GPGSV,1,1,1,1,1,1,1,,,,,,,,,,,,*48
$GPGSV,1,1,1,1,1,1,1,,,,,,,,,,,,*48
$GPGGA,000108,03018.0847,N,09743.9097,W,1,8,1.1,2.367296954633551,M,24.5,M,,0000*5f
$GPGSA,A,3,,,,,,,,,,,,,1.500,2.121,2.121,*1a
$GPGSV,1,1,1,1,1,1,1,,,,,,,,,,,,*48
$GPGSV,1,1,1,1,1,1,1,,,,,,,,,,,,*48
$GPGGA,000109,03018.0841,N,09743.9099,W,1,8,1.1,2.744200152550116,M,24.5,M,,0000*53
$GPGSA,A,3,,,,,,,,,,,,,1.500,2.121,2.121,*1a
$GPGSV,1,1,1,1,1,1,1,,,,,,,,,,,,*48
$GPGSV,1,1,1,1,1,1,1,,,,,,,,,,,,*48
$GPGGA,000110,03018.0836,N,09743.9095,W,1,8,1.1,2.846751115523998,M,24.5,M,,0000*52
$GPGSA,A,3,,,,,,,,,,,,,1.500,2.121,2.121,*1a
$GPGSV,1,1,1,1,1,1,1,,,,,,,,,,,,*48
$GPGSV,1,1,1,1,1,1,1,,,,,,,,,,,,*48
$GPGGA,000111,03018.0846,N,09743.9095,W,1,8,1.1,1.4895981411219066,M,24.5,M,,0000*69
$GPGSA,A,3,,,,,,,,,,,,,1.500,2.121,2.121,*1a
$GPGSV,1,1,1,1,1,1,1,,,,,,,,,,,,*48
$GPGSV,1,1,1,1,1,1,1,,,,,,,,,,,,*48
$GPGGA,000112,03018.0845,N,09743.9097,W,1,8,1.1,2.266598934331613,M,24.5,M,,0000*5b
$GPGSA,A,3,,,,,,,,,,,,,1.500,2.121,2.121,*1a
$GPGSV,1,1,1,1,1,1,1,,,,,,,,,,,,*48
$GPGSV,1,1,1,1,1,1,1,,,,,,,,,,,,*48
$GPGGA,000113,03018.0845,N,09743.9094,W,1,8,1.1,0.7320030414749064,M,24.5,M,,0000*6a
$GPGSA,A,3,,,,,,,,,,,,,1.500,2.121,2.121,*1a
$GPGSV,1,1,1,1,1,1,1,,,,,,,,,,,,*48
$GPGSV,1,1,1,1,1,1,1,,,,,,,,,,,,*48
$GPGGA,000114,03018.0841,N,09743.9086,W,1,8,1.1,2.799305453391977,M,24.5,M,,0000*55
$GPGSA,A,3,,,,,,,,,,,,,1.500,2.121,2.121,*1a
$GPGSV,1,1,1,1,1,1,1,,,,,,,,,,,,*48
$GPGSV,1,1,1,1,1,1,1,,,,,,,,,,,,*48
$GPGGA,000115,03018.0847,N,09743.9092,W,1,8,1.1,-1.3028422020901655,M,24.5,M,,0000*49
$GPGSA,A,3,,,,,,,,,,,,,1.500,2.121,2.121,*1a
$GPGSV,1,1,1,1,1,1,1,,,,,,,,,,,,*48
$GPGSV,1,1,1,1,1,1,1,,,,,,,,,,,,*48
$GPGGA,000116,03018.0845,N,09743.9092,W,1,8,1.1,2.1207333460251085,M,24.5,M,,0000*69
$GPGSA,A,3,,,,,,,,,,,,,1.500,2.121,2.121,*1a
$GPGSV,1,1,1,1,1,1,1,,,,,,,,,,,,*48
$GPGSV,1,1,1,1,1,1,1,,,,,,,,,,,,*48
$GPGGA,000117,03018.0843,N,09743.9098,W,1,8,1.1,-0.9422753660264886,M,24.5,M,,0000*4f
$GPGSA,A,3,,,,,,,,,,,,,1.500,2.121,2.121,*1a
$GPGSV,1,1,1,1,1,1,1,,,,,,,,,,,,*48
$GPGSV,1,1,1,1,1,1,1,,,,,,,,,,,,*48
$GPGGA,000118,03018.0843,N,09743.9094,W,1,8,1.1,2.617008356674262,M,24.5,M,,0000*52
$GPGSA,A,3,,,,,,,,,,,,,1.500,2.121,2.121,*1a
$GPGSV,1,1,1,1,1,1,1,,,,,,,,,,,,*48
$GPGSV,1,1,1,1,1,1,1,,,,,,,,,,,,*48
$GPGGA,000119,03018.0850,N,09743.9078,W,1,8,1.1,2.8630193916071542,M,24.5,M,,0000*65
$GPGSA,A,3,,,,,,,,,,,,,1.500,2.121,2.121,*1a
$GPGSV,1,1,1,1,1,1,1,,,,,,,,,,,,*48
$GPGSV,1,1,1,1,1,1,1,,,,,,,,,,,,*48
$GPGGA,000120,03018.0845,N,09743.9085,W,1,8,1.1,0.9394187000474895,M,24.5,M,,0000*6c
$GPGSA,A,3,,,,,,,,,,,,,1.500,2.121,2.121,*1a
$GPGSV,1,1,1,1,1,1,1,,,,,,,,,,,,*48
$GPGSV,1,1,1,1,1,1,1,,,,,,,,,,,,*48
$GPGGA,000121,03018.0842,N,09743.9100,W,1,8,1.1,1.3008968568445471,M,24.5,M,,0000*6d
$GPGSA,A,3,,,,,,,,,,,,,1.500,2.121,2.121,*1a
$GPGSV,1,1,1,1,1,1,1,,,,,,,,,,,,*48
$GPGSV,1,1,1,1,1,1,1,,,,,,,,,,,,*48
$GPGGA,000122,03018.0844,N,09743.9095,W,1,8,1.1,-0.8215324931954191,M,24.5,M,,0000*48
$GPGSA,A,3,,,,,,,,,,,,,1.500,2.121,2.121,*1a
$GPGSV,1,1,1,1,1,1,1,,,,,,,,,,,,*48
$GPGSV,1,1,1,1,1,1,1,,,,,,,,,,,,*48
$GPGGA,000123,03018.0840,N,09743.9090,W,1,8,1.1,3.4932964265949242,M,24.5,M,,0000*61
$GPGSA,A,3,,,,,,,,,,,,,1.500,2.121,2.121,*1a
$GPGSV,1,1,1,1,1,1,1,,,,,,,,,,,,*48
$GPGSV,1,1,1,1,1,1,1,,,,,,,,,,,,*48
$GPGGA,000124,03018.0855,N,09743.9088,W,1,8,1.1,2.3460087676604044,M,24.5,M,,0000*67
$GPGSA,A,3,,,,,,,,,,,,,1.500,2.121,2.121,*1a
$GPGSV,1,1,1,1,1,1,1,,,,,,,,,,,,*48
$GPGSV,1,1,1,1,1,1,1,,,,,,,,,,,,*48
$GPGGA,000125,03018.0838,N,09743.9096,W,1,8,1.1,2.0586759649042605,M,24.5,M,,0000*67
$GPGSA,A,3,,,,,,,,,,,,,1.500,2.121,2.121,*1a
$GPGSV,1,1,1,1,1,1,1,,,,,,,,,,,,*48
$GPGSV,1,1,1,1,1,1,1,,,,,,,,,,,,*48
$GPGGA,000126,03018.0847,N,09743.9088,W,1,8,1.1,-1.6280778849223285,M,24.5,M,,0000*4e
$GPGSA,A,3,,,,,,,,,,,,,1.500,2.121,2.121,*1a
$GPGSV,1,1,1,1,1,1,1,,,,,,,,,,,,*48
$GPGSV,1,1,1,1,1,1,1,,,,,,,,,,,,*48
$GPGGA,000127,03018.0846,N,09743.9104,W,1,8,1.1,-0.22049004487668578,M,24.5,M,,0000*77
$GPGSA,A,3,,,,,,,,,,,,,1.500,2.121,2.121,*1a
$GPGSV,1,1,1,1,1,1,1,,,,,,,,,,,,*48
$GPGSV,1,1,1,1,1,1,1,,,,,,,,,,,,*48
$GPGGA,000128,03018.0842,N,09743.9097,W,1,8,1.1,0.7641311887465381,M,24.5,M,,0000*67
$GPGSA,A,3,,,,,,,,,,,,,1.500,2.121,2.121,*1a
$GPGSV,1,1,1,1,1,1,1,,,,,,,,,,,,*48
$GPGSV,1,1,1,1,1,1,1,,,,,,,,,,,,*48
$GPGGA,000129,03018.0844,N,09743.9095,W,1,8,1.1,0.7566314350895798,M,24.5,M,,0000*6f
$GPGSA,A,3,,,,,,,,,,,,,1.500,2.121,2.121,*1a
$GPGSV,1,1,1,1,1,1,1,,,,,,,,,,,,*48
$GPGSV,1,1,1,1,1,1,1,,,,,,,,,,,,*48
$GPGGA,000130,03018.0849,N,09743.9101,W,1,8,1.1,2.0884803186929495,M,24.5,M,,0000*6e
$GPGSA,A,3,,,,,,,,,,,,,1.500,2.121,2.121,*1a
$GPGSV,1,1,1,1,1,1,1,,,,,,,,,,,,*48
$GPGSV,1,1,1,1,1,1,1,,,,,,,,,,,,*48
$GPGGA,000131,03018.0836,N,09743.9102,W,1,8,1.1,2.381434232648954,M,24.5,M,,0000*56
$GPGSA,A,3,,,,,,,,,,,,,1.500,2.121,2.121,*1a
$GPGSV,1,1,1,1,1,1,1,,,,,,,,,,,,*48
$GPGSV,1,1,1,1,1,1,1,,,,,,,,,,,,*48
$GPGGA,000132,03018.0844,N,09743.9109,W,1,8,1.1,3.780882648698809,M,24.5,M,,0000*53
$GPGSA,A,3,,,,,,,,,,,,,1.500,2.121,2.121,*1a
$GPGSV,1,1,1,1,1,1,1,,,,,,,,,,,,*48
$GPGSV,1,1,1,1,1,1,1,,,,,,,,,,,,*48
$GPGGA,000133,03018.0844,N,09743.9093,W,1,8,1.1,1.508867915740763,M,24.5,M,,0000*5b
$GPGSA,A,3,,,,,,,,,,,,,1.500,2.121,2.121,*1a
$GPGSV,1,1,1,1,1,1,1,,,,,,,,,,,,*48
$GPGSV,1,1,1,1,1,1,1,,,,,,,,,,,,*48
$GPGGA,000134,03018.0846,N,09743.9096,W,1,8,1.1,2.53598415597637,M,24.5,M,,0000*6b
$GPGSA,A,3,,,,,,,,,,,,,1.500,2.121,2.121,*1a
$GPGSV,1,1,1,1,1,1,1,,,,,,,,,,,,*48
$GPGSV,1,1,1,1,1,1,1,,,,,,,,,,,,*48
$GPGGA,000135,03018.0844,N,09743.9093,W,1,8,1.1,2.8836967128141615,M,24.5,M,,0000*66
$GPGSA,A,3,,,,,,,,,,,,,1.500,2.121,2.121,*1a
$GPGSV,1,1,1,1,1,1,1,,,,,,,,,,,,*48
$GPGSV,1,1,1,1,1,1,1,,,,,,,,,,,,*48
$GPGGA,000136,03018.0843,N,09743.9097,W,1,8,1.1,2.5200263926536923,M,24.5,M,,0000*63
$GPGSA,A,3,,,,,,,,,,,,,1.500,2.121,2.121,*1a
$GPGSV,1,1,1,1,1,1,1,,,,,,,,,,,,*48
$GPGSV,1,1,1,1,1,1,1,,,,,,,,,,,,*48
$GPGGA,000137,03018.0834,N,09743.9098,W,1,8,1.1,-0.9161974113416971,M,24.5,M,,0000*4d
$GPGSA,A,3,,,,,,,,,,,,,1.500,2.121,2.121,*1a
$GPGSV,1,1,1,1,1,1,1,,,,,,,,,,,,*48
$GPGSV,1,1,1,1,1,1,1,,,,,,,,,,,,*48
$GPGGA,000138,03018.0846,N,09743.9084,W,1,8,1.1,3.7379756996823397,M,24.5,M,,0000*62
$GPGSA,A,3,,,,,,,,,,,,,1.500,2.121,2.121,*1a
$GPGSV,1,1,1,1,1,1,1,,,,,,,,,,,,*48
$GPGSV,1,1,1,1,1,1,1,,,,,,,,,,,,*48
$GPGGA,000139,03018.0847,N,09743.9098,W,1,8,1.1,3.9230655131472996,M,24.5,M,,0000*69
$GPGSA,A,3,,,,,,,,,,,,,1.500,2.121,2.121,*1a
$GPGSV,1,1,1,1,1,1,1,,,,,,,,,,,,*48
$GPGSV,1,1,1,1,1,1,1,,,,,,,,,,,,*48
$GPGGA,000140,03018.0839,N,09743.9099,W,1,8,1.1,2.969536153051352,M,24.5,M,,0000*55
$GPGSA,A,3,,,,,,,,,,,,,1.500,2.121,2.121,*1a
$GPGSV,1,1,1,1,1,1,1,,,,,,,,,,,,*48
$GPGSV,1,1,1,1,1,1,1,,,,,,,,,,,,*48
$GPGGA,000141,03018.0844,N,09743.9098,W,1,8,1.1,1.969011930322519,M,24.5,M,,0000*5f
$GPGSA,A,3,,,,,,,,,,,,,1.500,2.121,2.121,*1a
$GPGSV,1,1,1,1,1,1,1,,,,,,,,,,,,*48
$GPGSV,1,1,1,1,1,1,1,,,,,,,,,,,,*48
$GPGGA,000142,03018.0844,N,09743.9097,W,1,8,1.1,1.6168373486508634,M,24.5,M,,0000*69
$GPGSA,A,3,,,,,,,,,,,,,1.500,2.121,2.121,*1a
$GPGSV,1,1,1,1,1,1,1,,,,,,,,,,,,*48
$GPGSV,1,1,1,1,1,1,1,,,,,,,,,,,,*48
$GPGGA,000143,03018.0836,N,09743.9099,W,1,8,1.1,1.3432016927462715,M,24.5,M,,0000*65
$GPGSA,A,3,,,,,,,,,,,,,1.500,2.121,2.121,*1a
$GPGSV,1,1,1,1,1,1,1,,,,,,,,,,,,*48
$GPGSV,1,1,1,1,1,1,1,,,,,,,,,,,,*48
$GPGGA,000144,03018.0847,N,09743.9096,W,1,8,1.1,-0.06810765151435394,M,24.5,M,,0000*7b
$GPGSA,A,3,,,,,,,,,,,,,1.500,2.121,2.121,*1a
$GPGSV,1,1,1,1,1,1,1,,,,,,,,,,,,*48
$GPGSV,1,1,1,1,1,1,1,,,,,,,,,,,,*48
$GPGGA,000145,03018.0845,N,09743.9092,W,1,8,1.1,-0.9088557793256768,M,24.5,M,,0000*45
$GPGSA,A,3,,,,,,,,,,,,,1.500,2.121,2.121,*1a
$GPGSV,1,1,1,1,1,1,1,,,,,,,,,,,,*48
$GPGSV,1,1,1,1,1,1,1,,,,,,,,,,,,*48
$GPGGA,000146,03018.0847,N,09743.9088,W,1,8,1.1,2.1534058355203696,M,24.5,M,,0000*6e
$GPGSA,A,3,,,,,,,,,,,,,1.500,2.121,2.121,*1a
$GPGSV,1,1,1,1,1,1,1,,,,,,,,,,,,*48
$GPGSV,1,1,1,1,1,1,1,,,,,,,,,,,,*48
$GPGGA,000147,03018.0851,N,09743.9099,W,1,8,1.1,2.3696279807021763,M,24.5,M,,0000*65
$GPGSA,A,3,,,,,,,,,,,,,1.500,2.121,2.121,*1a
$GPGSV,1,1,1,1,1,1,1,,,,,,,,,,,,*48
$GPGSV,1,1,1,1,1,1,1,,,,,,,,,,,,*48
$GPGGA,000148,03018.0842,N,09743.9087,W,1,8,1.1,0.916380000150453,M,24.5,M,,0000*5e
$GPGSA,A,3,,,,,,,,,,,,,1.500,2.121,2.121,*1a
$GPGSV,1,1,1,1,1,1,1,,,,,,,,,,,,*48
$GPGSV,1,1,1,1,1,1,1,,,,,,,,,,,,*48
$GPGGA,000149,03018.0842,N,09743.9087,W,1,8,1.1,1.4293349834779308,M,24.5,M,,0000*62
$GPGSA,A,3,,,,,,,,,,,,,1.500,2.121,2.121,*1a
$GPGSV,1,1,1,1,1,1,1,,,,,,,,,,,,*48
$GPGSV,1,1,1,1,1,1,1,,,,,,,,,,,,*48
$GPGGA,000150,03018.0846,N,09743.9101,W,1,8,1.1,3.0526892440306743,M,24.5,M,,0000*6b
$GPGSA,A,3,,,,,,,,,,,,,1.500,2.121,2.121,*1a
$GPGSV,1,1,1,1,1,1,1,,,,,,,,,,,,*48
$GPGSV,1,1,1,1,1,1,1,,,,,,,,,,,,*48
$GPGGA,000151,03018.0843,N,09743.9084,W,1,8,1.1,-3.671997296122708,M,24.5,M,,0000*7d
$GPGSA,A,3,,,,,,,,,,,,,1.500,2.121,2.121,*1a
$GPGSV,1,1,1,1,1,1,1,,,,,,,,,,,,*48
$GPGSV,1,1,1,1,1,1,1,,,,,,,,,,,,*48
$GPGGA,000152,03018.0839,N,09743.9093,W,1,8,1.1,0.5754101425309801,M,24.5,M,,0000*6c
$GPGSA,A,3,,,,,,,,,,,,,1.500,2.121,2.121,*1a
$GPGSV,1,1,1,1,1,1,1,,,,,,,,,,,,*48
$GPGSV,1,1,1,1,1,1,1,,,,,,,,,,,,*48
$GPGGA,000153,03018.0856,N,09743.9097,W,1,8,1.1,1.3313704918416136,M,24.5,M,,0000*64
$GPGSA,A,3,,,,,,,,,,,,,1.500,2.121,2.121,*1a
$GPGSV,1,1,1,1,1,1,1,,,,,,,,,,,,*48
$GPGSV,1,1,1,1,1,1,1,,,,,,,,,,,,*48
$GPGGA,000154,03018.0842,N,09743.9102,W,1,8,1.1,2.0426610467772415,M,24.5,M,,0000*6e
$GPGSA,A,3,,,,,,,,,,,,,1.500,2.121,2.121,*1a
$GPGSV,1,1,1,1,1,1,1,,,,,,,,,,,,*48
$GPGSV,1,1,1,1,1,1,1,,,,,,,,,,,,*48
$GPGGA,000155,03018.0848,N,09743.9105,W,1,8,1.1,5.21700376934258,M,24.5,M,,0000*62
$GPGSA,A,3,,,,,,,,,,,,,1.500,2.121,2.121,*1a
$GPGSV,1,1,1,1,1,1,1,,,,,,,,,,,,*48
$GPGSV,1,1,1,1,1,1,1,,,,,,,,,,,,*48
$GPGGA,000156,03018.0844,N,09743.9095,W,1,8,1.1,1.3348242268177,M,24.5,M,,0000*53
$GPGSA,A,3,,,,,,,,,,,,,1.500,2.121,2.121,*1a
$GPGSV,1,1,1,1,1,1,1,,,,,,,,,,,,*48
$GPGSV,1,1,1,1,1,1,1,,,,,,,,,,,,*48
$GPGGA,000157,03018.0843,N,09743.9094,W,1,8,1.1,3.14631878018543,M,24.5,M,,0000*6e
$GPGSA,A,3,,,,,,,,,,,,,1.500,2.121,2.121,*1a
$GPGSV,1,1,1,1,1,1,1,,,,,,,,,,,,*48
$GPGSV,1,1,1,1,1,1,1,,,,,,,,,,,,*48
$GPGGA,000158,03018.0845,N,09743.9098,W,1,8,1.1,1.842825756906482,M,24.5,M,,0000*50
$GPGSA,A,3,,,,,,,,,,,,,1.500,2.121,2.121,*1a
$GPGSV,1,1,1,1,1,1,1,,,,,,,,,,,,*48
$GPGSV,1,1,1,1,1,1,1,,,,,,,,,,,,*48
$GPGGA,000159,03018.0841,N,09743.9095,W,1,8,1.1,-0.19772297495356517,M,24.5,M,,0000*7d
$GPGSA,A,3,,,,,,,,,,,,,1.500,2.121,2.121,*1a
$GPGSV,1,1,1,1,1,1,1,,,,,,,,,,,,*48
$GPGSV,1,1,1,1,1,1,1,,,,,,,,,,,,*48
$GPGGA,000160,03018.0840,N,09743.9092,W,1,8,1.1,1.6132758035442085,M,24.5,M,,0000*65
$GPGSA,A,3,,,,,,,,,,,,,1.500,2.121,2.121,*1a
$GPGSV,1,1,1,1,1,1,1,,,,,,,,,,,,*48
$GPGSV,1,1,1,1,1,1,1,,,,,,,,,,,,*48
$GPGGA,000161,03018.0847,N,09743.9101,W,1,8,1.1,1.5429900320232808,M,24.5,M,,0000*6c
$GPGSA,A,3,,,,,,,,,,,,,1.500,2.121,2.121,*1a
$GPGSV,1,1,1,1,1,1,1,,,,,,,,,,,,*48
$GPGSV,1,1,1,1,1,1,1,,,,,,,,,,,,*48
$GPGGA,000162,03018.0837,N,09743.9100,W,1,8,1.1,4.060511502523821,M,24.5,M,,0000*56
$GPGSA,A,3,,,,,,,,,,,,,1.500,2.121,2.121,*1a
$GPGSV,1,1,1,1,1,1,1,,,,,,,,,,,,*48
$GPGSV,1,1,1,1,1,1,1,,,,,,,,,,,,*48
$GPGGA,000163,03018.0836,N,09743.9096,W,1,8,1.1,2.2734371390052655,M,24.5,M,,0000*69
$GPGSA,A,3,,,,,,,,,,,,,1.500,2.121,2.121,*1a
$GPGSV,1,1,1,1,1,1,1,,,,,,,,,,,,*48
$GPGSV,1,1,1,1,1,1,1,,,,,,,,,,,,*48
$GPGGA,000164,03018.0853,N,09743.9094,W,1,8,1.1,3.0025266123495196,M,24.5,M,,0000*61
$GPGSA,A,3,,,,,,,,,,,,,1.500,2.121,2.121,*1a
$GPGSV,1,1,1,1,1,1,1,,,,,,,,,,,,*48
$GPGSV,1,1,1,1,1,1,1,,,,,,,,,,,,*48
$GPGGA,000165,03018.0839,N,09743.9095,W,1,8,1.1,3.6498849054929883,M,24.5,M,,0000*68
$GPGSA,A,3,,,,,,,,,,,,,1.500,2.121,2.121,*1a
$GPGSV,1,1,1,1,1,1,1,,,,,,,,,,,,*48
$GPGSV,1,1,1,1,1,1,1,,,,,,,,,,,,*48
$GPGGA,000166,03018.0842,N,09743.9087,W,1,8,1.1,4.980148821351975,M,24.5,M,,0000*5e
$GPGSA,A,3,,,,,,,,,,,,,1.500,2.121,2.121,*1a
$GPGSV,1,1,1,1,1,1,1,,,,,,,,,,,,*48
$GPGSV,1,1,1,1,1,1,1,,,,,,,,,,,,*48
$GPGGA,000167,03018.0841,N,09743.9098,W,1,8,1.1,2.2819587733093707,M,24.5,M,,0000*6a
$GPGSA,A,3,,,,,,,,,,,,,1.500,2.121,2.121,*1a
$GPGSV,1,1,1,1,1,1,1,,,,,,,,,,,,*48
$GPGSV,1,1,1,1,1,1,1,,,,,,,,,,,,*48
$GPGGA,000168,03018.0840,N,09743.9089,W,1,8,1.1,4.696292384942676,M,24.5,M,,0000*50
$GPGSA,A,3,,,,,,,,,,,,,1.500,2.121,2.121,*1a
$GPGSV,1,1,1,1,1,1,1,,,,,,,,,,,,*48
$GPGSV,1,1,1,1,1,1,1,,,,,,,,,,,,*48
$GPGGA,000169,03018.0848,N,09743.9092,W,1,8,1.1,0.9253256114373185,M,24.5,M,,0000*63
$GPGSA,A,3,,,,,,,,,,,,,1.500,2.121,2.121,*1a
$GPGSV,1,1,1,1,1,1,1,,,,,,,,,,,,*48
$GPGSV,1,1,1,1,1,1,1,,,,,,,,,,,,*48
$GPGGA,000170,03018.0842,N,09743.9095,W,1,8,1.1,2.216115962576991,M,24.5,M,,0000*5f
$GPGSA,A,3,,,,,,,,,,,,,1.500,2.121,2.121,*1a
$GPGSV,1,1,1,1,1,1,1,,,,,,,,,,,,*48
$GPGSV,1,1,1,1,1,1,1,,,,,,,,,,,,*48
$GPGGA,000171,03018.0845,N,09743.9096,W,1,8,1.1,1.0090723881404062,M,24.5,M,,0000*6b
$GPGSA,A,3,,,,,,,,,,,,,1.500,2.121,2.121,*1a
$GPGSV,1,1,1,1,1,1,1,,,,,,,,,,,,*48
$GPGSV,1,1,1,1,1,1,1,,,,,,,,,,,,*48
$GPGGA,000172,03018.0850,N,09743.9092,W,1,8,1.1,3.676842616758286,M,24.5,M,,0000*5e
$GPGSA,A,3,,,,,,,,,,,,,1.500,2.121,2.121,*1a
$GPGSV,1,1,1,1,1,1,1,,,,,,,,,,,,*48
$GPGSV,1,1,1,1,1,1,1,,,,,,,,,,,,*48
$GPGGA,000173,03018.0842,N,09743.9097,W,1,8,1.1,1.2036968461346353,M,24.5,M,,0000*62
$GPGSA,A,3,,,,,,,,,,,,,1.500,2.121,2.121,*1a
$GPGSV,1,1,1,1,1,1,1,,,,,,,,,,,,*48
$GPGSV,1,1,1,1,1,1,1,,,,,,,,,,,,*48
$GPGGA,000174,03018.0848,N,09743.9086,W,1,8,1.1,0.2961600912981228,M,24.5,M,,0000*61
$GPGSA,A,3,,,,,,,,,,,,,1.500,2.121,2.121,*1a
$GPGSV,1,1,1,1,1,1,1,,,,,,,,,,,,*48
$GPGSV,1,1,1,1,1,1,1,,,,,,,,,,,,*48
$GPGGA,000175,03018.0847,N,09743.9095,W,1,8,1.1,0.6903033788426373,M,24.5,M,,0000*69
$GPGSA,A,3,,,,,,,,,,,,,1.500,2.121,2.121,*1a
$GPGSV,1,1,1,1,1,1,1,,,,,,,,,,,,*48
$GPGSV,1,1,1,1,1,1,1,,,,,,,,,,,,*48
$GPGGA,000176,03018.0841,N,09743.9097,W,1,8,1.1,3.0302283898474824,M,24.5,M,,0000*69
$GPGSA,A,3,,,,,,,,,,,,,1.500,2.121,2.121,*1a
$GPGSV,1,1,1,1,1,1,1,,,,,,,,,,,,*48
$GPGSV,1,1,1,1,1,1,1,,,,,,,,,,,,*48
$GPGGA,000177,03018.0856,N,09743.9103,W,1,8,1.1,2.515074674381134,M,24.5,M,,0000*50
$GPGSA,A,3,,,,,,,,,,,,,1.500,2.121,2.121,*1a
$GPGSV,1,1,1,1,1,1,1,,,,,,,,,,,,*48
$GPGSV,1,1,1,1,1,1,1,,,,,,,,,,,,*48
$GPGGA,000178,03018.0847,N,09743.9089,W,1,8,1.1,2.4749936675593176,M,24.5,M,,0000*6e
$GPGSA,A,3,,,,,,,,,,,,,1.500,2.121,2.121,*1a
$GPGSV,1,1,1,1,1,1,1,,,,,,,,,,,,*48
$GPGSV,1,1,1,1,1,1,1,,,,,,,,,,,,*48
$GPGGA,000179,03018.0842,N,09743.9095,W,1,8,1.1,0.7603818525481999,M,24.5,M,,0000*69
$GPGSA,A,3,,,,,,,,,,,,,1.500,2.121,2.121,*1a
$GPGSV,1,1,1,1,1,1,1,,,,,,,,,,,,*48
$GPGSV,1,1,1,1,1,1,1,,,,,,,,,,,,*48
$GPGGA,000180,03018.0843,N,09743.9096,W,1,8,1.1,1.0220565396893955,M,24.5,M,,0000*68
$GPGSA,A,3,,,,,,,,,,,,,1.500,2.121,2.121,*1a
$GPGSV,1,1,1,1,1,1,1,,,,,,,,,,,,*48
$GPGSV,1,1,1,1,1,1,1,,,,,,,,,,,,*48
$GPGGA,000181,03018.0842,N,09743.9094,W,1,8,1.1,-0.6686577525564883,M,24.5,M,,0000*4a
$GPGSA,A,3,,,,,,,,,,,,,1.500,2.121,2.121,*1a
$GPGSV,1,1,1,1,1,1,1,,,,,,,,,,,,*48
$GPGSV,1,1,1,1,1,1,1,,,,,,,,,,,,*48
$GPGGA,000182,03018.0842,N,09743.9094,W,1,8,1.1,0.43408157393195523,M,24.5,M,,0000*51
$GPGSA,A,3,,,,,,,,,,,,,1.500,2.121,2.121,*1a
$GPGSV,1,1,1,1,1,1,1,,,,,,,,,,,,*48
$GPGSV,1,1,1,1,1,1,1,,,,,,,,,,,,*48
$GPGGA,000183,03018.0849,N,09743.9098,W,1,8,1.1,1.9165344701799554,M,24.5,M,,0000*63
$GPGSA,A,3,,,,,,,,,,,,,1.500,2.121,2.121,*1a
$GPGSV,1,1,1,1,1,1,1,,,,,,,,,,,,*48
$GPGSV,1,1,1,1,1,1,1,,,,,,,,,,,,*48
$GPGGA,000184,03018.0842,N,09743.9100,W,1,8,1.1,2.309130778456142,M,24.5,M,,0000*51
$GPGSA,A,3,,,,,,,,,,,,,1.500,2.121,2.121,*1a
$GPGSV,1,1,1,1,1,1,1,,,,,,,,,,,,*48
$GPGSV,1,1,1,1,1,1,1,,,,,,,,,,,,*48
$GPGGA,000185,03018.0845,N,09743.9095,W,1,8,1.1,0.025931941025032934,M,24.5,M,,0000*60
$GPGSA,A,3,,,,,,,,,,,,,1.500,2.121,2.121,*1a
$GPGSV,1,1,1,1,1,1,1,,,,,,,,,,,,*48
$GPGSV,1,1,1,1,1,1,1,,,,,,,,,,,,*48
$GPGGA,000186,03018.0842,N,09743.9099,W,1,8,1.1,1.9995239820215494,M,24.5,M,,0000*60
$GPGSA,A,3,,,,,,,,,,,,,1.500,2.121,2.121,*1a
$GPGSV,1,1,1,1,1,1,1,,,,,,,,,,,,*48
$GPGSV,1,1,1,1,1,1,1,,,,,,,,,,,,*48
$GPGGA,000187,03018.0845,N,09743.9092,W,1,8,1.1,2.7336944112467605,M,24.5,M,,0000*63
$GPGSA,A,3,,,,,,,,,,,,,1.500,2.121,2.121,*1a
$GPGSV,1,1,1,1,1,1,1,,,,,,,,,,,,*48
$GPGSV,1,1,1,1,1,1,1,,,,,,,,,,,,*48
$GPGGA,000188,03018.0844,N,09743.9117,W,1,8,1.1,0.9617816854675252,M,24.5,M,,0000*61
$GPGSA,A,3,,,,,,,,,,,,,1.500,2.121,2.121,*1a
$GPGSV,1,1,1,1,1,1,1,,,,,,,,,,,,*48
$GPGSV,1,1,1,1,1,1,1,,,,,,,,,,,,*48
$GPGGA,000189,03018.0846,N,09743.9098,W,1,8,1.1,1.742882403581786,M,24.5,M,,0000*5a
$GPGSA,A,3,,,,,,,,,,,,,1.500,2.121,2.121,*1a
$GPGSV,1,1,1,1,1,1,1,,,,,,,,,,,,*48
$GPGSV,1,1,1,1,1,1,1,,,,,,,,,,,,*48
$GPGGA,000190,03018.0838,N,09743.9094,W,1,8,1.1,2.0722911371560526,M,24.5,M,,0000*6c
$GPGSA,A,3,,,,,,,,,,,,,1.500,2.121,2.121,*1a
$GPGSV,1,1,1,1,1,1,1,,,,,,,,,,,,*48
$GPGSV,1,1,1,1,1,1,1,,,,,,,,,,,,*48
$GPGGA,000191,03018.0855,N,09743.9094,W,1,8,1.1,0.5013994504957523,M,24.5,M,,0000*60
$GPGSA,A,3,,,,,,,,,,,,,1.500,2.121,2.121,*1a
$GPGSV,1,1,1,1,1,1,1,,,,,,,,,,,,*48
$GPGSV,1,1,1,1,1,1,1,,,,,,,,,,,,*48
$GPGGA,000192,03018.0844,N,09743.9095,W,1,8,1.1,2.89837270856693,M,24.5,M,,0000*62
$GPGSA,A,3,,,,,,,,,,,,,1.500,2.121,2.121,*1a
$GPGSV,1,1,1,1,1,1,1,,,,,,,,,,,,*48
$GPGSV,1,1,1,1,1,1,1,,,,,,,,,,,,*48
$GPGGA,000193,03018.0844,N,09743.9095,W,1,8,1.1,4.016136819525286,M,24.5,M,,0000*57
$GPGSA,A,3,,,,,,,,,,,,,1.500,2.121,2.121,*1a
$GPGSV,1,1,1,1,1,1,1,,,,,,,,,,,,*48
$GPGSV,1,1,1,1,1,1,1,,,,,,,,,,,,*48
$GPGGA,000194,03018.0843,N,09743.9109,W,1,8,1.1,0.9441575463274984,M,24.5,M,,0000*60
$GPGSA,A,3,,,,,,,,,,,,,1.500,2.121,2.121,*1a
$GPGSV,1,1,1,1,1,1,1,,,,,,,,,,,,*48
$GPGSV,1,1,1,1,1,1,1,,,,,,,,,,,,*48
$GPGGA,000195,03018.0846,N,09743.9091,W,1,8,1.1,3.4881384694891207,M,24.5,M,,0000*69
$GPGSA,A,3,,,,,,,,,,,,,1.500,2.121,2.121,*1a
$GPGSV,1,1,1,1,1,1,1,,,,,,,,,,,,*48
$GPGSV,1,1,1,1,1,1,1,,,,,,,,,,,,*48
$GPGGA,000196,03018.0843,N,09743.9096,W,1,8,1.1,-0.920289376890342,M,24.5,M,,0000*7c
$GPGSA,A,3,,,,,,,,,,,,,1.500,2.121,2.121,*1a
$GPGSV,1,1,1,1,1,1,1,,,,,,,,,,,,*48
$GPGSV,1,1,1,1,1,1,1,,,,,,,,,,,,*48
$GPGGA,000197,03018.0844,N,09743.9095,W,1,8,1.1,2.2995099210436316,M,24.5,M,,0000*69
$GPGSA,A,3,,,,,,,,,,,,,1.500,2.121,2.121,*1a
$GPGSV,1,1,1,1,1,1,1,,,,,,,,,,,,*48
$GPGSV,1,1,1,1,1,1,1,,,,,,,,,,,,*48
$GPGGA,000198,03018.0846,N,09743.9095,W,1,8,1.1,-0.5198580207071042,M,24.5,M,,0000*47
$GPGSA,A,3,,,,,,,,,,,,,1.500,2.121,2.121,*1a
$GPGSV,1,1,1,1,1,1,1,,,,,,,,,,,,*48
$GPGSV,1,1,1,1,1,1,1,,,,,,,,,,,,*48
$GPGGA,000199,03018.0866,N,09743.9097,W,1,8,1.1,0.6987044279680595,M,24.5,M,,0000*6d
$GPGSA,A,3,,,,,,,,,,,,,1.500,2.121,2.121,*1a
$GPGSV,1,1,1,1,1,1,1,,,,,,,,,,,,*48
$GPGSV,1,1,1,1,1,1,1,,,,,,,,,,,,*48
$GPGGA,000200,03018.0839,N,09743.9100,W,1,8,1.1,2.662154846978799,M,24.5,M,,0000*5b
$GPGSA,A,3,,,,,,,,,,,,,1.500,2.121,2.121,*1a
$GPGSV,1,1,1,1,1,1,1,,,,,,,,,,,,*48
$GPGSV,1,1,1,1,1,1,1,,,,,,,,,,,,*48
$GPGGA,000201,03018.0845,N,09743.9094,W,1,8,1.1,1.4537862288260095,M,24.5,M,,0000*64
$GPGSA,A,3,,,,,,,,,,,,,1.500,2.121,2.121,*1a
$GPGSV,1,1,1,1,1,1,1,,,,,,,,,,,,*48
$GPGSV,1,1,1,1,1,1,1,,,,,,,,,,,,*48
$GPGGA,000202,03018.0860,N,09743.9102,W,1,8,1.1,1.924773657010531,M,24.5,M,,0000*53
$GPGSA,A,3,,,,,,,,,,,,,1.500,2.121,2.121,*1a
$GPGSV,1,1,1,1,1,1,1,,,,,,,,,,,,*48
$GPGSV,1,1,1,1,1,1,1,,,,,,,,,,,,*48
$GPGGA,000203,03018.0841,N,09743.9106,W,1,8,1.1,0.7195139860312915,M,24.5,M,,0000*68
$GPGSA,A,3,,,,,,,,,,,,,1.500,2.121,2.121,*1a
$GPGSV,1,1,1,1,1,1,1,,,,,,,,,,,,*48
$GPGSV,1,1,1,1,1,1,1,,,,,,,,,,,,*48
$GPGGA,000204,03018.0849,N,09743.9091,W,1,8,1.1,1.0493482257595068,M,24.5,M,,0000*6c
$GPGSA,A,3,,,,,,,,,,,,,1.500,2.121,2.121,*1a
$GPGSV,1,1,1,1,1,1,1,,,,,,,,,,,,*48
$GPGSV,1,1,1,1,1,1,1,,,,,,,,,,,,*48
$GPGGA,000205,03018.0859,N,09743.9092,W,1,8,1.1,2.2994998838981666,M,24.5,M,,0000*60
$GPGSA,A,3,,,,,,,,,,,,,1.500,2.121,2.121,*1a
$GPGSV,1,1,1,1,1,1,1,,,,,,,,,,,,*48
$GPGSV,1,1,1,1,1,1,1,,,,,,,,,,,,*48
$GPGGA,000206,03018.0844,N,09743.9109,W,1,8,1.1,-0.22192122100560563,M,24.5,M,,0000*71
$GPGSA,A,3,,,,,,,,,,,,,1.500,2.121,2.121,*1a
$GPGSV,1,1,1,1,1,1,1,,,,,,,,,,,,*48
$GPGSV,1,1,1,1,1,1,1,,,,,,,,,,,,*48
$GPGGA,000207,03018.0843,N,09743.9090,W,1,8,1.1,2.7811225324231152,M,24.5,M,,0000*69
$GPGSA,A,3,,,,,,,,,,,,,1.500,2.121,2.121,*1a
$GPGSV,1,1,1,1,1,1,1,,,,,,,,,,,,*48
$GPGSV,1,1,1,1,1,1,1,,,,,,,,,,,,*48
$GPGGA,000208,03018.0839,N,09743.9088,W,1,8,1.1,1.2424281372400865,M,24.5,M,,0000*6a
$GPGSA,A,3,,,,,,,,,,,,,1.500,2.121,2.121,*1a
$GPGSV,1,1,1,1,1,1,1,,,,,,,,,,,,*48
$GPGSV,1,1,1,1,1,1,1,,,,,,,,,,,,*48
$GPGGA,000209,03018.0843,N,09743.9094,W,1,8,1.1,1.1818822752154179,M,24.5,M,,0000*6e
$GPGSA,A,3,,,,,,,,,,,,,1.500,2.121,2.121,*1a
$GPGSV,1,1,1,1,1,1,1,,,,,,,,,,,,*48
$GPGSV,1,1,1,1,1,1,1,,,,,,,,,,,,*48
$GPGGA,000210,03018.0842,N,09743.9099,W,1,8,1.1,1.4565622751702132,M,24.5,M,,0000*6f
$GPGSA,A,3,,,,,,,,,,,,,1.500,2.121,2.121,*1a
$GPGSV,1,1,1,1,1,1,1,,,,,,,,,,,,*48
$GPGSV,1,1,1,1,1,1,1,,,,,,,,,,,,*48
$GPGGA,000211,03018.0844,N,09743.9094,W,1,8,1.1,2.817828994899969,M,24.5,M,,0000*52
$GPGSA,A,3,,,,,,,,,,,,,1.500,2.121,2.121,*1a
$GPGSV,1,1,1,1,1,1,1,,,,,,,,,,,,*48
$GPGSV,1,1,1,1,1,1,1,,,,,,,,,,,,*48
$GPGGA,000212,03018.0835,N,09743.9069,W,1,8,1.1,1.8347423828655205,M,24.5,M,,0000*6e
$GPGSA,A,3,,,,,,,,,,,,,1.500,2.121,2.121,*1a
$GPGSV,1,1,1,1,1,1,1,,,,,,,,,,,,*48
$GPGSV,1,1,1,1,1,1,1,,,,,,,,,,,,*48
$GPGGA,000213,03018.0844,N,09743.9109,W,1,8,1.1,5.094610265481421,M,24.5,M,,0000*55
$GPGSA,A,3,,,,,,,,,,,,,1.500,2.121,2.121,*1a
$GPGSV,1,1,1,1,1,1,1,,,,,,,,,,,,*48
$GPGSV,1,1,1,1,1,1,1,,,,,,,,,,,,*48
$GPGGA,000214,03018.0852,N,09743.9098,W,1,8,1.1,1.8210135381441606,M,24.5,M,,0000*6e
$GPGSA,A,3,,,,,,,,,,,,,1.500,2.121,2.121,*1a
$GPGSV,1,1,1,1,1,1,1,,,,,,,,,,,,*48
$GPGSV,1,1,1,1,1,1,1,,,,,,,,,,,,*48
$GPGGA,000215,03018.0843,N,09743.9098,W,1,8,1.1,0.4836674244481902,M,24.5,M,,0000*61
$GPGSA,A,3,,,,,,,,,,,,,1.500,2.121,2.121,*1a
$GPGSV,1,1,1,1,1,1,1,,,,,,,,,,,,*48
$GPGSV,1,1,1,1,1,1,1,,,,,,,,,,,,*48
$GPGGA,000216,03018.0845,N,09743.9095,W,1,8,1.1,-0.75054813958167,M,24.5,M,,0000*41
$GPGSA,A,3,,,,,,,,,,,,,1.500,2.121,2.121,*1a
$GPGSV,1,1,1,1,1,1,1,,,,,,,,,,,,*48
$GPGSV,1,1,1,1,1,1,1,,,,,,,,,,,,*48
$GPGGA,000217,03018.0841,N,09743.9091,W,1,8,1.1,1.0349604962092924,M,24.5,M,,0000*64
$GPGSA,A,3,,,,,,,,,,,,,1.500,2.121,2.121,*1a
$GPGSV,1,1,1,1,1,1,1,,,,,,,,,,,,*48
$GPGSV,1,1,1,1,1,1,1,,,,,,,,,,,,*48
$GPGGA,000218,03018.0839,N,09743.9090,W,1,8,1.1,3.2437656510765223,M,24.5,M,,0000*66
$GPGSA,A,3,,,,,,,,,,,,,1.500,2.121,2.121,*1a
$GPGSV,1,1,1,1,1,1,1,,,,,,,,,,,,*48
$GPGSV,1,1,1,1,1,1,1,,,,,,,,,,,,*48
$GPGGA,000219,03018.0850,N,09743.9095,W,1,8,1.1,-1.4712706780041183,M,24.5,M,,0000*47
$GPGSA,A,3,,,,,,,,,,,,,1.500,2.121,2.121,*1a
$GPGSV,1,1,1,1,1,1,1,,,,,,,,,,,,*48
$GPGSV,1,1,1,1,1,1,1,,,,,,,,,,,,*48
$GPGGA,000220,03018.0849,N,09743.9096,W,1,8,1.1,1.524084185799166,M,24.5,M,,0000*5f
$GPGSA,A,3,,,,,,,,,,,,,1.500,2.121,2.121,*1a
$GPGSV,1,1,1,1,1,1,1,,,,,,,,,,,,*48
$GPGSV,1,1,1,1,1,1,1,,,,,,,,,,,,*48
$GPGGA,000221,03018.0837,N,09743.9084,W,1,8,1.1,2.932585493206467,M,24.5,M,,0000*5d
$GPGSA,A,3,,,,,,,,,,,,,1.500,2.121,2.121,*1a
$GPGSV,1,1,1,1,1,1,1,,,,,,,,,,,,*48
$GPGSV,1,1,1,1,1,1,1,,,,,,,,,,,,*48
$GPGGA,000222,03018.0848,N,09743.9086,W,1,8,1.1,-0.1160524173617643,M,24.5,M,,0000*45
$GPGSA,A,3,,,,,,,,,,,,,1.500,2.121,2.121,*1a
$GPGSV,1,1,1,1,1,1,1,,,,,,,,,,,,*48
$GPGSV,1,1,1,1,1,1,1,,,,,,,,,,,,*48
$GPGGA,000223,03018.0844,N,09743.9095,W,1,8,1.1,2.2230280468372983,M,24.5,M,,0000*63
$GPGSA,A,3,,,,,,,,,,,,,1.500,2.121,2.121,*1a
$GPGSV,1,1,1,1,1,1,1,,,,,,,,,,,,*48
$GPGSV,1,1,1,1,1,1,1,,,,,,,,,,,,*48
$GPGGA,000224,03018.0840,N,09743.9093,W,1,8,1.1,1.5245257042423845,M,24.5,M,,0000*6e
$GPGSA,A,3,,,,,,,,,,,,,1.500,2.121,2.121,*1a
$GPGSV,1,1,1,1,1,1,1,,,,,,,,,,,,*48
$GPGSV,1,1,1,1,1,1,1,,,,,,,,,,,,*48
$GPGGA,000225,03018.0856,N,09743.9083,W,1,8,1.1,0.4876637073757104,M,24.5,M,,0000*6f
$GPGSA,A,3,,,,,,,,,,,,,1.500,2.121,2.121,*1a
$GPGSV,1,1,1,1,1,1,1,,,,,,,,,,,,*48
$GPGSV,1,1,1,1,1,1,1,,,,,,,,,,,,*48
$GPGGA,000226,03018.0851,N,09743.9101,W,1,8,1.1,0.7213352539353738,M,24.5,M,,0000*6e
$GPGSA,A,3,,,,,,,,,,,,,1.500,2.121,2.121,*1a
$GPGSV,1,1,1,1,1,1,1,,,,,,,,,,,,*48
$GPGSV,1,1,1,1,1,1,1,,,,,,,,,,,,*48
$GPGGA,000227,03018.0843,N,09743.9090,W,1,8,1.1,2.7253104280267104,M,24.5,M,,0000*68
$GPGSA,A,3,,,,,,,,,,,,,1.500,2.121,2.121,*1a
$GPGSV,1,1,1,1,1,1,1,,,,,,,,,,,,*48
$GPGSV,1,1,1,1,1,1,1,,,,,,,,,,,,*48
$GPGGA,000228,03018.0844,N,09743.9095,W,1,8,1.1,-0.6452900777269188,M,24.5,M,,0000*47
$GPGSA,A,3,,,,,,,,,,,,,1.500,2.121,2.121,*1a
$GPGSV,1,1,1,1,1,1,1,,,,,,,,,,,,*48
$GPGSV,1,1,1,1,1,1,1,,,,,,,,,,,,*48
$GPGGA,000229,03018.0845,N,09743.9112,W,1,8,1.1,-0.2907094678134279,M,24.5,M,,0000*4c
$GPGSA,A,3,,,,,,,,,,,,,1.500,2.121,2.121,*1a
$GPGSV,1,1,1,1,1,1,1,,,,,,,,,,,,*48
$GPGSV,1,1,1,1,1,1,1,,,,,,,,,,,,*48
$GPGGA,000230,03018.0840,N,09743.9100,W,1,8,1.1,-0.10090623290518064,M,24.5,M,,0000*7a
$GPGSA,A,3,,,,,,,,,,,,,1.500,2.121,2.121,*1a
$GPGSV,1,1,1,1,1,1,1,,,,,,,,,,,,*48
$GPGSV,1,1,1,1,1,1,1,,,,,,,,,,,,*48
$GPGGA,000231,03018.0845,N,09743.9095,W,1,8,1.1,0.9062782277929365,M,24.5,M,,0000*64
$GPGSA,A,3,,,,,,,,,,,,,1.500,2.121,2.121,*1a
$GPGSV,1,1,1,1,1,1,1,,,,,,,,,,,,*48
$GPGSV,1,1,1,1,1,1,1,,,,,,,,,,,,*48
$GPGGA,000232,03018.0842,N,09743.9089,W,1,8,1.1,2.522481261876053,M,24.5,M,,0000*5d
$GPGSA,A,3,,,,,,,,,,,,,1.500,2.121,2.121,*1a
$GPGSV,1,1,1,1,1,1,1,,,,,,,,,,,,*48
$GPGSV,1,1,1,1,1,1,1,,,,,,,,,,,,*48
$GPGGA,000233,03018.0860,N,09743.9095,W,1,8,1.1,5.257875763230956,M,24.5,M,,0000*57
$GPGSA,A,3,,,,,,,,,,,,,1.500,2.121,2.121,*1a
$GPGSV,1,1,1,1,1,1,1,,,,,,,,,,,,*48
$GPGSV,1,1,1,1,1,1,1,,,,,,,,,,,,*48
$GPGGA,000234,03018.0843,N,09743.9091,W,1,8,1.1,1.5808296244929358,M,24.5,M,,0000*64
$GPGSA,A,3,,,,,,,,,,,,,1.500,2.121,2.121,*1a
$GPGSV,1,1,1,1,1,1,1,,,,,,,,,,,,*48
$GPGSV,1,1,1,1,1,1,1,,,,,,,,,,,,*48
$GPGGA,000235,03018.0846,N,09743.9096,W,1,8,1.1,1.454550446871009,M,24.5,M,,0000*55
$GPGSA,A,3,,,,,,,,,,,,,1.500,2.121,2.121,*1a
$GPGSV,1,1,1,1,1,1,1,,,,,,,,,,,,*48
$GPGSV,1,1,1,1,1,1,1,,,,,,,,,,,,*48
$GPGGA,000236,03018.0844,N,09743.9089,W,1,8,1.1,1.0233511616322755,M,24.5,M,,0000*6c
$GPGSA,A,3,,,,,,,,,,,,,1.500,2.121,2.121,*1a
$GPGSV,1,1,1,1,1,1,1,,,,,,,,,,,,*48
$GPGSV,1,1,1,1,1,1,1,,,,,,,,,,,,*48
$GPGGA,000237,03018.0846,N,09743.9098,W,1,8,1.1,0.10803902330059856,M,24.5,M,,0000*5a
$GPGSA,A,3,,,,,,,,,,,,,1.500,2.121,2.121,*1a
$GPGSV,1,1,1,1,1,1,1,,,,,,,,,,,,*48
$GPGSV,1,1,1,1,1,1,1,,,,,,,,,,,,*48
$GPGGA,000238,03018.0847,N,09743.9091,W,1,8,1.1,-0.5896854078209945,M,24.5,M,,0000*41
$GPGSA,A,3,,,,,,,,,,,,,1.500,2.121,2.121,*1a
$GPGSV,1,1,1,1,1,1,1,,,,,,,,,,,,*48
$GPGSV,1,1,1,1,1,1,1,,,,,,,,,,,,*48
$GPGGA,000239,03018.0845,N,09743.9087,W,1,8,1.1,-0.7857234461885465,M,24.5,M,,0000*4b
$GPGSA,A,3,,,,,,,,,,,,,1.500,2.121,2.121,*1a
$GPGSV,1,1,1,1,1,1,1,,,,,,,,,,,,*48
$GPGSV,1,1,1,1,1,1,1,,,,,,,,,,,,*48
$GPGGA,000240,03018.0847,N,09743.9098,W,1,8,1.1,0.7820466008364031,M,24.5,M,,0000*6f
$GPGSA,A,3,,,,,,,,,,,,,1.500,2.121,2.121,*1a
$GPGSV,1,1,1,1,1,1,1,,,,,,,,,,,,*48
$GPGSV,1,1,1,1,1,1,1,,,,,,,,,,,,*48
$GPGGA,000241,03018.0844,N,09743.9092,W,1,8,1.1,3.788909480778534,M,24.5,M,,0000*57
$GPGSA,A,3,,,,,,,,,,,,,1.500,2.121,2.121,*1a
$GPGSV,1,1,1,1,1,1,1,,,,,,,,,,,,*48
$GPGSV,1,1,1,1,1,1,1,,,,,,,,,,,,*48
$GPGGA,000242,03018.0842,N,09743.9096,W,1,8,1.1,-1.0514154221515648,M,24.5,M,,0000*42
$GPGSA,A,3,,,,,,,,,,,,,1.500,2.121,2.121,*1a
$GPGSV,1,1,1,1,1,1,1,,,,,,,,,,,,*48
$GPGSV,1,1,1,1,1,1,1,,,,,,,,,,,,*48
$GPGGA,000243,03018.0845,N,09743.9094,W,1,8,1.1,4.089159863947851,M,24.5,M,,0000*53
$GPGSA,A,3,,,,,,,,,,,,,1.500,2.121,2.121,*1a
$GPGSV,1,1,1,1,1,1,1,,,,,,,,,,,,*48
$GPGSV,1,1,1,1,1,1,1,,,,,,,,,,,,*48
$GPGGA,000244,03018.0841,N,09743.9111,W,1,8,1.1,0.05465703246807663,M,24.5,M,,0000*55
$GPGSA,A,3,,,,,,,,,,,,,1.500,2.121,2.121,*1a
$GPGSV,1,1,1,1,1,1,1,,,,,,,,,,,,*48
$GPGSV,1,1,1,1,1,1,1,,,,,,,,,,,,*48
$GPGGA,000245,03018.0847,N,09743.9099,W,1,8,1.1,2.2116335562405016,M,24.5,M,,0000*6d
$GPGSA,A,3,,,,,,,,,,,,,1.500,2.121,2.121,*1a
$GPGSV,1,1,1,1,1,1,1,,,,,,,,,,,,*48
$GPGSV,1,1,1,1,1,1,1,,,,,,,,,,,,*48
$GPGGA,000246,03018.0847,N,09743.9093,W,1,8,1.1,0.43709189682658867,M,24.5,M,,0000*57
$GPGSA,A,3,,,,,,,,,,,,,1.500,2.121,2.121,*1a
$GPGSV,1,1,1,1,1,1,1,,,,,,,,,,,,*48
$GPGSV,1,1,1,1,1,1,1,,,,,,,,,,,,*48
$GPGGA,000247,03018.0844,N,09743.9095,W,1,8,1.1,2.5720156342989977,M,24.5,M,,0000*60
$GPGSA,A,3,,,,,,,,,,,,,1.500,2.121,2.121,*1a
$GPGSV,1,1,1,1,1,1,1,,,,,,,,,,,,*48
$GPGSV,1,1,1,1,1,1,1,,,,,,,,,,,,*48
$GPGGA,000248,03018.0858,N,09743.9095,W,1,8,1.1,0.8401868536012362,M,24.5,M,,0000*69
$GPGSA,A,3,,,,,,,,,,,,,1.500,2.121,2.121,*1a
$GPGSV,1,1,1,1,1,1,1,,,,,,,,,,,,*48
$GPGSV,1,1,1,1,1,1,1,,,,,,,,,,,,*48
$GPGGA,000249,03018.0853,N,09743.9094,W,1,8,1.1,0.3802688704893189,M,24.5,M,,0000*63
$GPGSA,A,3,,,,,,,,,,,,,1.500,2.121,2.121,*1a
$GPGSV,1,1,1,1,1,1,1,,,,,,,,,,,,*48
$GPGSV,1,1,1,1,1,1,1,,,,,,,,,,,,*48
$GPGGA,000250,03018.0848,N,09743.9096,W,1,8,1.1,1.5829711710496217,M,24.5,M,,0000*64
$GPGSA,A,3,,,,,,,,,,,,,1.500,2.121,2.121,*1a
$GPGSV,1,1,1,1,1,1,1,,,,,,,,,,,,*48
$GPGSV,1,1,1,1,1,1,1,,,,,,,,,,,,*48
$GPGGA,000251,03018.0839,N,09743.9106,W,1,8,1.1,0.28018776618248187,M,24.5,M,,0000*58
$GPGSA,A,3,,,,,,,,,,,,,1.500,2.121,2.121,*1a
$GPGSV,1,1,1,1,1,1,1,,,,,,,,,,,,*48
$GPGSV,1,1,1,1,1,1,1,,,,,,,,,,,,*48
$GPGGA,000252,03018.0838,N,09743.9094,W,1,8,1.1,4.893093607966842,M,24.5,M,,0000*50
$GPGSA,A,3,,,,,,,,,,,,,1.500,2.121,2.121,*1a
$GPGSV,1,1,1,1,1,1,1,,,,,,,,,,,,*48
$GPGSV,1,1,1,1,1,1,1,,,,,,,,,,,,*48
$GPGGA,000253,03018.0857,N,09743.9091,W,1,8,1.1,-0.8945209585854421,M,24.5,M,,0000*47
$GPGSA,A,3,,,,,,,,,,,,,1.500,2.121,2.121,*1a
$GPGSV,1,1,1,1,1,1,1,,,,,,,,,,,,*48
$GPGSV,1,1,1,1,1,1,1,,,,,,,,,,,,*48
$GPGGA,000254,03018.0853,N,09743.9098,W,1,8,1.1,1.5315479447001448,M,24.5,M,,0000*6a
$GPGSA,A,3,,,,,,,,,,,,,1.500,2.121,2.121,*1a
$GPGSV,1,1,1,1,1,1,1,,,,,,,,,,,,*48
$GPGSV,1,1,1,1,1,1,1,,,,,,,,,,,,*48
$GPGGA,000255,03018.0845,N,09743.9096,W,1,8,1.1,3.0832830033742455,M,24.5,M,,0000*61
$GPGSA,A,3,,,,,,,,,,,,,1.500,2.121,2.121,*1a
$GPGSV,1,1,1,1,1,1,1,,,,,,,,,,,,*48
$GPGSV,1,1,1,1,1,1,1,,,,,,,,,,,,*48
$GPGGA,000256,03018.0844,N,09743.9095,W,1,8,1.1,0.8978746516594401,M,24.5,M,,0000*60
$GPGSA,A,3,,,,,,,,,,,,,1.500,2.121,2.121,*1a
$GPGSV,1,1,1,1,1,1,1,,,,,,,,,,,,*48
$GPGSV,1,1,1,1,1,1,1,,,,,,,,,,,,*48
$GPGGA,000257,03018.0842,N,09743.9102,W,1,8,1.1,1.3030074156276217,M,24.5,M,,0000*6b
$GPGSA,A,3,,,,,,,,,,,,,1.500,2.121,2.121,*1a
$GPGSV,1,1,1,1,1,1,1,,,,,,,,,,,,*48
$GPGSV,1,1,1,1,1,1,1,,,,,,,,,,,,*48
$GPGGA,000258,03018.0836,N,09743.9094,W,1,8,1.1,1.831259309734132,M,24.5,M,,0000*51
$GPGSA,A,3,,,,,,,,,,,,,1.500,2.121,2.121,*1a
$GPGSV,1,1,1,1,1,1,1,,,,,,,,,,,,*48
$GPGSV,1,1,1,1,1,1,1,,,,,,,,,,,,*48
$GPGGA,000259,03018.0839,N,09743.9087,W,1,8,1.1,2.123625589922672,M,24.5,M,,0000*5f
$GPGSA,A,3,,,,,,,,,,,,,1.500,2.121,2.121,*1a
$GPGSV,1,1,1,1,1,1,1,,,,,,,,,,,,*48
$GPGSV,1,1,1,1,1,1,1,,,,,,,,,,,,*48
$GPGGA,000260,03018.0850,N,09743.9098,W,1,8,1.1,1.1482777132708832,M,24.5,M,,0000*66
$GPGSA,A,3,,,,,,,,,,,,,1.500,2.121,2.121,*1a
$GPGSV,1,1,1,1,1,1,1,,,,,,,,,,,,*48
$GPGSV,1,1,1,1,1,1,1,,,,,,,,,,,,*48
$GPGGA,000261,03018.0845,N,09743.9099,W,1,8,1.1,1.3574881933783243,M,24.5,M,,0000*68
$GPGSA,A,3,,,,,,,,,,,,,1.500,2.121,2.121,*1a
$GPGSV,1,1,1,1,1,1,1,,,,,,,,,,,,*48
$GPGSV,1,1,1,1,1,1,1,,,,,,,,,,,,*48
$GPGGA,000262,03018.0846,N,09743.9093,W,1,8,1.1,1.8481735576560367,M,24.5,M,,0000*67
$GPGSA,A,3,,,,,,,,,,,,,1.500,2.121,2.121,*1a
$GPGSV,1,1,1,1,1,1,1,,,,,,,,,,,,*48
$GPGSV,1,1,1,1,1,1,1,,,,,,,,,,,,*48
$GPGGA,000263,03018.0837,N,09743.9106,W,1,8,1.1,4.822204318025546,M,24.5,M,,0000*5d
$GPGSA,A,3,,,,,,,,,,,,,1.500,2.121,2.121,*1a
$GPGSV,1,1,1,1,1,1,1,,,,,,,,,,,,*48
$GPGSV,1,1,1,1,1,1,1,,,,,,,,,,,,*48
$GPGGA,000264,03018.0845,N,09743.9095,W,1,8,1.1,-0.27895794266240004,M,24.5,M,,0000*72
$GPGSA,A,3,,,,,,,,,,,,,1.500,2.121,2.121,*1a
$GPGSV,1,1,1,1,1,1,1,,,,,,,,,,,,*48
$GPGSV,1,1,1,1,1,1,1,,,,,,,,,,,,*48
$GPGGA,000265,03018.0843,N,09743.9115,W,1,8,1.1,1.8289645766499292,M,24.5,M,,0000*6d
$GPGSA,A,3,,,,,,,,,,,,,1.500,2.121,2.121,*1a
$GPGSV,1,1,1,1,1,1,1,,,,,,,,,,,,*48
$GPGSV,1,1,1,1,1,1,1,,,,,,,,,,,,*48
$GPGGA,000266,03018.0842,N,09743.9099,W,1,8,1.1,3.649613852252274,M,24.5,M,,0000*5a
$GPGSA,A,3,,,,,,,,,,,,,1.500,2.121,2.121,*1a
$GPGSV,1,1,1,1,1,1,1,,,,,,,,,,,,*48
$GPGSV,1,1,1,1,1,1,1,,,,,,,,,,,,*48
$GPGGA,000267,03018.0840,N,09743.9112,W,1,8,1.1,2.0326983504860037,M,24.5,M,,0000*60
$GPGSA,A,3,,,,,,,,,,,,,1.500,2.121,2.121,*1a
$GPGSV,1,1,1,1,1,1,1,,,,,,,,,,,,*48
$GPGSV,1,1,1,1,1,1,1,,,,,,,,,,,,*48
$GPGGA,000268,03018.0844,N,09743.9089,W,1,8,1.1,-0.17272085423283956,M,24.5,M,,0000*73
$GPGSA,A,3,,,,,,,,,,,,,1.500,2.121,2.121,*1a
$GPGSV,1,1,1,1,1,1,1,,,,,,,,,,,,*48
$GPGSV,1,1,1,1,1,1,1,,,,,,,,,,,,*48
$GPGGA,000269,03018.0838,N,09743.9081,W,1,8,1.1,-0.7993164584454999,M,24.5,M,,0000*49
$GPGSA,A,3,,,,,,,,,,,,,1.500,2.121,2.121,*1a
$GPGSV,1,1,1,1,1,1,1,,,,,,,,,,,,*48
$GPGSV,1,1,1,1,1,1,1,,,,,,,,,,,,*48
$GPGGA,000270,03018.0843,N,09743.9090,W,1,8,1.1,-0.07651609310087482,M,24.5,M,,0000*76
$GPGSA,A,3,,,,,,,,,,,,,1.500,2.121,2.121,*1a
$GPGSV,1,1,1,1,1,1,1,,,,,,,,,,,,*48
$GPGSV,1,1,1,1,1,1,1,,,,,,,,,,,,*48
$GPGGA,000271,03018.0846,N,09743.9101,W,1,8,1.1,3.214804776779709,M,24.5,M,,0000*56
$GPGSA,A,3,,,,,,,,,,,,,1.500,2.121,2.121,*1a
$GPGSV,1,1,1,1,1,1,1,,,,,,,,,,,,*48
$GPGSV,1,1,1,1,1,1,1,,,,,,,,,,,,*48
$GPGGA,000272,03018.0847,N,09743.9094,W,1,8,1.1,2.640207313908993,M,24.5,M,,0000*56
$GPGSA,A,3,,,,,,,,,,,,,1.500,2.121,2.121,*1a
$GPGSV,1,1,1,1,1,1,1,,,,,,,,,,,,*48
$GPGSV,1,1,1,1,1,1,1,,,,,,,,,,,,*48
$GPGGA,000273,03018.0851,N,09743.9093,W,1,8,1.1,0.6083378833265676,M,24.5,M,,0000*6e
$GPGSA,A,3,,,,,,,,,,,,,1.500,2.121,2.121,*1a
$GPGSV,1,1,1,1,1,1,1,,,,,,,,,,,,*48
$GPGSV,1,1,1,1,1,1,1,,,,,,,,,,,,*48
$GPGGA,000274,03018.0844,N,09743.9095,W,1,8,1.1,-0.850808138542055,M,24.5,M,,0000*7d
$GPGSA,A,3,,,,,,,,,,,,,1.500,2.121,2.121,*1a
$GPGSV,1,1,1,1,1,1,1,,,,,,,,,,,,*48
$GPGSV,1,1,1,1,1,1,1,,,,,,,,,,,,*48
$GPGGA,000275,03018.0843,N,09743.9095,W,1,8,1.1,0.9391561839162756,M,24.5,M,,0000*61
$GPGSA,A,3,,,,,,,,,,,,,1.500,2.121,2.121,*1a
$GPGSV,1,1,1,1,1,1,1,,,,,,,,,,,,*48
$GPGSV,1,1,1,1,1,1,1,,,,,,,,,,,,*48
$GPGGA,000276,03018.0850,N,09743.9083,W,1,8,1.1,1.1460896964229987,M,24.5,M,,0000*65
$GPGSA,A,3,,,,,,,,,,,,,1.500,2.121,2.121,*1a
$GPGSV,1,1,1,1,1,1,1,,,,,,,,,,,,*48
$GPGSV,1,1,1,1,1,1,1,,,,,,,,,,,,*48
$GPGGA,000277,03018.0842,N,09743.9094,W,1,8,1.1,2.245205752588378,M,24.5,M,,0000*5f
$GPGSA,A,3,,,,,,,,,,,,,1.500,2.121,2.121,*1a
$GPGSV,1,1,1,1,1,1,1,,,,,,,,,,,,*48
$GPGSV,1,1,1,1,1,1,1,,,,,,,,,,,,*48
$GPGGA,000278,03018.0842,N,09743.9092,W,1,8,1.1,1.144021746780556,M,24.5,M,,0000*56
$GPGSA,A,3,,,,,,,,,,,,,1.500,2.121,2.121,*1a
$GPGSV,1,1,1,1,1,1,1,,,,,,,,,,,,*48
$GPGSV,1,1,1,1,1,1,1,,,,,,,,,,,,*48
$GPGGA,000279,03018.0848,N,09743.9094,W,1,8,1.1,-1.1363067399721891,M,24.5,M,,0000*49
$GPGSA,A,3,,,,,,,,,,,,,1.500,2.121,2.121,*1a
$GPGSV,1,1,1,1,1,1,1,,,,,,,,,,,,*48
$GPGSV,1,1,1,1,1,1,1,,,,,,,,,,,,*48
$GPGGA,000280,03018.0851,N,09743.9095,W,1,8,1.1,3.7467226778450446,M,24.5,M,,0000*63
$GPGSA,A,3,,,,,,,,,,,,,1.500,2.121,2.121,*1a
$GPGSV,1,1,1,1,1,1,1,,,,,,,,,,,,*48
$GPGSV,1,1,1,1,1,1,1,,,,,,,,,,,,*48
$GPGGA,000281,03018.0837,N,09743.9090,W,1,8,1.1,2.9879387585934043,M,24.5,M,,0000*6f
$GPGSA,A,3,,,,,,,,,,,,,1.500,2.121,2.121,*1a
$GPGSV,1,1,1,1,1,1,1,,,,,,,,,,,,*48
$GPGSV,1,1,1,1,1,1,1,,,,,,,,,,,,*48
$GPGGA,000282,03018.0845,N,09743.9087,W,1,8,1.1,3.30449867428139,M,24.5,M,,0000*6a
$GPGSA,A,3,,,,,,,,,,,,,1.500,2.121,2.121,*1a
$GPGSV,1,1,1,1,1,1,1,,,,,,,,,,,,*48
$GPGSV,1,1,1,1,1,1,1,,,,,,,,,,,,*48
$GPGGA,000283,03018.0840,N,09743.9098,W,1,8,1.1,0.5544345414342341,M,24.5,M,,0000*65
$GPGSA,A,3,,,,,,,,,,,,,1.500,2.121,2.121,*1a
$GPGSV,1,1,1,1,1,1,1,,,,,,,,,,,,*48
$GPGSV,1,1,1,1,1,1,1,,,,,,,,,,,,*48
$GPGGA,000284,03018.0844,N,09743.9095,W,1,8,1.1,1.1475878590212492,M,24.5,M,,0000*68
$GPGSA,A,3,,,,,,,,,,,,,1.500,2.121,2.121,*1a
$GPGSV,1,1,1,1,1,1,1,,,,,,,,,,,,*48
$GPGSV,1,1,1,1,1,1,1,,,,,,,,,,,,*48
$GPGGA,000285,03018.0849,N,09743.9097,W,1,8,1.1,2.7053789407287745,M,24.5,M,,0000*68
$GPGSA,A,3,,,,,,,,,,,,,1.500,2.121,2.121,*1a
$GPGSV,1,1,1,1,1,1,1,,,,,,,,,,,,*48
$GPGSV,1,1,1,1,1,1,1,,,,,,,,,,,,*48
$GPGGA,000286,03018.0846,N,09743.9096,W,1,8,1.1,-1.4772266152460887,M,24.5,M,,0000*43
$GPGSA,A,3,,,,,,,,,,,,,1.500,2.121,2.121,*1a
$GPGSV,1,1,1,1,1,1,1,,,,,,,,,,,,*48
$GPGSV,1,1,1,1,1,1,1,,,,,,,,,,,,*48
$GPGGA,000287,03018.0842,N,09743.9095,W,1,8,1.1,-0.12025757982261531,M,24.5,M,,0000*73
$GPGSA,A,3,,,,,,,,,,,,,1.500,2.121,2.121,*1a
$GPGSV,1,1,1,1,1,1,1,,,,,,,,,,,,*48
$GPGSV,1,1,1,1,1,1,1,,,,,,,,,,,,*48
$GPGGA,000288,03018.0845,N,09743.9090,W,1,8,1.1,0.5950951546650181,M,24.5,M,,0000*6b
$GPGSA,A,3,,,,,,,,,,,,,1.500,2.121,2.121,*1a
$GPGSV,1,1,1,1,1,1,1,,,,,,,,,,,,*48
$GPGSV,1,1,1,1,1,1,1,,,,,,,,,,,,*48
$GPGGA,000289,03018.0832,N,09743.9094,W,1,8,1.1,-0.42793023548970455,M,24.5,M,,0000*72
$GPGSA,A,3,,,,,,,,,,,,,1.500,2.121,2.121,*1a
$GPGSV,1,1,1,1,1,1,1,,,,,,,,,,,,*48
$GPGSV,1,1,1,1,1,1,1,,,,,,,,,,,,*48
$GPGGA,000290,03018.0852,N,09743.9075,W,1,8,1.1,3.0024008370598514,M,24.5,M,,0000*6a
$GPGSA,A,3,,,,,,,,,,,,,1.500,2.121,2.121,*1a
$GPGSV,1,1,1,1,1,1,1,,,,,,,,,,,,*48
$GPGSV,1,1,1,1,1,1,1,,,,,,,,,,,,*48
$GPGGA,000291,03018.0850,N,09743.9088,W,1,8,1.1,3.0568577340155034,M,24.5,M,,0000*6a
$GPGSA,A,3,,,,,,,,,,,,,1.500,2.121,2.121,*1a
$GPGSV,1,1,1,1,1,1,1,,,,,,,,,,,,*48
$GPGSV,1,1,1,1,1,1,1,,,,,,,,,,,,*48
$GPGGA,000292,03018.0849,N,09743.9110,W,1,8,1.1,1.5491561239092988,M,24.5,M,,0000*6d
$GPGSA,A,3,,,,,,,,,,,,,1.500,2.121,2.121,*1a
$GPGSV,1,1,1,1,1,1,1,,,,,,,,,,,,*48
$GPGSV,1,1,1,1,1,1,1,,,,,,,,,,,,*48
$GPGGA,000293,03018.0838,N,09743.9098,W,1,8,1.1,1.3799521013680227,M,24.5,M,,0000*63
$GPGSA,A,3,,,,,,,,,,,,,1.500,2.121,2.121,*1a
$GPGSV,1,1,1,1,1,1,1,,,,,,,,,,,,*48
$GPGSV,1,1,1,1,1,1,1,,,,,,,,,,,,*48
$GPGGA,000294,03018.0834,N,09743.9085,W,1,8,1.1,3.466843782207228,M,24.5,M,,0000*54
$GPGSA,A,3,,,,,,,,,,,,,1.500,2.121,2.121,*1a
$GPGSV,1,1,1,1,1,1,1,,,,,,,,,,,,*48
$GPGSV,1,1,1,1,1,1,1,,,,,,,,,,,,*48
$GPGGA,000295,03018.0836,N,09743.9086,W,1,8,1.1,0.4853337139474121,M,24.5,M,,0000*6f
$GPGSA,A,3,,,,,,,,,,,,,1.500,2.121,2.121,*1a
$GPGSV,1,1,1,1,1,1,1,,,,,,,,,,,,*48
$GPGSV,1,1,1,1,1,1,1,,,,,,,,,,,,*48
$GPGGA,000296,03018.0841,N,09743.9087,W,1,8,1.1,3.291088153678552,M,24.5,M,,0000*5b
$GPGSA,A,3,,,,,,,,,,,,,1.500,2.121,2.121,*1a
$GPGSV,1,1,1,1,1,1,1,,,,,,,,,,,,*48
$GPGSV,1,1,1,1,1,1,1,,,,,,,,,,,,*48
