$GPGGA,000000,03018.1382,N,09744.0186,W,1,8,1.1,1.5,M,24.5,M,,0000*5c
$GPGSA,A,3,,,,,,,,,,,,,0.000,0.000,0.000,*1e
$GPGSV,1,1,1,1,1,1,1,,,,,,,,,,,,*48
$GPGSV,1,1,1,1,1,1,1,,,,,,,,,,,,*48
$GPGGA,000001,03018.1382,N,09744.0186,W,1,8,1.1,1.5,M,24.5,M,,0000*5d
$GPGSA,A,3,,,,,,,,,,,,,0.000,0.000,0.000,*1e
$GPGSV,1,1,1,1,1,1,1,,,,,,,,,,,,*48
$GPGSV,1,1,1,1,1,1,1,,,,,,,,,,,,*48
$GPGGA,000002,03018.1382,N,09744.0186,W,1,8,1.1,1.5,M,24.5,M,,0000*5e
$GPGSA,A,3,,,,,,,,,,,,,0.000,0.000,0.000,*1e
$GPGSV,1,1,1,1,1,1,1,,,,,,,,,,,,*48
$GPGSV,1,1,1,1,1,1,1,,,,,,,,,,,,*48
$GPGGA,000003,03018.1382,N,09744.0186,W,1,8,1.1,1.5,M,24.5,M,,0000*5f
$GPGSA,A,3,,,,,,,,,,,,,0.000,0.000,0.000,*1e
$GPGSV,1,1,1,1,1,1,1,,,,,,,,,,,,*48
$GPGSV,1,1,1,1,1,1,1,,,,,,,,,,,,*48
$GPGGA,000004,03018.1382,N,09744.0186,W,1,8,1.1,1.5,M,24.5,M,,0000*58
$GPGSA,A,3,,,,,,,,,,,,,0.000,0.000,0.000,*1e
$GPGSV,1,1,1,1,1,1,1,,,,,,,,,,,,*48
$GPGSV,1,1,1,1,1,1,1,,,,,,,,,,,,*48
$GPGGA,000005,03018.1382,N,09744.0186,W,1,8,1.1,1.5,M,24.5,M,,0000*59
$GPGSA,A,3,,,,,,,,,,,,,0.000,0.000,0.000,*1e
$GPGSV,1,1,1,1,1,1,1,,,,,,,,,,,,*48
$GPGSV,1,1,1,1,1,1,1,,,,,,,,,,,,*48
$GPGGA,000006,03018.1382,N,09744.0186,W,1,8,1.1,1.5,M,24.5,M,,0000*5a
$GPGSA,A,3,,,,,,,,,,,,,0.000,0.000,0.000,*1e
$GPGSV,1,1,1,1,1,1,1,,,,,,,,,,,,*48
$GPGSV,1,1,1,1,1,1,1,,,,,,,,,,,,*48
$GPGGA,000007,03018.1382,N,09744.0186,W,1,8,1.1,1.5,M,24.5,M,,0000*5b
$GPGSA,A,3,,,,,,,,,,,,,0.000,0.000,0.000,*1e
$GPGSV,1,1,1,1,1,1,1,,,,,,,,,,,,*48
$GPGSV,1,1,1,1,1,1,1,,,,,,,,,,,,*48
$GPGGA,000008,03018.1382,N,09744.0186,W,1,8,1.1,1.5,M,24.5,M,,0000*54
$GPGSA,A,3,,,,,,,,,,,,,0.000,0.000,0.000,*1e
$GPGSV,1,1,1,1,1,1,1,,,,,,,,,,,,*48
$GPGSV,1,1,1,1,1,1,1,,,,,,,,,,,,*48
$GPGGA,000009,03018.1382,N,09744.0186,W,1,8,1.1,1.5,M,24.5,M,,0000*55
$GPGSA,A,3,,,,,,,,,,,,,0.000,0.000,0.000,*1e
$GPGSV,1,1,1,1,1,1,1,,,,,,,,,,,,*48
$GPGSV,1,1,1,1,1,1,1,,,,,,,,,,,,*48
$GPGGA,000010,03018.1382,N,09744.0186,W,1,8,1.1,1.5,M,24.5,M,,0000*5d
$GPGSA,A,3,,,,,,,,,,,,,0.000,0.000,0.000,*1e
$GPGSV,1,1,1,1,1,1,1,,,,,,,,,,,,*48
$GPGSV,1,1,1,1,1,1,1,,,,,,,,,,,,*48
$GPGGA,000011,03018.1382,N,09744.0186,W,1,8,1.1,1.5,M,24.5,M,,0000*5c
$GPGSA,A,3,,,,,,,,,,,,,0.000,0.000,0.000,*1e
$GPGSV,1,1,1,1,1,1,1,,,,,,,,,,,,*48
$GPGSV,1,1,1,1,1,1,1,,,,,,,,,,,,*48
$GPGGA,000012,03018.1382,N,09744.0186,W,1,8,1.1,1.5,M,24.5,M,,0000*5f
$GPGSA,A,3,,,,,,,,,,,,,0.000,0.000,0.000,*1e
$GPGSV,1,1,1,1,1,1,1,,,,,,,,,,,,*48
$GPGSV,1,1,1,1,1,1,1,,,,,,,,,,,,*48
$GPGGA,000013,03018.1382,N,09744.0186,W,1,8,1.1,1.5,M,24.5,M,,0000*5e
$GPGSA,A,3,,,,,,,,,,,,,0.000,0.000,0.000,*1e
$GPGSV,1,1,1,1,1,1,1,,,,,,,,,,,,*48
$GPGSV,1,1,1,1,1,1,1,,,,,,,,,,,,*48
$GPGGA,000014,03018.1382,N,09744.0186,W,1,8,1.1,1.5,M,24.5,M,,0000*59
$GPGSA,A,3,,,,,,,,,,,,,0.000,0.000,0.000,*1e
$GPGSV,1,1,1,1,1,1,1,,,,,,,,,,,,*48
$GPGSV,1,1,1,1,1,1,1,,,,,,,,,,,,*48
$GPGGA,000015,03018.1387,N,09744.0183,W,1,8,1.1,1.5,M,24.5,M,,0000*58
$GPGSA,A,3,,,,,,,,,,,,,0.000,0.000,0.000,*1e
$GPGSV,1,1,1,1,1,1,1,,,,,,,,,,,,*48
$GPGSV,1,1,1,1,1,1,1,,,,,,,,,,,,*48
$GPGGA,000016,03018.1391,N,09744.0180,W,1,8,1.1,1.5,M,24.5,M,,0000*5f
$GPGSA,A,3,,,,,,,,,,,,,0.000,0.000,0.000,*1e
$GPGSV,1,1,1,1,1,1,1,,,,,,,,,,,,*48
$GPGSV,1,1,1,1,1,1,1,,,,,,,,,,,,*48
$GPGGA,000017,03018.1396,N,09744.0177,W,1,8,1.1,1.5,M,24.5,M,,0000*51
$GPGSA,A,3,,,,,,,,,,,,,0.000,0.000,0.000,*1e
$GPGSV,1,1,1,1,1,1,1,,,,,,,,,,,,*48
$GPGSV,1,1,1,1,1,1,1,,,,,,,,,,,,*48
$GPGGA,000018,03018.1400,N,09744.0174,W,1,8,1.1,1.5,M,24.5,M,,0000*55
$GPGSA,A,3,,,,,,,,,,,,,0.000,0.000,0.000,*1e
$GPGSV,1,1,1,1,1,1,1,,,,,,,,,,,,*48
$GPGSV,1,1,1,1,1,1,1,,,,,,,,,,,,*48
$GPGGA,000019,03018.1405,N,09744.0171,W,1,8,1.1,1.5,M,24.5,M,,0000*54
$GPGSA,A,3,,,,,,,,,,,,,0.000,0.000,0.000,*1e
$GPGSV,1,1,1,1,1,1,1,,,,,,,,,,,,*48
$GPGSV,1,1,1,1,1,1,1,,,,,,,,,,,,*48
$GPGGA,000020,03018.1410,N,09744.0168,W,1,8,1.1,1.5,M,24.5,M,,0000*52
$GPGSA,A,3,,,,,,,,,,,,,0.000,0.000,0.000,*1e
$GPGSV,1,1,1,1,1,1,1,,,,,,,,,,,,*48
$GPGSV,1,1,1,1,1,1,1,,,,,,,,,,,,*48
$GPGGA,000021,03018.1414,N,09744.0165,W,1,8,1.1,1.5,M,24.5,M,,0000*5a
$GPGSA,A,3,,,,,,,,,,,,,0.000,0.000,0.000,*1e
$GPGSV,1,1,1,1,1,1,1,,,,,,,,,,,,*48
$GPGSV,1,1,1,1,1,1,1,,,,,,,,,,,,*48
$GPGGA,000022,03018.1419,N,09744.0162,W,1,8,1.1,1.5,M,24.5,M,,0000*53
$GPGSA,A,3,,,,,,,,,,,,,0.000,0.000,0.000,*1e
$GPGSV,1,1,1,1,1,1,1,,,,,,,,,,,,*48
$GPGSV,1,1,1,1,1,1,1,,,,,,,,,,,,*48
$GPGGA,000023,03018.1424,N,09744.0159,W,1,8,1.1,1.5,M,24.5,M,,0000*54
$GPGSA,A,3,,,,,,,,,,,,,0.000,0.000,0.000,*1e
$GPGSV,1,1,1,1,1,1,1,,,,,,,,,,,,*48
$GPGSV,1,1,1,1,1,1,1,,,,,,,,,,,,*48
$GPGGA,000024,03018.1429,N,09744.0156,W,1,8,1.1,1.5,M,24.5,M,,0000*51
$GPGSA,A,3,,,,,,,,,,,,,0.000,0.000,0.000,*1e
$GPGSV,1,1,1,1,1,1,1,,,,,,,,,,,,*48
$GPGSV,1,1,1,1,1,1,1,,,,,,,,,,,,*48
$GPGGA,000025,03018.1433,N,09744.0154,W,1,8,1.1,1.5,M,24.5,M,,0000*59
$GPGSA,A,3,,,,,,,,,,,,,0.000,0.000,0.000,*1e
$GPGSV,1,1,1,1,1,1,1,,,,,,,,,,,,*48
$GPGSV,1,1,1,1,1,1,1,,,,,,,,,,,,*48
$GPGGA,000026,03018.1438,N,09744.0151,W,1,8,1.1,1.5,M,24.5,M,,0000*54
$GPGSA,A,3,,,,,,,,,,,,,0.000,0.000,0.000,*1e
$GPGSV,1,1,1,1,1,1,1,,,,,,,,,,,,*48
$GPGSV,1,1,1,1,1,1,1,,,,,,,,,,,,*48
$GPGGA,000027,03018.1442,N,09744.0148,W,1,8,1.1,1.5,M,24.5,M,,0000*50
$GPGSA,A,3,,,,,,,,,,,,,0.000,0.000,0.000,*1e
$GPGSV,1,1,1,1,1,1,1,,,,,,,,,,,,*48
$GPGSV,1,1,1,1,1,1,1,,,,,,,,,,,,*48
$GPGGA,000028,03018.1447,N,09744.0145,W,1,8,1.1,1.5,M,24.5,M,,0000*57
$GPGSA,A,3,,,,,,,,,,,,,0.000,0.000,0.000,*1e
$GPGSV,1,1,1,1,1,1,1,,,,,,,,,,,,*48
$GPGSV,1,1,1,1,1,1,1,,,,,,,,,,,,*48
$GPGGA,000029,03018.1451,N,09744.0142,W,1,8,1.1,1.5,M,24.5,M,,0000*56
$GPGSA,A,3,,,,,,,,,,,,,0.000,0.000,0.000,*1e
$GPGSV,1,1,1,1,1,1,1,,,,,,,,,,,,*48
$GPGSV,1,1,1,1,1,1,1,,,,,,,,,,,,*48
$GPGGA,000030,03018.1456,N,09744.0139,W,1,8,1.1,1.5,M,24.5,M,,0000*55
$GPGSA,A,3,,,,,,,,,,,,,0.000,0.000,0.000,*1e
$GPGSV,1,1,1,1,1,1,1,,,,,,,,,,,,*48
$GPGSV,1,1,1,1,1,1,1,,,,,,,,,,,,*48
$GPGGA,000031,03018.1461,N,09744.0136,W,1,8,1.1,1.5,M,24.5,M,,0000*5f
$GPGSA,A,3,,,,,,,,,,,,,0.000,0.000,0.000,*1e
$GPGSV,1,1,1,1,1,1,1,,,,,,,,,,,,*48
$GPGSV,1,1,1,1,1,1,1,,,,,,,,,,,,*48
$GPGGA,000032,03018.1466,N,09744.0133,W,1,8,1.1,1.5,M,24.5,M,,0000*5e
$GPGSA,A,3,,,,,,,,,,,,,0.000,0.000,0.000,*1e
$GPGSV,1,1,1,1,1,1,1,,,,,,,,,,,,*48
$GPGSV,1,1,1,1,1,1,1,,,,,,,,,,,,*48
$GPGGA,000033,03018.1470,N,09744.0131,W,1,8,1.1,1.5,M,24.5,M,,0000*5a
$GPGSA,A,3,,,,,,,,,,,,,0.000,0.000,0.000,*1e
$GPGSV,1,1,1,1,1,1,1,,,,,,,,,,,,*48
$GPGSV,1,1,1,1,1,1,1,,,,,,,,,,,,*48
$GPGGA,000034,03018.1475,N,09744.0128,W,1,8,1.1,1.5,M,24.5,M,,0000*50
$GPGSA,A,3,,,,,,,,,,,,,0.000,0.000,0.000,*1e
$GPGSV,1,1,1,1,1,1,1,,,,,,,,,,,,*48
$GPGSV,1,1,1,1,1,1,1,,,,,,,,,,,,*48
$GPGGA,000035,03018.1480,N,09744.0125,W,1,8,1.1,1.5,M,24.5,M,,0000*56
$GPGSA,A,3,,,,,,,,,,,,,0.000,0.000,0.000,*1e
$GPGSV,1,1,1,1,1,1,1,,,,,,,,,,,,*48
$GPGSV,1,1,1,1,1,1,1,,,,,,,,,,,,*48
$GPGGA,000036,03018.1484,N,09744.0122,W,1,8,1.1,1.5,M,24.5,M,,0000*56
$GPGSA,A,3,,,,,,,,,,,,,0.000,0.000,0.000,*1e
$GPGSV,1,1,1,1,1,1,1,,,,,,,,,,,,*48
$GPGSV,1,1,1,1,1,1,1,,,,,,,,,,,,*48
$GPGGA,000037,03018.1489,N,09744.0119,W,1,8,1.1,1.5,M,24.5,M,,0000*52
$GPGSA,A,3,,,,,,,,,,,,,0.000,0.000,0.000,*1e
$GPGSV,1,1,1,1,1,1,1,,,,,,,,,,,,*48
$GPGSV,1,1,1,1,1,1,1,,,,,,,,,,,,*48
$GPGGA,000038,03018.1493,N,09744.0116,W,1,8,1.1,1.5,M,24.5,M,,0000*59
$GPGSA,A,3,,,,,,,,,,,,,0.000,0.000,0.000,*1e
$GPGSV,1,1,1,1,1,1,1,,,,,,,,,,,,*48
$GPGSV,1,1,1,1,1,1,1,,,,,,,,,,,,*48
$GPGGA,000039,03018.1498,N,09744.0113,W,1,8,1.1,1.5,M,24.5,M,,0000*56
$GPGSA,A,3,,,,,,,,,,,,,0.000,0.000,0.000,*1e
$GPGSV,1,1,1,1,1,1,1,,,,,,,,,,,,*48
$GPGSV,1,1,1,1,1,1,1,,,,,,,,,,,,*48
$GPGGA,000040,03018.1503,N,09744.0110,W,1,8,1.1,1.5,M,24.5,M,,0000*58
$GPGSA,A,3,,,,,,,,,,,,,0.000,0.000,0.000,*1e
$GPGSV,1,1,1,1,1,1,1,,,,,,,,,,,,*48
$GPGSV,1,1,1,1,1,1,1,,,,,,,,,,,,*48
$GPGGA,000041,03018.1507,N,09744.0107,W,1,8,1.1,1.5,M,24.5,M,,0000*5b
$GPGSA,A,3,,,,,,,,,,,,,0.000,0.000,0.000,*1e
$GPGSV,1,1,1,1,1,1,1,,,,,,,,,,,,*48
$GPGSV,1,1,1,1,1,1,1,,,,,,,,,,,,*48
$GPGGA,000042,03018.1512,N,09744.0104,W,1,8,1.1,1.5,M,24.5,M,,0000*5f
$GPGSA,A,3,,,,,,,,,,,,,0.000,0.000,0.000,*1e
$GPGSV,1,1,1,1,1,1,1,,,,,,,,,,,,*48
$GPGSV,1,1,1,1,1,1,1,,,,,,,,,,,,*48
$GPGGA,000043,03018.1517,N,09744.0101,W,1,8,1.1,1.5,M,24.5,M,,0000*5e
$GPGSA,A,3,,,,,,,,,,,,,0.000,0.000,0.000,*1e
$GPGSV,1,1,1,1,1,1,1,,,,,,,,,,,,*48
$GPGSV,1,1,1,1,1,1,1,,,,,,,,,,,,*48
$GPGGA,000044,03018.1522,N,09744.0098,W,1,8,1.1,1.5,M,24.5,M,,0000*5e
$GPGSA,A,3,,,,,,,,,,,,,0.000,0.000,0.000,*1e
$GPGSV,1,1,1,1,1,1,1,,,,,,,,,,,,*48
$GPGSV,1,1,1,1,1,1,1,,,,,,,,,,,,*48
$GPGGA,000045,03018.1526,N,09744.0095,W,1,8,1.1,1.5,M,24.5,M,,0000*56
$GPGSA,A,3,,,,,,,,,,,,,0.000,0.000,0.000,*1e
$GPGSV,1,1,1,1,1,1,1,,,,,,,,,,,,*48
$GPGSV,1,1,1,1,1,1,1,,,,,,,,,,,,*48
$GPGGA,000046,03018.1531,N,09744.0092,W,1,8,1.1,1.5,M,24.5,M,,0000*54
$GPGSA,A,3,,,,,,,,,,,,,0.000,0.000,0.000,*1e
$GPGSV,1,1,1,1,1,1,1,,,,,,,,,,,,*48
$GPGSV,1,1,1,1,1,1,1,,,,,,,,,,,,*48
$GPGGA,000047,03018.1535,N,09744.0089,W,1,8,1.1,1.5,M,24.5,M,,0000*5b
$GPGSA,A,3,,,,,,,,,,,,,0.000,0.000,0.000,*1e
$GPGSV,1,1,1,1,1,1,1,,,,,,,,,,,,*48
$GPGSV,1,1,1,1,1,1,1,,,,,,,,,,,,*48
$GPGGA,000048,03018.1540,N,09744.0087,W,1,8,1.1,1.5,M,24.5,M,,0000*58
$GPGSA,A,3,,,,,,,,,,,,,0.000,0.000,0.000,*1e
$GPGSV,1,1,1,1,1,1,1,,,,,,,,,,,,*48
$GPGSV,1,1,1,1,1,1,1,,,,,,,,,,,,*48
$GPGGA,000049,03018.1544,N,09744.0084,W,1,8,1.1,1.5,M,24.5,M,,0000*5e
$GPGSA,A,3,,,,,,,,,,,,,0.000,0.000,0.000,*1e
$GPGSV,1,1,1,1,1,1,1,,,,,,,,,,,,*48
$GPGSV,1,1,1,1,1,1,1,,,,,,,,,,,,*48
$GPGGA,000050,03018.1549,N,09744.0081,W,1,8,1.1,1.5,M,24.5,M,,0000*5e
$GPGSA,A,3,,,,,,,,,,,,,0.000,0.000,0.000,*1e
$GPGSV,1,1,1,1,1,1,1,,,,,,,,,,,,*48
$GPGSV,1,1,1,1,1,1,1,,,,,,,,,,,,*48
$GPGGA,000051,03018.1554,N,09744.0078,W,1,8,1.1,1.5,M,24.5,M,,0000*55
$GPGSA,A,3,,,,,,,,,,,,,0.000,0.000,0.000,*1e
$GPGSV,1,1,1,1,1,1,1,,,,,,,,,,,,*48
$GPGSV,1,1,1,1,1,1,1,,,,,,,,,,,,*48
$GPGGA,000052,03018.1559,N,09744.0075,W,1,8,1.1,1.5,M,24.5,M,,0000*56
$GPGSA,A,3,,,,,,,,,,,,,0.000,0.000,0.000,*1e
$GPGSV,1,1,1,1,1,1,1,,,,,,,,,,,,*48
$GPGSV,1,1,1,1,1,1,1,,,,,,,,,,,,*48
$GPGGA,000053,03018.1563,N,09744.0072,W,1,8,1.1,1.5,M,24.5,M,,0000*59
$GPGSA,A,3,,,,,,,,,,,,,0.000,0.000,0.000,*1e
$GPGSV,1,1,1,1,1,1,1,,,,,,,,,,,,*48
$GPGSV,1,1,1,1,1,1,1,,,,,,,,,,,,*48
$GPGGA,000054,03018.1568,N,09744.0069,W,1,8,1.1,1.5,M,24.5,M,,0000*5f
$GPGSA,A,3,,,,,,,,,,,,,0.000,0.000,0.000,*1e
$GPGSV,1,1,1,1,1,1,1,,,,,,,,,,,,*48
$GPGSV,1,1,1,1,1,1,1,,,,,,,,,,,,*48
$GPGGA,000055,03018.1573,N,09744.0066,W,1,8,1.1,1.5,M,24.5,M,,0000*5b
$GPGSA,A,3,,,,,,,,,,,,,0.000,0.000,0.000,*1e
$GPGSV,1,1,1,1,1,1,1,,,,,,,,,,,,*48
$GPGSV,1,1,1,1,1,1,1,,,,,,,,,,,,*48
$GPGGA,000056,03018.1577,N,09744.0063,W,1,8,1.1,1.5,M,24.5,M,,0000*59
$GPGSA,A,3,,,,,,,,,,,,,0.000,0.000,0.000,*1e
$GPGSV,1,1,1,1,1,1,1,,,,,,,,,,,,*48
$GPGSV,1,1,1,1,1,1,1,,,,,,,,,,,,*48
$GPGGA,000057,03018.1582,N,09744.0060,W,1,8,1.1,1.5,M,24.5,M,,0000*51
$GPGSA,A,3,,,,,,,,,,,,,0.000,0.000,0.000,*1e
$GPGSV,1,1,1,1,1,1,1,,,,,,,,,,,,*48
$GPGSV,1,1,1,1,1,1,1,,,,,,,,,,,,*48
$GPGGA,000058,03018.1586,N,09744.0057,W,1,8,1.1,1.5,M,24.5,M,,0000*5e
$GPGSA,A,3,,,,,,,,,,,,,0.000,0.000,0.000,*1e
$GPGSV,1,1,1,1,1,1,1,,,,,,,,,,,,*48
$GPGSV,1,1,1,1,1,1,1,,,,,,,,,,,,*48
$GPGGA,000059,03018.1591,N,09744.0054,W,1,8,1.1,1.5,M,24.5,M,,0000*5a
$GPGSA,A,3,,,,,,,,,,,,,0.000,0.000,0.000,*1e
$GPGSV,1,1,1,1,1,1,1,,,,,,,,,,,,*48
$GPGSV,1,1,1,1,1,1,1,,,,,,,,,,,,*48
$GPGGA,000060,03018.1596,N,09744.0051,W,1,8,1.1,1.5,M,24.5,M,,0000*52
$GPGSA,A,3,,,,,,,,,,,,,0.000,0.000,0.000,*1e
$GPGSV,1,1,1,1,1,1,1,,,,,,,,,,,,*48
$GPGSV,1,1,1,1,1,1,1,,,,,,,,,,,,*48
$GPGGA,000061,03018.1601,N,09744.0048,W,1,8,1.1,1.5,M,24.5,M,,0000*56
$GPGSA,A,3,,,,,,,,,,,,,0.000,0.000,0.000,*1e
$GPGSV,1,1,1,1,1,1,1,,,,,,,,,,,,*48
$GPGSV,1,1,1,1,1,1,1,,,,,,,,,,,,*48
$GPGGA,000062,03018.1605,N,09744.0045,W,1,8,1.1,1.5,M,24.5,M,,0000*5c
$GPGSA,A,3,,,,,,,,,,,,,0.000,0.000,0.000,*1e
$GPGSV,1,1,1,1,1,1,1,,,,,,,,,,,,*48
$GPGSV,1,1,1,1,1,1,1,,,,,,,,,,,,*48
$GPGGA,000063,03018.1610,N,09744.0042,W,1,8,1.1,1.5,M,24.5,M,,0000*5e
$GPGSA,A,3,,,,,,,,,,,,,0.000,0.000,0.000,*1e
$GPGSV,1,1,1,1,1,1,1,,,,,,,,,,,,*48
$GPGSV,1,1,1,1,1,1,1,,,,,,,,,,,,*48
$GPGGA,000064,03018.1615,N,09744.0040,W,1,8,1.1,1.5,M,24.5,M,,0000*5e
$GPGSA,A,3,,,,,,,,,,,,,0.000,0.000,0.000,*1e
$GPGSV,1,1,1,1,1,1,1,,,,,,,,,,,,*48
$GPGSV,1,1,1,1,1,1,1,,,,,,,,,,,,*48
$GPGGA,000065,03018.1619,N,09744.0037,W,1,8,1.1,1.5,M,24.5,M,,0000*53
$GPGSA,A,3,,,,,,,,,,,,,0.000,0.000,0.000,*1e
$GPGSV,1,1,1,1,1,1,1,,,,,,,,,,,,*48
$GPGSV,1,1,1,1,1,1,1,,,,,,,,,,,,*48
$GPGGA,000066,03018.1624,N,09744.0034,W,1,8,1.1,1.5,M,24.5,M,,0000*5d
$GPGSA,A,3,,,,,,,,,,,,,0.000,0.000,0.000,*1e
$GPGSV,1,1,1,1,1,1,1,,,,,,,,,,,,*48
$GPGSV,1,1,1,1,1,1,1,,,,,,,,,,,,*48
$GPGGA,000067,03018.1628,N,09744.0031,W,1,8,1.1,1.5,M,24.5,M,,0000*55
$GPGSA,A,3,,,,,,,,,,,,,0.000,0.000,0.000,*1e
$GPGSV,1,1,1,1,1,1,1,,,,,,,,,,,,*48
$GPGSV,1,1,1,1,1,1,1,,,,,,,,,,,,*48
$GPGGA,000068,03018.1633,N,09744.0028,W,1,8,1.1,1.5,M,24.5,M,,0000*58
$GPGSA,A,3,,,,,,,,,,,,,0.000,0.000,0.000,*1e
$GPGSV,1,1,1,1,1,1,1,,,,,,,,,,,,*48
$GPGSV,1,1,1,1,1,1,1,,,,,,,,,,,,*48
$GPGGA,000069,03018.1638,N,09744.0025,W,1,8,1.1,1.5,M,24.5,M,,0000*5f
$GPGSA,A,3,,,,,,,,,,,,,0.000,0.000,0.000,*1e
$GPGSV,1,1,1,1,1,1,1,,,,,,,,,,,,*48
$GPGSV,1,1,1,1,1,1,1,,,,,,,,,,,,*48
$GPGGA,000070,03018.1642,N,09744.0022,W,1,8,1.1,1.5,M,24.5,M,,0000*5d
$GPGSA,A,3,,,,,,,,,,,,,0.000,0.000,0.000,*1e
$GPGSV,1,1,1,1,1,1,1,,,,,,,,,,,,*48
$GPGSV,1,1,1,1,1,1,1,,,,,,,,,,,,*48
$GPGGA,000071,03018.1647,N,09744.0019,W,1,8,1.1,1.5,M,24.5,M,,0000*51
$GPGSA,A,3,,,,,,,,,,,,,0.000,0.000,0.000,*1e
$GPGSV,1,1,1,1,1,1,1,,,,,,,,,,,,*48
$GPGSV,1,1,1,1,1,1,1,,,,,,,,,,,,*48
$GPGGA,000072,03018.1652,N,09744.0017,W,1,8,1.1,1.5,M,24.5,M,,0000*58
$GPGSA,A,3,,,,,,,,,,,,,0.000,0.000,0.000,*1e
$GPGSV,1,1,1,1,1,1,1,,,,,,,,,,,,*48
$GPGSV,1,1,1,1,1,1,1,,,,,,,,,,,,*48
$GPGGA,000073,03018.1657,N,09744.0014,W,1,8,1.1,1.5,M,24.5,M,,0000*5f
$GPGSA,A,3,,,,,,,,,,,,,0.000,0.000,0.000,*1e
$GPGSV,1,1,1,1,1,1,1,,,,,,,,,,,,*48
$GPGSV,1,1,1,1,1,1,1,,,,,,,,,,,,*48
$GPGGA,000074,03018.1661,N,09744.0011,W,1,8,1.1,1.5,M,24.5,M,,0000*58
$GPGSA,A,3,,,,,,,,,,,,,0.000,0.000,0.000,*1e
$GPGSV,1,1,1,1,1,1,1,,,,,,,,,,,,*48
$GPGSV,1,1,1,1,1,1,1,,,,,,,,,,,,*48
$GPGGA,000075,03018.1666,N,09744.0008,W,1,8,1.1,1.5,M,24.5,M,,0000*56
$GPGSA,A,3,,,,,,,,,,,,,0.000,0.000,0.000,*1e
$GPGSV,1,1,1,1,1,1,1,,,,,,,,,,,,*48
$GPGSV,1,1,1,1,1,1,1,,,,,,,,,,,,*48
$GPGGA,000076,03018.1670,N,09744.0005,W,1,8,1.1,1.5,M,24.5,M,,0000*5f
$GPGSA,A,3,,,,,,,,,,,,,0.000,0.000,0.000,*1e
$GPGSV,1,1,1,1,1,1,1,,,,,,,,,,,,*48
$GPGSV,1,1,1,1,1,1,1,,,,,,,,,,,,*48
$GPGGA,000077,03018.1675,N,09744.0002,W,1,8,1.1,1.5,M,24.5,M,,0000*5c
$GPGSA,A,3,,,,,,,,,,,,,0.000,0.000,0.000,*1e
$GPGSV,1,1,1,1,1,1,1,,,,,,,,,,,,*48
$GPGSV,1,1,1,1,1,1,1,,,,,,,,,,,,*48
$GPGGA,000078,03018.1679,N,09743.9999,W,1,8,1.1,1.5,M,24.5,M,,0000*5a
$GPGSA,A,3,,,,,,,,,,,,,0.000,0.000,0.000,*1e
$GPGSV,1,1,1,1,1,1,1,,,,,,,,,,,,*48
$GPGSV,1,1,1,1,1,1,1,,,,,,,,,,,,*48
$GPGGA,000079,03018.1684,N,09743.9996,W,1,8,1.1,1.5,M,24.5,M,,0000*56
$GPGSA,A,3,,,,,,,,,,,,,0.000,0.000,0.000,*1e
$GPGSV,1,1,1,1,1,1,1,,,,,,,,,,,,*48
$GPGSV,1,1,1,1,1,1,1,,,,,,,,,,,,*48
$GPGGA,000080,03018.1689,N,09743.9993,W,1,8,1.1,1.5,M,24.5,M,,0000*58
$GPGSA,A,3,,,,,,,,,,,,,0.000,0.000,0.000,*1e
$GPGSV,1,1,1,1,1,1,1,,,,,,,,,,,,*48
$GPGSV,1,1,1,1,1,1,1,,,,,,,,,,,,*48
$GPGGA,000081,03018.1694,N,09743.9990,W,1,8,1.1,1.5,M,24.5,M,,0000*56
$GPGSA,A,3,,,,,,,,,,,,,0.000,0.000,0.000,*1e
$GPGSV,1,1,1,1,1,1,1,,,,,,,,,,,,*48
$GPGSV,1,1,1,1,1,1,1,,,,,,,,,,,,*48
$GPGGA,000082,03018.1698,N,09743.9987,W,1,8,1.1,1.5,M,24.5,M,,0000*5f
$GPGSA,A,3,,,,,,,,,,,,,0.000,0.000,0.000,*1e
$GPGSV,1,1,1,1,1,1,1,,,,,,,,,,,,*48
$GPGSV,1,1,1,1,1,1,1,,,,,,,,,,,,*48
$GPGGA,000083,03018.1703,N,09743.9984,W,1,8,1.1,1.5,M,24.5,M,,0000*5e
$GPGSA,A,3,,,,,,,,,,,,,0.000,0.000,0.000,*1e
$GPGSV,1,1,1,1,1,1,1,,,,,,,,,,,,*48
$GPGSV,1,1,1,1,1,1,1,,,,,,,,,,,,*48
$GPGGA,000084,03018.1708,N,09743.9981,W,1,8,1.1,1.5,M,24.5,M,,0000*57
$GPGSA,A,3,,,,,,,,,,,,,0.000,0.000,0.000,*1e
$GPGSV,1,1,1,1,1,1,1,,,,,,,,,,,,*48
$GPGSV,1,1,1,1,1,1,1,,,,,,,,,,,,*48
$GPGGA,000085,03018.1712,N,09743.9978,W,1,8,1.1,1.5,M,24.5,M,,0000*5b
$GPGSA,A,3,,,,,,,,,,,,,0.000,0.000,0.000,*1e
$GPGSV,1,1,1,1,1,1,1,,,,,,,,,,,,*48
$GPGSV,1,1,1,1,1,1,1,,,,,,,,,,,,*48
$GPGGA,000086,03018.1717,N,09743.9975,W,1,8,1.1,1.5,M,24.5,M,,0000*50
$GPGSA,A,3,,,,,,,,,,,,,0.000,0.000,0.000,*1e
$GPGSV,1,1,1,1,1,1,1,,,,,,,,,,,,*48
$GPGSV,1,1,1,1,1,1,1,,,,,,,,,,,,*48
$GPGGA,000087,03018.1721,N,09743.9972,W,1,8,1.1,1.5,M,24.5,M,,0000*53
$GPGSA,A,3,,,,,,,,,,,,,0.000,0.000,0.000,*1e
$GPGSV,1,1,1,1,1,1,1,,,,,,,,,,,,*48
$GPGSV,1,1,1,1,1,1,1,,,,,,,,,,,,*48
$GPGGA,000088,03018.1726,N,09743.9970,W,1,8,1.1,1.5,M,24.5,M,,0000*59
$GPGSA,A,3,,,,,,,,,,,,,0.000,0.000,0.000,*1e
$GPGSV,1,1,1,1,1,1,1,,,,,,,,,,,,*48
$GPGSV,1,1,1,1,1,1,1,,,,,,,,,,,,*48
$GPGGA,000089,03018.1731,N,09743.9967,W,1,8,1.1,1.5,M,24.5,M,,0000*58
$GPGSA,A,3,,,,,,,,,,,,,0.000,0.000,0.000,*1e
$GPGSV,1,1,1,1,1,1,1,,,,,,,,,,,,*48
$GPGSV,1,1,1,1,1,1,1,,,,,,,,,,,,*48
$GPGGA,000090,03018.1735,N,09743.9964,W,1,8,1.1,1.5,M,24.5,M,,0000*57
$GPGSA,A,3,,,,,,,,,,,,,0.000,0.000,0.000,*1e
$GPGSV,1,1,1,1,1,1,1,,,,,,,,,,,,*48
$GPGSV,1,1,1,1,1,1,1,,,,,,,,,,,,*48
$GPGGA,000091,03018.1740,N,09743.9961,W,1,8,1.1,1.5,M,24.5,M,,0000*51
$GPGSA,A,3,,,,,,,,,,,,,0.000,0.000,0.000,*1e
$GPGSV,1,1,1,1,1,1,1,,,,,,,,,,,,*48
$GPGSV,1,1,1,1,1,1,1,,,,,,,,,,,,*48
$GPGGA,000092,03018.1745,N,09743.9958,W,1,8,1.1,1.5,M,24.5,M,,0000*5d
$GPGSA,A,3,,,,,,,,,,,,,0.000,0.000,0.000,*1e
$GPGSV,1,1,1,1,1,1,1,,,,,,,,,,,,*48
$GPGSV,1,1,1,1,1,1,1,,,,,,,,,,,,*48
$GPGGA,000093,03018.1750,N,09743.9955,W,1,8,1.1,1.5,M,24.5,M,,0000*55
$GPGSA,A,3,,,,,,,,,,,,,0.000,0.000,0.000,*1e
$GPGSV,1,1,1,1,1,1,1,,,,,,,,,,,,*48
$GPGSV,1,1,1,1,1,1,1,,,,,,,,,,,,*48
$GPGGA,000094,03018.1754,N,09743.9952,W,1,8,1.1,1.5,M,24.5,M,,0000*51
$GPGSA,A,3,,,,,,,,,,,,,0.000,0.000,0.000,*1e
$GPGSV,1,1,1,1,1,1,1,,,,,,,,,,,,*48
$GPGSV,1,1,1,1,1,1,1,,,,,,,,,,,,*48
$GPGGA,000095,03018.1759,N,09743.9949,W,1,8,1.1,1.5,M,24.5,M,,0000*57
$GPGSA,A,3,,,,,,,,,,,,,0.000,0.000,0.000,*1e
$GPGSV,1,1,1,1,1,1,1,,,,,,,,,,,,*48
$GPGSV,1,1,1,1,1,1,1,,,,,,,,,,,,*48
$GPGGA,000096,03018.1763,N,09743.9946,W,1,8,1.1,1.5,M,24.5,M,,0000*52
$GPGSA,A,3,,,,,,,,,,,,,0.000,0.000,0.000,*1e
$GPGSV,1,1,1,1,1,1,1,,,,,,,,,,,,*48
$GPGSV,1,1,1,1,1,1,1,,,,,,,,,,,,*48
$GPGGA,000097,03018.1768,N,09743.9943,W,1,8,1.1,1.5,M,24.5,M,,0000*5d
$GPGSA,A,3,,,,,,,,,,,,,0.000,0.000,0.000,*1e
$GPGSV,1,1,1,1,1,1,1,,,,,,,,,,,,*48
$GPGSV,1,1,1,1,1,1,1,,,,,,,,,,,,*48
$GPGGA,000098,03018.1773,N,09743.9940,W,1,8,1.1,1.5,M,24.5,M,,0000*5b
$GPGSA,A,3,,,,,,,,,,,,,0.000,0.000,0.000,*1e
$GPGSV,1,1,1,1,1,1,1,,,,,,,,,,,,*48
$GPGSV,1,1,1,1,1,1,1,,,,,,,,,,,,*48
$GPGGA,000099,03018.1777,N,09743.9937,W,1,8,1.1,1.5,M,24.5,M,,0000*5e
$GPGSA,A,3,,,,,,,,,,,,,0.000,0.000,0.000,*1e
$GPGSV,1,1,1,1,1,1,1,,,,,,,,,,,,*48
$GPGSV,1,1,1,1,1,1,1,,,,,,,,,,,,*48
$GPGGA,000100,03018.1782,N,09743.9934,W,1,8,1.1,1.5,M,24.5,M,,0000*56
$GPGSA,A,3,,,,,,,,,,,,,0.000,0.000,0.000,*1e
$GPGSV,1,1,1,1,1,1,1,,,,,,,,,,,,*48
$GPGSV,1,1,1,1,1,1,1,,,,,,,,,,,,*48
$GPGGA,000101,03018.1787,N,09743.9931,W,1,8,1.1,1.5,M,24.5,M,,0000*57
$GPGSA,A,3,,,,,,,,,,,,,0.000,0.000,0.000,*1e
$GPGSV,1,1,1,1,1,1,1,,,,,,,,,,,,*48
$GPGSV,1,1,1,1,1,1,1,,,,,,,,,,,,*48
$GPGGA,000102,03018.1792,N,09743.9928,W,1,8,1.1,1.5,M,24.5,M,,0000*58
$GPGSA,A,3,,,,,,,,,,,,,0.000,0.000,0.000,*1e
$GPGSV,1,1,1,1,1,1,1,,,,,,,,,,,,*48
$GPGSV,1,1,1,1,1,1,1,,,,,,,,,,,,*48
$GPGGA,000103,03018.1796,N,09743.9925,W,1,8,1.1,1.5,M,24.5,M,,0000*50
$GPGSA,A,3,,,,,,,,,,,,,0.000,0.000,0.000,*1e
$GPGSV,1,1,1,1,1,1,1,,,,,,,,,,,,*48
$GPGSV,1,1,1,1,1,1,1,,,,,,,,,,,,*48
$GPGGA,000104,03018.1801,N,09743.9923,W,1,8,1.1,1.5,M,24.5,M,,0000*50
$GPGSA,A,3,,,,,,,,,,,,,0.000,0.000,0.000,*1e
$GPGSV,1,1,1,1,1,1,1,,,,,,,,,,,,*48
$GPGSV,1,1,1,1,1,1,1,,,,,,,,,,,,*48
$GPGGA,000105,03018.1805,N,09743.9920,W,1,8,1.1,1.5,M,24.5,M,,0000*56
$GPGSA,A,3,,,,,,,,,,,,,0.000,0.000,0.000,*1e
$GPGSV,1,1,1,1,1,1,1,,,,,,,,,,,,*48
$GPGSV,1,1,1,1,1,1,1,,,,,,,,,,,,*48
$GPGGA,000106,03018.1810,N,09743.9917,W,1,8,1.1,1.5,M,24.5,M,,0000*55
$GPGSA,A,3,,,,,,,,,,,,,0.000,0.000,0.000,*1e
$GPGSV,1,1,1,1,1,1,1,,,,,,,,,,,,*48
$GPGSV,1,1,1,1,1,1,1,,,,,,,,,,,,*48
$GPGGA,000107,03018.1814,N,09743.9914,W,1,8,1.1,1.5,M,24.5,M,,0000*53
$GPGSA,A,3,,,,,,,,,,,,,0.000,0.000,0.000,*1e
$GPGSV,1,1,1,1,1,1,1,,,,,,,,,,,,*48
$GPGSV,1,1,1,1,1,1,1,,,,,,,,,,,,*48
$GPGGA,000108,03018.1819,N,09743.9911,W,1,8,1.1,1.5,M,24.5,M,,0000*54
$GPGSA,A,3,,,,,,,,,,,,,0.000,0.000,0.000,*1e
$GPGSV,1,1,1,1,1,1,1,,,,,,,,,,,,*48
$GPGSV,1,1,1,1,1,1,1,,,,,,,,,,,,*48
$GPGGA,000109,03018.1824,N,09743.9908,W,1,8,1.1,1.5,M,24.5,M,,0000*53
$GPGSA,A,3,,,,,,,,,,,,,0.000,0.000,0.000,*1e
$GPGSV,1,1,1,1,1,1,1,,,,,,,,,,,,*48
$GPGSV,1,1,1,1,1,1,1,,,,,,,,,,,,*48
$GPGGA,000110,03018.1829,N,09743.9905,W,1,8,1.1,1.5,M,24.5,M,,0000*5b
$GPGSA,A,3,,,,,,,,,,,,,0.000,0.000,0.000,*1e
$GPGSV,1,1,1,1,1,1,1,,,,,,,,,,,,*48
$GPGSV,1,1,1,1,1,1,1,,,,,,,,,,,,*48
$GPGGA,000111,03018.1833,N,09743.9902,W,1,8,1.1,1.5,M,24.5,M,,0000*56
$GPGSA,A,3,,,,,,,,,,,,,0.000,0.000,0.000,*1e
$GPGSV,1,1,1,1,1,1,1,,,,,,,,,,,,*48
$GPGSV,1,1,1,1,1,1,1,,,,,,,,,,,,*48
$GPGGA,000112,03018.1838,N,09743.9900,W,1,8,1.1,1.5,M,24.5,M,,0000*5c
$GPGSA,A,3,,,,,,,,,,,,,0.000,0.000,0.000,*1e
$GPGSV,1,1,1,1,1,1,1,,,,,,,,,,,,*48
$GPGSV,1,1,1,1,1,1,1,,,,,,,,,,,,*48
$GPGGA,000113,03018.1843,N,09743.9897,W,1,8,1.1,1.5,M,24.5,M,,0000*5e
$GPGSA,A,3,,,,,,,,,,,,,0.000,0.000,0.000,*1e
$GPGSV,1,1,1,1,1,1,1,,,,,,,,,,,,*48
$GPGSV,1,1,1,1,1,1,1,,,,,,,,,,,,*48
$GPGGA,000114,03018.1847,N,09743.9894,W,1,8,1.1,1.5,M,24.5,M,,0000*5e
$GPGSA,A,3,,,,,,,,,,,,,0.000,0.000,0.000,*1e
$GPGSV,1,1,1,1,1,1,1,,,,,,,,,,,,*48
$GPGSV,1,1,1,1,1,1,1,,,,,,,,,,,,*48
$GPGGA,000115,03018.1852,N,09743.9891,W,1,8,1.1,1.5,M,24.5,M,,0000*5e
$GPGSA,A,3,,,,,,,,,,,,,0.000,0.000,0.000,*1e
$GPGSV,1,1,1,1,1,1,1,,,,,,,,,,,,*48
$GPGSV,1,1,1,1,1,1,1,,,,,,,,,,,,*48
$GPGGA,000116,03018.1856,N,09743.9888,W,1,8,1.1,1.5,M,24.5,M,,0000*51
$GPGSA,A,3,,,,,,,,,,,,,0.000,0.000,0.000,*1e
$GPGSV,1,1,1,1,1,1,1,,,,,,,,,,,,*48
$GPGSV,1,1,1,1,1,1,1,,,,,,,,,,,,*48
$GPGGA,000117,03018.1861,N,09743.9885,W,1,8,1.1,1.5,M,24.5,M,,0000*59
$GPGSA,A,3,,,,,,,,,,,,,0.000,0.000,0.000,*1e
$GPGSV,1,1,1,1,1,1,1,,,,,,,,,,,,*48
$GPGSV,1,1,1,1,1,1,1,,,,,,,,,,,,*48
$GPGGA,000118,03018.1866,N,09743.9882,W,1,8,1.1,1.5,M,24.5,M,,0000*56
$GPGSA,A,3,,,,,,,,,,,,,0.000,0.000,0.000,*1e
$GPGSV,1,1,1,1,1,1,1,,,,,,,,,,,,*48
$GPGSV,1,1,1,1,1,1,1,,,,,,,,,,,,*48
$GPGGA,000119,03018.1870,N,09743.9879,W,1,8,1.1,1.5,M,24.5,M,,0000*54
$GPGSA,A,3,,,,,,,,,,,,,0.000,0.000,0.000,*1e
$GPGSV,1,1,1,1,1,1,1,,,,,,,,,,,,*48
$GPGSV,1,1,1,1,1,1,1,,,,,,,,,,,,*48
$GPGGA,000120,03018.1875,N,09743.9876,W,1,8,1.1,1.5,M,24.5,M,,0000*54
$GPGSA,A,3,,,,,,,,,,,,,0.000,0.000,0.000,*1e
$GPGSV,1,1,1,1,1,1,1,,,,,,,,,,,,*48
$GPGSV,1,1,1,1,1,1,1,,,,,,,,,,,,*48
$GPGGA,000121,03018.1880,N,09743.9873,W,1,8,1.1,1.5,M,24.5,M,,0000*5a
$GPGSA,A,3,,,,,,,,,,,,,0.000,0.000,0.000,*1e
$GPGSV,1,1,1,1,1,1,1,,,,,,,,,,,,*48
$GPGSV,1,1,1,1,1,1,1,,,,,,,,,,,,*48
$GPGGA,000122,03018.1885,N,09743.9870,W,1,8,1.1,1.5,M,24.5,M,,0000*5f
$GPGSA,A,3,,,,,,,,,,,,,0.000,0.000,0.000,*1e
$GPGSV,1,1,1,1,1,1,1,,,,,,,,,,,,*48
$GPGSV,1,1,1,1,1,1,1,,,,,,,,,,,,*48
$GPGGA,000123,03018.1889,N,09743.9867,W,1,8,1.1,1.5,M,24.5,M,,0000*54
$GPGSA,A,3,,,,,,,,,,,,,0.000,0.000,0.000,*1e
$GPGSV,1,1,1,1,1,1,1,,,,,,,,,,,,*48
$GPGSV,1,1,1,1,1,1,1,,,,,,,,,,,,*48
$GPGGA,000124,03018.1894,N,09743.9864,W,1,8,1.1,1.5,M,24.5,M,,0000*5c
$GPGSA,A,3,,,,,,,,,,,,,0.000,0.000,0.000,*1e
$GPGSV,1,1,1,1,1,1,1,,,,,,,,,,,,*48
$GPGSV,1,1,1,1,1,1,1,,,,,,,,,,,,*48
$GPGGA,000125,03018.1898,N,09743.9861,W,1,8,1.1,1.5,M,24.5,M,,0000*54
$GPGSA,A,3,,,,,,,,,,,,,0.000,0.000,0.000,*1e
$GPGSV,1,1,1,1,1,1,1,,,,,,,,,,,,*48
$GPGSV,1,1,1,1,1,1,1,,,,,,,,,,,,*48
$GPGGA,000126,03018.1903,N,09743.9858,W,1,8,1.1,1.5,M,24.5,M,,0000*5e
$GPGSA,A,3,,,,,,,,,,,,,0.000,0.000,0.000,*1e
$GPGSV,1,1,1,1,1,1,1,,,,,,,,,,,,*48
$GPGSV,1,1,1,1,1,1,1,,,,,,,,,,,,*48
$GPGGA,000127,03018.1907,N,09743.9855,W,1,8,1.1,1.5,M,24.5,M,,0000*56
$GPGSA,A,3,,,,,,,,,,,,,0.000,0.000,0.000,*1e
$GPGSV,1,1,1,1,1,1,1,,,,,,,,,,,,*48
$GPGSV,1,1,1,1,1,1,1,,,,,,,,,,,,*48
$GPGGA,000128,03018.1912,N,09743.9853,W,1,8,1.1,1.5,M,24.5,M,,0000*5b
$GPGSA,A,3,,,,,,,,,,,,,0.000,0.000,0.000,*1e
$GPGSV,1,1,1,1,1,1,1,,,,,,,,,,,,*48
$GPGSV,1,1,1,1,1,1,1,,,,,,,,,,,,*48
$GPGGA,000129,03018.1917,N,09743.9850,W,1,8,1.1,1.5,M,24.5,M,,0000*5c
$GPGSA,A,3,,,,,,,,,,,,,0.000,0.000,0.000,*1e
$GPGSV,1,1,1,1,1,1,1,,,,,,,,,,,,*48
$GPGSV,1,1,1,1,1,1,1,,,,,,,,,,,,*48
$GPGGA,000130,03018.1922,N,09743.9847,W,1,8,1.1,1.5,M,24.5,M,,0000*54
$GPGSA,A,3,,,,,,,,,,,,,0.000,0.000,0.000,*1e
$GPGSV,1,1,1,1,1,1,1,,,,,,,,,,,,*48
$GPGSV,1,1,1,1,1,1,1,,,,,,,,,,,,*48
$GPGGA,000131,03018.1927,N,09743.9844,W,1,8,1.1,1.5,M,24.5,M,,0000*53
$GPGSA,A,3,,,,,,,,,,,,,0.000,0.000,0.000,*1e
$GPGSV,1,1,1,1,1,1,1,,,,,,,,,,,,*48
$GPGSV,1,1,1,1,1,1,1,,,,,,,,,,,,*48
$GPGGA,000132,03018.1931,N,09743.9841,W,1,8,1.1,1.5,M,24.5,M,,0000*52
$GPGSA,A,3,,,,,,,,,,,,,0.000,0.000,0.000,*1e
$GPGSV,1,1,1,1,1,1,1,,,,,,,,,,,,*48
$GPGSV,1,1,1,1,1,1,1,,,,,,,,,,,,*48
$GPGGA,000133,03018.1936,N,09743.9838,W,1,8,1.1,1.5,M,24.5,M,,0000*5a
$GPGSA,A,3,,,,,,,,,,,,,0.000,0.000,0.000,*1e
$GPGSV,1,1,1,1,1,1,1,,,,,,,,,,,,*48
$GPGSV,1,1,1,1,1,1,1,,,,,,,,,,,,*48
$GPGGA,000134,03018.1940,N,09743.9835,W,1,8,1.1,1.5,M,24.5,M,,0000*51
$GPGSA,A,3,,,,,,,,,,,,,0.000,0.000,0.000,*1e
$GPGSV,1,1,1,1,1,1,1,,,,,,,,,,,,*48
$GPGSV,1,1,1,1,1,1,1,,,,,,,,,,,,*48
$GPGGA,000135,03018.1945,N,09743.9832,W,1,8,1.1,1.5,M,24.5,M,,0000*52
$GPGSA,A,3,,,,,,,,,,,,,0.000,0.000,0.000,*1e
$GPGSV,1,1,1,1,1,1,1,,,,,,,,,,,,*48
$GPGSV,1,1,1,1,1,1,1,,,,,,,,,,,,*48
$GPGGA,000136,03018.1949,N,09743.9829,W,1,8,1.1,1.5,M,24.5,M,,0000*57
$GPGSA,A,3,,,,,,,,,,,,,0.000,0.000,0.000,*1e
$GPGSV,1,1,1,1,1,1,1,,,,,,,,,,,,*48
$GPGSV,1,1,1,1,1,1,1,,,,,,,,,,,,*48
$GPGGA,000137,03018.1954,N,09743.9826,W,1,8,1.1,1.5,M,24.5,M,,0000*55
$GPGSA,A,3,,,,,,,,,,,,,0.000,0.000,0.000,*1e
$GPGSV,1,1,1,1,1,1,1,,,,,,,,,,,,*48
$GPGSV,1,1,1,1,1,1,1,,,,,,,,,,,,*48
$GPGGA,000138,03018.1959,N,09743.9823,W,1,8,1.1,1.5,M,24.5,M,,0000*52
$GPGSA,A,3,,,,,,,,,,,,,0.000,0.000,0.000,*1e
$GPGSV,1,1,1,1,1,1,1,,,,,,,,,,,,*48
$GPGSV,1,1,1,1,1,1,1,,,,,,,,,,,,*48
$GPGGA,000139,03018.1964,N,09743.9820,W,1,8,1.1,1.5,M,24.5,M,,0000*5e
$GPGSA,A,3,,,,,,,,,,,,,0.000,0.000,0.000,*1e
$GPGSV,1,1,1,1,1,1,1,,,,,,,,,,,,*48
$GPGSV,1,1,1,1,1,1,1,,,,,,,,,,,,*48
$GPGGA,000140,03018.1968,N,09743.9817,W,1,8,1.1,1.5,M,24.5,M,,0000*58
$GPGSA,A,3,,,,,,,,,,,,,0.000,0.000,0.000,*1e
$GPGSV,1,1,1,1,1,1,1,,,,,,,,,,,,*48
$GPGSV,1,1,1,1,1,1,1,,,,,,,,,,,,*48
$GPGGA,000141,03018.1973,N,09743.9814,W,1,8,1.1,1.5,M,24.5,M,,0000*50
$GPGSA,A,3,,,,,,,,,,,,,0.000,0.000,0.000,*1e
$GPGSV,1,1,1,1,1,1,1,,,,,,,,,,,,*48
$GPGSV,1,1,1,1,1,1,1,,,,,,,,,,,,*48
$GPGGA,000142,03018.1978,N,09743.9811,W,1,8,1.1,1.5,M,24.5,M,,0000*5d
$GPGSA,A,3,,,,,,,,,,,,,0.000,0.000,0.000,*1e
$GPGSV,1,1,1,1,1,1,1,,,,,,,,,,,,*48
$GPGSV,1,1,1,1,1,1,1,,,,,,,,,,,,*48
$GPGGA,000143,03018.1982,N,09743.9808,W,1,8,1.1,1.5,M,24.5,M,,0000*51
$GPGSA,A,3,,,,,,,,,,,,,0.000,0.000,0.000,*1e
$GPGSV,1,1,1,1,1,1,1,,,,,,,,,,,,*48
$GPGSV,1,1,1,1,1,1,1,,,,,,,,,,,,*48
$GPGGA,000144,03018.1987,N,09743.9806,W,1,8,1.1,1.5,M,24.5,M,,0000*5d
$GPGSA,A,3,,,,,,,,,,,,,0.000,0.000,0.000,*1e
$GPGSV,1,1,1,1,1,1,1,,,,,,,,,,,,*48
$GPGSV,1,1,1,1,1,1,1,,,,,,,,,,,,*48
$GPGGA,000145,03018.1991,N,09743.9803,W,1,8,1.1,1.5,M,24.5,M,,0000*5e
$GPGSA,A,3,,,,,,,,,,,,,0.000,0.000,0.000,*1e
$GPGSV,1,1,1,1,1,1,1,,,,,,,,,,,,*48
$GPGSV,1,1,1,1,1,1,1,,,,,,,,,,,,*48
$GPGGA,000146,03018.1996,N,09743.9800,W,1,8,1.1,1.5,M,24.5,M,,0000*59
$GPGSA,A,3,,,,,,,,,,,,,0.000,0.000,0.000,*1e
$GPGSV,1,1,1,1,1,1,1,,,,,,,,,,,,*48
$GPGSV,1,1,1,1,1,1,1,,,,,,,,,,,,*48
$GPGGA,000147,03018.2001,N,09743.9797,W,1,8,1.1,1.5,M,24.5,M,,0000*5d
$GPGSA,A,3,,,,,,,,,,,,,0.000,0.000,0.000,*1e
$GPGSV,1,1,1,1,1,1,1,,,,,,,,,,,,*48
$GPGSV,1,1,1,1,1,1,1,,,,,,,,,,,,*48
$GPGGA,000148,03018.2005,N,09743.9794,W,1,8,1.1,1.5,M,24.5,M,,0000*55
$GPGSA,A,3,,,,,,,,,,,,,0.000,0.000,0.000,*1e
$GPGSV,1,1,1,1,1,1,1,,,,,,,,,,,,*48
$GPGSV,1,1,1,1,1,1,1,,,,,,,,,,,,*48
$GPGGA,000149,03018.2010,N,09743.9791,W,1,8,1.1,1.5,M,24.5,M,,0000*55
$GPGSA,A,3,,,,,,,,,,,,,0.000,0.000,0.000,*1e
$GPGSV,1,1,1,1,1,1,1,,,,,,,,,,,,*48
$GPGSV,1,1,1,1,1,1,1,,,,,,,,,,,,*48
$GPGGA,000150,03018.2015,N,09743.9788,W,1,8,1.1,1.5,M,24.5,M,,0000*50
$GPGSA,A,3,,,,,,,,,,,,,0.000,0.000,0.000,*1e
$GPGSV,1,1,1,1,1,1,1,,,,,,,,,,,,*48
$GPGSV,1,1,1,1,1,1,1,,,,,,,,,,,,*48
$GPGGA,000151,03018.2020,N,09743.9785,W,1,8,1.1,1.5,M,24.5,M,,0000*5a
$GPGSA,A,3,,,,,,,,,,,,,0.000,0.000,0.000,*1e
$GPGSV,1,1,1,1,1,1,1,,,,,,,,,,,,*48
$GPGSV,1,1,1,1,1,1,1,,,,,,,,,,,,*48
$GPGGA,000152,03018.2024,N,09743.9783,W,1,8,1.1,1.5,M,24.5,M,,0000*5b
$GPGSA,A,3,,,,,,,,,,,,,0.000,0.000,0.000,*1e
$GPGSV,1,1,1,1,1,1,1,,,,,,,,,,,,*48
$GPGSV,1,1,1,1,1,1,1,,,,,,,,,,,,*48
$GPGGA,000153,03018.2029,N,09743.9780,W,1,8,1.1,1.5,M,24.5,M,,0000*54
$GPGSA,A,3,,,,,,,,,,,,,0.000,0.000,0.000,*1e
$GPGSV,1,1,1,1,1,1,1,,,,,,,,,,,,*48
$GPGSV,1,1,1,1,1,1,1,,,,,,,,,,,,*48
$GPGGA,000154,03018.2033,N,09743.9777,W,1,8,1.1,1.5,M,24.5,M,,0000*50
$GPGSA,A,3,,,,,,,,,,,,,0.000,0.000,0.000,*1e
$GPGSV,1,1,1,1,1,1,1,,,,,,,,,,,,*48
$GPGSV,1,1,1,1,1,1,1,,,,,,,,,,,,*48
$GPGGA,000155,03018.2038,N,09743.9774,W,1,8,1.1,1.5,M,24.5,M,,0000*59
$GPGSA,A,3,,,,,,,,,,,,,0.000,0.000,0.000,*1e
$GPGSV,1,1,1,1,1,1,1,,,,,,,,,,,,*48
$GPGSV,1,1,1,1,1,1,1,,,,,,,,,,,,*48
$GPGGA,000156,03018.2042,N,09743.9771,W,1,8,1.1,1.5,M,24.5,M,,0000*52
$GPGSA,A,3,,,,,,,,,,,,,0.000,0.000,0.000,*1e
$GPGSV,1,1,1,1,1,1,1,,,,,,,,,,,,*48
$GPGSV,1,1,1,1,1,1,1,,,,,,,,,,,,*48
$GPGGA,000157,03018.2047,N,09743.9768,W,1,8,1.1,1.5,M,24.5,M,,0000*5e
$GPGSA,A,3,,,,,,,,,,,,,0.000,0.000,0.000,*1e
$GPGSV,1,1,1,1,1,1,1,,,,,,,,,,,,*48
$GPGSV,1,1,1,1,1,1,1,,,,,,,,,,,,*48
$GPGGA,000158,03018.2052,N,09743.9765,W,1,8,1.1,1.5,M,24.5,M,,0000*58
$GPGSA,A,3,,,,,,,,,,,,,0.000,0.000,0.000,*1e
$GPGSV,1,1,1,1,1,1,1,,,,,,,,,,,,*48
$GPGSV,1,1,1,1,1,1,1,,,,,,,,,,,,*48
$GPGGA,000159,03018.2057,N,09743.9762,W,1,8,1.1,1.5,M,24.5,M,,0000*5b
$GPGSA,A,3,,,,,,,,,,,,,0.000,0.000,0.000,*1e
$GPGSV,1,1,1,1,1,1,1,,,,,,,,,,,,*48
$GPGSV,1,1,1,1,1,1,1,,,,,,,,,,,,*48
$GPGGA,000160,03018.2061,N,09743.9759,W,1,8,1.1,1.5,M,24.5,M,,0000*5c
$GPGSA,A,3,,,,,,,,,,,,,0.000,0.000,0.000,*1e
$GPGSV,1,1,1,1,1,1,1,,,,,,,,,,,,*48
$GPGSV,1,1,1,1,1,1,1,,,,,,,,,,,,*48
$GPGGA,000161,03018.2066,N,09743.9756,W,1,8,1.1,1.5,M,24.5,M,,0000*55
$GPGSA,A,3,,,,,,,,,,,,,0.000,0.000,0.000,*1e
$GPGSV,1,1,1,1,1,1,1,,,,,,,,,,,,*48
$GPGSV,1,1,1,1,1,1,1,,,,,,,,,,,,*48
$GPGGA,000162,03018.2071,N,09743.9753,W,1,8,1.1,1.5,M,24.5,M,,0000*55
$GPGSA,A,3,,,,,,,,,,,,,0.000,0.000,0.000,*1e
$GPGSV,1,1,1,1,1,1,1,,,,,,,,,,,,*48
$GPGSV,1,1,1,1,1,1,1,,,,,,,,,,,,*48
$GPGGA,000163,03018.2075,N,09743.9750,W,1,8,1.1,1.5,M,24.5,M,,0000*53
$GPGSA,A,3,,,,,,,,,,,,,0.000,0.000,0.000,*1e
$GPGSV,1,1,1,1,1,1,1,,,,,,,,,,,,*48
$GPGSV,1,1,1,1,1,1,1,,,,,,,,,,,,*48
$GPGGA,000164,03018.2080,N,09743.9747,W,1,8,1.1,1.5,M,24.5,M,,0000*58
$GPGSA,A,3,,,,,,,,,,,,,0.000,0.000,0.000,*1e
$GPGSV,1,1,1,1,1,1,1,,,,,,,,,,,,*48
$GPGSV,1,1,1,1,1,1,1,,,,,,,,,,,,*48
$GPGGA,000165,03018.2084,N,09743.9744,W,1,8,1.1,1.5,M,24.5,M,,0000*5e
$GPGSA,A,3,,,,,,,,,,,,,0.000,0.000,0.000,*1e
$GPGSV,1,1,1,1,1,1,1,,,,,,,,,,,,*48
$GPGSV,1,1,1,1,1,1,1,,,,,,,,,,,,*48
$GPGGA,000166,03018.2089,N,09743.9741,W,1,8,1.1,1.5,M,24.5,M,,0000*55
$GPGSA,A,3,,,,,,,,,,,,,0.000,0.000,0.000,*1e
$GPGSV,1,1,1,1,1,1,1,,,,,,,,,,,,*48
$GPGSV,1,1,1,1,1,1,1,,,,,,,,,,,,*48
$GPGGA,000167,03018.2094,N,09743.9738,W,1,8,1.1,1.5,M,24.5,M,,0000*56
$GPGSA,A,3,,,,,,,,,,,,,0.000,0.000,0.000,*1e
$GPGSV,1,1,1,1,1,1,1,,,,,,,,,,,,*48
$GPGSV,1,1,1,1,1,1,1,,,,,,,,,,,,*48
$GPGGA,000168,03018.2098,N,09743.9735,W,1,8,1.1,1.5,M,24.5,M,,0000*58
$GPGSA,A,3,,,,,,,,,,,,,0.000,0.000,0.000,*1e
$GPGSV,1,1,1,1,1,1,1,,,,,,,,,,,,*48
$GPGSV,1,1,1,1,1,1,1,,,,,,,,,,,,*48
$GPGGA,000169,03018.2103,N,09743.9732,W,1,8,1.1,1.5,M,24.5,M,,0000*5d
$GPGSA,A,3,,,,,,,,,,,,,0.000,0.000,0.000,*1e
$GPGSV,1,1,1,1,1,1,1,,,,,,,,,,,,*48
$GPGSV,1,1,1,1,1,1,1,,,,,,,,,,,,*48
$GPGGA,000170,03018.2108,N,09743.9729,W,1,8,1.1,1.5,M,24.5,M,,0000*54
$GPGSA,A,3,,,,,,,,,,,,,0.000,0.000,0.000,*1e
$GPGSV,1,1,1,1,1,1,1,,,,,,,,,,,,*48
$GPGSV,1,1,1,1,1,1,1,,,,,,,,,,,,*48
$GPGGA,000171,03018.2112,N,09743.9726,W,1,8,1.1,1.5,M,24.5,M,,0000*51
$GPGSA,A,3,,,,,,,,,,,,,0.000,0.000,0.000,*1e
$GPGSV,1,1,1,1,1,1,1,,,,,,,,,,,,*48
$GPGSV,1,1,1,1,1,1,1,,,,,,,,,,,,*48
$GPGGA,000172,03018.2117,N,09743.9723,W,1,8,1.1,1.5,M,24.5,M,,0000*52
$GPGSA,A,3,,,,,,,,,,,,,0.000,0.000,0.000,*1e
$GPGSV,1,1,1,1,1,1,1,,,,,,,,,,,,*48
$GPGSV,1,1,1,1,1,1,1,,,,,,,,,,,,*48
$GPGGA,000173,03018.2122,N,09743.9720,W,1,8,1.1,1.5,M,24.5,M,,0000*56
$GPGSA,A,3,,,,,,,,,,,,,0.000,0.000,0.000,*1e
$GPGSV,1,1,1,1,1,1,1,,,,,,,,,,,,*48
$GPGSV,1,1,1,1,1,1,1,,,,,,,,,,,,*48
$GPGGA,000174,03018.2126,N,09743.9717,W,1,8,1.1,1.5,M,24.5,M,,0000*51
$GPGSA,A,3,,,,,,,,,,,,,0.000,0.000,0.000,*1e
$GPGSV,1,1,1,1,1,1,1,,,,,,,,,,,,*48
$GPGSV,1,1,1,1,1,1,1,,,,,,,,,,,,*48
$GPGGA,000175,03018.2131,N,09743.9715,W,1,8,1.1,1.5,M,24.5,M,,0000*54
$GPGSA,A,3,,,,,,,,,,,,,0.000,0.000,0.000,*1e
$GPGSV,1,1,1,1,1,1,1,,,,,,,,,,,,*48
$GPGSV,1,1,1,1,1,1,1,,,,,,,,,,,,*48
$GPGGA,000176,03018.2135,N,09743.9712,W,1,8,1.1,1.5,M,24.5,M,,0000*54
$GPGSA,A,3,,,,,,,,,,,,,0.000,0.000,0.000,*1e
$GPGSV,1,1,1,1,1,1,1,,,,,,,,,,,,*48
$GPGSV,1,1,1,1,1,1,1,,,,,,,,,,,,*48
$GPGGA,000177,03018.2140,N,09743.9709,W,1,8,1.1,1.5,M,24.5,M,,0000*5d
$GPGSA,A,3,,,,,,,,,,,,,0.000,0.000,0.000,*1e
$GPGSV,1,1,1,1,1,1,1,,,,,,,,,,,,*48
$GPGSV,1,1,1,1,1,1,1,,,,,,,,,,,,*48
$GPGGA,000178,03018.2144,N,09743.9706,W,1,8,1.1,1.5,M,24.5,M,,0000*59
$GPGSA,A,3,,,,,,,,,,,,,0.000,0.000,0.000,*1e
$GPGSV,1,1,1,1,1,1,1,,,,,,,,,,,,*48
$GPGSV,1,1,1,1,1,1,1,,,,,,,,,,,,*48
$GPGGA,000179,03018.2149,N,09743.9703,W,1,8,1.1,1.5,M,24.5,M,,0000*50
$GPGSA,A,3,,,,,,,,,,,,,0.000,0.000,0.000,*1e
$GPGSV,1,1,1,1,1,1,1,,,,,,,,,,,,*48
$GPGSV,1,1,1,1,1,1,1,,,,,,,,,,,,*48
$GPGGA,000180,03018.2154,N,09743.9700,W,1,8,1.1,1.5,M,24.5,M,,0000*59
$GPGSA,A,3,,,,,,,,,,,,,0.000,0.000,0.000,*1e
$GPGSV,1,1,1,1,1,1,1,,,,,,,,,,,,*48
$GPGSV,1,1,1,1,1,1,1,,,,,,,,,,,,*48
$GPGGA,000181,03018.2158,N,09743.9697,W,1,8,1.1,1.5,M,24.5,M,,0000*5b
$GPGSA,A,3,,,,,,,,,,,,,0.000,0.000,0.000,*1e
$GPGSV,1,1,1,1,1,1,1,,,,,,,,,,,,*48
$GPGSV,1,1,1,1,1,1,1,,,,,,,,,,,,*48
$GPGGA,000182,03018.2163,N,09743.9694,W,1,8,1.1,1.5,M,24.5,M,,0000*53
$GPGSA,A,3,,,,,,,,,,,,,0.000,0.000,0.000,*1e
$GPGSV,1,1,1,1,1,1,1,,,,,,,,,,,,*48
$GPGSV,1,1,1,1,1,1,1,,,,,,,,,,,,*48
$GPGGA,000183,03018.2168,N,09743.9691,W,1,8,1.1,1.5,M,24.5,M,,0000*5c
$GPGSA,A,3,,,,,,,,,,,,,0.000,0.000,0.000,*1e
$GPGSV,1,1,1,1,1,1,1,,,,,,,,,,,,*48
$GPGSV,1,1,1,1,1,1,1,,,,,,,,,,,,*48
$GPGGA,000184,03018.2173,N,09743.9688,W,1,8,1.1,1.5,M,24.5,M,,0000*59
$GPGSA,A,3,,,,,,,,,,,,,0.000,0.000,0.000,*1e
$GPGSV,1,1,1,1,1,1,1,,,,,,,,,,,,*48
$GPGSV,1,1,1,1,1,1,1,,,,,,,,,,,,*48
$GPGGA,000185,03018.2177,N,09743.9685,W,1,8,1.1,1.5,M,24.5,M,,0000*51
$GPGSA,A,3,,,,,,,,,,,,,0.000,0.000,0.000,*1e
$GPGSV,1,1,1,1,1,1,1,,,,,,,,,,,,*48
$GPGSV,1,1,1,1,1,1,1,,,,,,,,,,,,*48
$GPGGA,000186,03018.2182,N,09743.9682,W,1,8,1.1,1.5,M,24.5,M,,0000*5f
$GPGSA,A,3,,,,,,,,,,,,,0.000,0.000,0.000,*1e
$GPGSV,1,1,1,1,1,1,1,,,,,,,,,,,,*48
$GPGSV,1,1,1,1,1,1,1,,,,,,,,,,,,*48
$GPGGA,000187,03018.2186,N,09743.9679,W,1,8,1.1,1.5,M,24.5,M,,0000*5e
$GPGSA,A,3,,,,,,,,,,,,,0.000,0.000,0.000,*1e
$GPGSV,1,1,1,1,1,1,1,,,,,,,,,,,,*48
$GPGSV,1,1,1,1,1,1,1,,,,,,,,,,,,*48
$GPGGA,000188,03018.2191,N,09743.9676,W,1,8,1.1,1.5,M,24.5,M,,0000*58
$GPGSA,A,3,,,,,,,,,,,,,0.000,0.000,0.000,*1e
$GPGSV,1,1,1,1,1,1,1,,,,,,,,,,,,*48
$GPGSV,1,1,1,1,1,1,1,,,,,,,,,,,,*48
$GPGGA,000189,03018.2195,N,09743.9673,W,1,8,1.1,1.5,M,24.5,M,,0000*58
$GPGSA,A,3,,,,,,,,,,,,,0.000,0.000,0.000,*1e
$GPGSV,1,1,1,1,1,1,1,,,,,,,,,,,,*48
$GPGSV,1,1,1,1,1,1,1,,,,,,,,,,,,*48
$GPGGA,000190,03018.2200,N,09743.9670,W,1,8,1.1,1.5,M,24.5,M,,0000*5c
$GPGSA,A,3,,,,,,,,,,,,,0.000,0.000,0.000,*1e
$GPGSV,1,1,1,1,1,1,1,,,,,,,,,,,,*48
$GPGSV,1,1,1,1,1,1,1,,,,,,,,,,,,*48
$GPGGA,000191,03018.2204,N,09743.9667,W,1,8,1.1,1.5,M,24.5,M,,0000*5f
$GPGSA,A,3,,,,,,,,,,,,,0.000,0.000,0.000,*1e
$GPGSV,1,1,1,1,1,1,1,,,,,,,,,,,,*48
$GPGSV,1,1,1,1,1,1,1,,,,,,,,,,,,*48
$GPGGA,000192,03018.2209,N,09743.9664,W,1,8,1.1,1.5,M,24.5,M,,0000*52
$GPGSA,A,3,,,,,,,,,,,,,0.000,0.000,0.000,*1e
$GPGSV,1,1,1,1,1,1,1,,,,,,,,,,,,*48
$GPGSV,1,1,1,1,1,1,1,,,,,,,,,,,,*48
$GPGGA,000193,03018.2214,N,09743.9661,W,1,8,1.1,1.5,M,24.5,M,,0000*5a
$GPGSA,A,3,,,,,,,,,,,,,0.000,0.000,0.000,*1e
$GPGSV,1,1,1,1,1,1,1,,,,,,,,,,,,*48
$GPGSV,1,1,1,1,1,1,1,,,,,,,,,,,,*48
$GPGGA,000194,03018.2219,N,09743.9658,W,1,8,1.1,1.5,M,24.5,M,,0000*5a
$GPGSA,A,3,,,,,,,,,,,,,0.000,0.000,0.000,*1e
$GPGSV,1,1,1,1,1,1,1,,,,,,,,,,,,*48
$GPGSV,1,1,1,1,1,1,1,,,,,,,,,,,,*48
$GPGGA,000195,03018.2223,N,09743.9655,W,1,8,1.1,1.5,M,24.5,M,,0000*5f
$GPGSA,A,3,,,,,,,,,,,,,0.000,0.000,0.000,*1e
$GPGSV,1,1,1,1,1,1,1,,,,,,,,,,,,*48
$GPGSV,1,1,1,1,1,1,1,,,,,,,,,,,,*48
$GPGGA,000196,03018.2228,N,09743.9652,W,1,8,1.1,1.5,M,24.5,M,,0000*50
$GPGSA,A,3,,,,,,,,,,,,,0.000,0.000,0.000,*1e
$GPGSV,1,1,1,1,1,1,1,,,,,,,,,,,,*48
$GPGSV,1,1,1,1,1,1,1,,,,,,,,,,,,*48
$GPGGA,000197,03018.2233,N,09743.9649,W,1,8,1.1,1.5,M,24.5,M,,0000*51
$GPGSA,A,3,,,,,,,,,,,,,0.000,0.000,0.000,*1e
$GPGSV,1,1,1,1,1,1,1,,,,,,,,,,,,*48
$GPGSV,1,1,1,1,1,1,1,,,,,,,,,,,,*48
$GPGGA,000198,03018.2237,N,09743.9646,W,1,8,1.1,1.5,M,24.5,M,,0000*55
$GPGSA,A,3,,,,,,,,,,,,,0.000,0.000,0.000,*1e
$GPGSV,1,1,1,1,1,1,1,,,,,,,,,,,,*48
$GPGSV,1,1,1,1,1,1,1,,,,,,,,,,,,*48
$GPGGA,000199,03018.2242,N,09743.9643,W,1,8,1.1,1.5,M,24.5,M,,0000*53
$GPGSA,A,3,,,,,,,,,,,,,0.000,0.000,0.000,*1e
$GPGSV,1,1,1,1,1,1,1,,,,,,,,,,,,*48
$GPGSV,1,1,1,1,1,1,1,,,,,,,,,,,,*48
$GPGGA,000200,03018.2246,N,09743.9640,W,1,8,1.1,1.5,M,24.5,M,,0000*57
$GPGSA,A,3,,,,,,,,,,,,,0.000,0.000,0.000,*1e
$GPGSV,1,1,1,1,1,1,1,,,,,,,,,,,,*48
$GPGSV,1,1,1,1,1,1,1,,,,,,,,,,,,*48
$GPGGA,000201,03018.2251,N,09743.9637,W,1,8,1.1,1.5,M,24.5,M,,0000*50
$GPGSA,A,3,,,,,,,,,,,,,0.000,0.000,0.000,*1e
$GPGSV,1,1,1,1,1,1,1,,,,,,,,,,,,*48
$GPGSV,1,1,1,1,1,1,1,,,,,,,,,,,,*48
$GPGGA,000202,03018.2255,N,09743.9634,W,1,8,1.1,1.5,M,24.5,M,,0000*54
$GPGSA,A,3,,,,,,,,,,,,,0.000,0.000,0.000,*1e
$GPGSV,1,1,1,1,1,1,1,,,,,,,,,,,,*48
$GPGSV,1,1,1,1,1,1,1,,,,,,,,,,,,*48
$GPGGA,000203,03018.2260,N,09743.9631,W,1,8,1.1,1.5,M,24.5,M,,0000*56
$GPGSA,A,3,,,,,,,,,,,,,0.000,0.000,0.000,*1e
$GPGSV,1,1,1,1,1,1,1,,,,,,,,,,,,*48
$GPGSV,1,1,1,1,1,1,1,,,,,,,,,,,,*48
$GPGGA,000204,03018.2265,N,09743.9628,W,1,8,1.1,1.5,M,24.5,M,,0000*5c
$GPGSA,A,3,,,,,,,,,,,,,0.000,0.000,0.000,*1e
$GPGSV,1,1,1,1,1,1,1,,,,,,,,,,,,*48
$GPGSV,1,1,1,1,1,1,1,,,,,,,,,,,,*48
$GPGGA,000205,03018.2269,N,09743.9625,W,1,8,1.1,1.5,M,24.5,M,,0000*5c
$GPGSA,A,3,,,,,,,,,,,,,0.000,0.000,0.000,*1e
$GPGSV,1,1,1,1,1,1,1,,,,,,,,,,,,*48
$GPGSV,1,1,1,1,1,1,1,,,,,,,,,,,,*48
$GPGGA,000206,03018.2274,N,09743.9622,W,1,8,1.1,1.5,M,24.5,M,,0000*54
$GPGSA,A,3,,,,,,,,,,,,,0.000,0.000,0.000,*1e
$GPGSV,1,1,1,1,1,1,1,,,,,,,,,,,,*48
$GPGSV,1,1,1,1,1,1,1,,,,,,,,,,,,*48
$GPGGA,000207,03018.2279,N,09743.9619,W,1,8,1.1,1.5,M,24.5,M,,0000*50
$GPGSA,A,3,,,,,,,,,,,,,0.000,0.000,0.000,*1e
$GPGSV,1,1,1,1,1,1,1,,,,,,,,,,,,*48
$GPGSV,1,1,1,1,1,1,1,,,,,,,,,,,,*48
$GPGGA,000208,03018.2283,N,09743.9616,W,1,8,1.1,1.5,M,24.5,M,,0000*55
$GPGSA,A,3,,,,,,,,,,,,,0.000,0.000,0.000,*1e
$GPGSV,1,1,1,1,1,1,1,,,,,,,,,,,,*48
$GPGSV,1,1,1,1,1,1,1,,,,,,,,,,,,*48
$GPGGA,000209,03018.2288,N,09743.9613,W,1,8,1.1,1.5,M,24.5,M,,0000*5a
$GPGSA,A,3,,,,,,,,,,,,,0.000,0.000,0.000,*1e
$GPGSV,1,1,1,1,1,1,1,,,,,,,,,,,,*48
$GPGSV,1,1,1,1,1,1,1,,,,,,,,,,,,*48
$GPGGA,000210,03018.2293,N,09743.9610,W,1,8,1.1,1.5,M,24.5,M,,0000*5b
$GPGSA,A,3,,,,,,,,,,,,,0.000,0.000,0.000,*1e
$GPGSV,1,1,1,1,1,1,1,,,,,,,,,,,,*48
$GPGSV,1,1,1,1,1,1,1,,,,,,,,,,,,*48
$GPGGA,000211,03018.2297,N,09743.9607,W,1,8,1.1,1.5,M,24.5,M,,0000*58
$GPGSA,A,3,,,,,,,,,,,,,0.000,0.000,0.000,*1e
$GPGSV,1,1,1,1,1,1,1,,,,,,,,,,,,*48
$GPGSV,1,1,1,1,1,1,1,,,,,,,,,,,,*48
$GPGGA,000212,03018.2302,N,09743.9604,W,1,8,1.1,1.5,M,24.5,M,,0000*55
$GPGSA,A,3,,,,,,,,,,,,,0.000,0.000,0.000,*1e
$GPGSV,1,1,1,1,1,1,1,,,,,,,,,,,,*48
$GPGSV,1,1,1,1,1,1,1,,,,,,,,,,,,*48
$GPGGA,000213,03018.2306,N,09743.9601,W,1,8,1.1,1.5,M,24.5,M,,0000*55
$GPGSA,A,3,,,,,,,,,,,,,0.000,0.000,0.000,*1e
$GPGSV,1,1,1,1,1,1,1,,,,,,,,,,,,*48
$GPGSV,1,1,1,1,1,1,1,,,,,,,,,,,,*48
$GPGGA,000214,03018.2311,N,09743.9598,W,1,8,1.1,1.5,M,24.5,M,,0000*57
$GPGSA,A,3,,,,,,,,,,,,,0.000,0.000,0.000,*1e
$GPGSV,1,1,1,1,1,1,1,,,,,,,,,,,,*48
$GPGSV,1,1,1,1,1,1,1,,,,,,,,,,,,*48
$GPGGA,000215,03018.2315,N,09743.9595,W,1,8,1.1,1.5,M,24.5,M,,0000*5f
$GPGSA,A,3,,,,,,,,,,,,,0.000,0.000,0.000,*1e
$GPGSV,1,1,1,1,1,1,1,,,,,,,,,,,,*48
$GPGSV,1,1,1,1,1,1,1,,,,,,,,,,,,*48
$GPGGA,000216,03018.2320,N,09743.9592,W,1,8,1.1,1.5,M,24.5,M,,0000*5d
$GPGSA,A,3,,,,,,,,,,,,,0.000,0.000,0.000,*1e
$GPGSV,1,1,1,1,1,1,1,,,,,,,,,,,,*48
$GPGSV,1,1,1,1,1,1,1,,,,,,,,,,,,*48
$GPGGA,000217,03018.2325,N,09743.9589,W,1,8,1.1,1.5,M,24.5,M,,0000*53
$GPGSA,A,3,,,,,,,,,,,,,0.000,0.000,0.000,*1e
$GPGSV,1,1,1,1,1,1,1,,,,,,,,,,,,*48
$GPGSV,1,1,1,1,1,1,1,,,,,,,,,,,,*48
$GPGGA,000218,03018.2329,N,09743.9586,W,1,8,1.1,1.5,M,24.5,M,,0000*5f
$GPGSA,A,3,,,,,,,,,,,,,0.000,0.000,0.000,*1e
$GPGSV,1,1,1,1,1,1,1,,,,,,,,,,,,*48
$GPGSV,1,1,1,1,1,1,1,,,,,,,,,,,,*48
$GPGGA,000219,03018.2334,N,09743.9583,W,1,8,1.1,1.5,M,24.5,M,,0000*57
$GPGSA,A,3,,,,,,,,,,,,,0.000,0.000,0.000,*1e
$GPGSV,1,1,1,1,1,1,1,,,,,,,,,,,,*48
$GPGSV,1,1,1,1,1,1,1,,,,,,,,,,,,*48
$GPGGA,000220,03018.2339,N,09743.9580,W,1,8,1.1,1.5,M,24.5,M,,0000*53
$GPGSA,A,3,,,,,,,,,,,,,0.000,0.000,0.000,*1e
$GPGSV,1,1,1,1,1,1,1,,,,,,,,,,,,*48
$GPGSV,1,1,1,1,1,1,1,,,,,,,,,,,,*48
$GPGGA,000221,03018.2344,N,09743.9577,W,1,8,1.1,1.5,M,24.5,M,,0000*50
$GPGSA,A,3,,,,,,,,,,,,,0.000,0.000,0.000,*1e
$GPGSV,1,1,1,1,1,1,1,,,,,,,,,,,,*48
$GPGSV,1,1,1,1,1,1,1,,,,,,,,,,,,*48
$GPGGA,000222,03018.2348,N,09743.9574,W,1,8,1.1,1.5,M,24.5,M,,0000*5c
$GPGSA,A,3,,,,,,,,,,,,,0.000,0.000,0.000,*1e
$GPGSV,1,1,1,1,1,1,1,,,,,,,,,,,,*48
$GPGSV,1,1,1,1,1,1,1,,,,,,,,,,,,*48
$GPGGA,000223,03018.2353,N,09743.9571,W,1,8,1.1,1.5,M,24.5,M,,0000*52
$GPGSA,A,3,,,,,,,,,,,,,0.000,0.000,0.000,*1e
$GPGSV,1,1,1,1,1,1,1,,,,,,,,,,,,*48
$GPGSV,1,1,1,1,1,1,1,,,,,,,,,,,,*48
$GPGGA,000224,03018.2357,N,09743.9568,W,1,8,1.1,1.5,M,24.5,M,,0000*59
$GPGSA,A,3,,,,,,,,,,,,,0.000,0.000,0.000,*1e
$GPGSV,1,1,1,1,1,1,1,,,,,,,,,,,,*48
$GPGSV,1,1,1,1,1,1,1,,,,,,,,,,,,*48
$GPGGA,000225,03018.2362,N,09743.9566,W,1,8,1.1,1.5,M,24.5,M,,0000*50
$GPGSA,A,3,,,,,,,,,,,,,0.000,0.000,0.000,*1e
$GPGSV,1,1,1,1,1,1,1,,,,,,,,,,,,*48
$GPGSV,1,1,1,1,1,1,1,,,,,,,,,,,,*48
$GPGGA,000226,03018.2366,N,09743.9563,W,1,8,1.1,1.5,M,24.5,M,,0000*52
$GPGSA,A,3,,,,,,,,,,,,,0.000,0.000,0.000,*1e
$GPGSV,1,1,1,1,1,1,1,,,,,,,,,,,,*48
$GPGSV,1,1,1,1,1,1,1,,,,,,,,,,,,*48
$GPGGA,000227,03018.2371,N,09743.9560,W,1,8,1.1,1.5,M,24.5,M,,0000*56
$GPGSA,A,3,,,,,,,,,,,,,0.000,0.000,0.000,*1e
$GPGSV,1,1,1,1,1,1,1,,,,,,,,,,,,*48
$GPGSV,1,1,1,1,1,1,1,,,,,,,,,,,,*48
$GPGGA,000228,03018.2375,N,09743.9557,W,1,8,1.1,1.5,M,24.5,M,,0000*59
$GPGSA,A,3,,,,,,,,,,,,,0.000,0.000,0.000,*1e
$GPGSV,1,1,1,1,1,1,1,,,,,,,,,,,,*48
$GPGSV,1,1,1,1,1,1,1,,,,,,,,,,,,*48
$GPGGA,000229,03018.2380,N,09743.9554,W,1,8,1.1,1.5,M,24.5,M,,0000*51
$GPGSA,A,3,,,,,,,,,,,,,0.000,0.000,0.000,*1e
$GPGSV,1,1,1,1,1,1,1,,,,,,,,,,,,*48
$GPGSV,1,1,1,1,1,1,1,,,,,,,,,,,,*48
$GPGGA,000230,03018.2385,N,09743.9551,W,1,8,1.1,1.5,M,24.5,M,,0000*59
$GPGSA,A,3,,,,,,,,,,,,,0.000,0.000,0.000,*1e
$GPGSV,1,1,1,1,1,1,1,,,,,,,,,,,,*48
$GPGSV,1,1,1,1,1,1,1,,,,,,,,,,,,*48
$GPGGA,000231,03018.2390,N,09743.9548,W,1,8,1.1,1.5,M,24.5,M,,0000*54
$GPGSA,A,3,,,,,,,,,,,,,0.000,0.000,0.000,*1e
$GPGSV,1,1,1,1,1,1,1,,,,,,,,,,,,*48
$GPGSV,1,1,1,1,1,1,1,,,,,,,,,,,,*48
$GPGGA,000232,03018.2394,N,09743.9545,W,1,8,1.1,1.5,M,24.5,M,,0000*5e
$GPGSA,A,3,,,,,,,,,,,,,0.000,0.000,0.000,*1e
$GPGSV,1,1,1,1,1,1,1,,,,,,,,,,,,*48
$GPGSV,1,1,1,1,1,1,1,,,,,,,,,,,,*48
$GPGGA,000233,03018.2399,N,09743.9542,W,1,8,1.1,1.5,M,24.5,M,,0000*55
$GPGSA,A,3,,,,,,,,,,,,,0.000,0.000,0.000,*1e
$GPGSV,1,1,1,1,1,1,1,,,,,,,,,,,,*48
$GPGSV,1,1,1,1,1,1,1,,,,,,,,,,,,*48
$GPGGA,000234,03018.2404,N,09743.9539,W,1,8,1.1,1.5,M,24.5,M,,0000*5d
$GPGSA,A,3,,,,,,,,,,,,,0.000,0.000,0.000,*1e
$GPGSV,1,1,1,1,1,1,1,,,,,,,,,,,,*48
$GPGSV,1,1,1,1,1,1,1,,,,,,,,,,,,*48
$GPGGA,000235,03018.2408,N,09743.9536,W,1,8,1.1,1.5,M,24.5,M,,0000*5f
$GPGSA,A,3,,,,,,,,,,,,,0.000,0.000,0.000,*1e
$GPGSV,1,1,1,1,1,1,1,,,,,,,,,,,,*48
$GPGSV,1,1,1,1,1,1,1,,,,,,,,,,,,*48
$GPGGA,000236,03018.2413,N,09743.9533,W,1,8,1.1,1.5,M,24.5,M,,0000*53
$GPGSA,A,3,,,,,,,,,,,,,0.000,0.000,0.000,*1e
$GPGSV,1,1,1,1,1,1,1,,,,,,,,,,,,*48
$GPGSV,1,1,1,1,1,1,1,,,,,,,,,,,,*48
$GPGGA,000237,03018.2417,N,09743.9530,W,1,8,1.1,1.5,M,24.5,M,,0000*55
$GPGSA,A,3,,,,,,,,,,,,,0.000,0.000,0.000,*1e
$GPGSV,1,1,1,1,1,1,1,,,,,,,,,,,,*48
$GPGSV,1,1,1,1,1,1,1,,,,,,,,,,,,*48
$GPGGA,000238,03018.2422,N,09743.9527,W,1,8,1.1,1.5,M,24.5,M,,0000*5a
$GPGSA,A,3,,,,,,,,,,,,,0.000,0.000,0.000,*1e
$GPGSV,1,1,1,1,1,1,1,,,,,,,,,,,,*48
$GPGSV,1,1,1,1,1,1,1,,,,,,,,,,,,*48
$GPGGA,000239,03018.2426,N,09743.9524,W,1,8,1.1,1.5,M,24.5,M,,0000*5c
$GPGSA,A,3,,,,,,,,,,,,,0.000,0.000,0.000,*1e
$GPGSV,1,1,1,1,1,1,1,,,,,,,,,,,,*48
$GPGSV,1,1,1,1,1,1,1,,,,,,,,,,,,*48
$GPGGA,000240,03018.2431,N,09743.9521,W,1,8,1.1,1.5,M,24.5,M,,0000*51
$GPGSA,A,3,,,,,,,,,,,,,0.000,0.000,0.000,*1e
$GPGSV,1,1,1,1,1,1,1,,,,,,,,,,,,*48
$GPGSV,1,1,1,1,1,1,1,,,,,,,,,,,,*48
$GPGGA,000241,03018.2436,N,09743.9518,W,1,8,1.1,1.5,M,24.5,M,,0000*5d
$GPGSA,A,3,,,,,,,,,,,,,0.000,0.000,0.000,*1e
$GPGSV,1,1,1,1,1,1,1,,,,,,,,,,,,*48
$GPGSV,1,1,1,1,1,1,1,,,,,,,,,,,,*48
$GPGGA,000242,03018.2440,N,09743.9515,W,1,8,1.1,1.5,M,24.5,M,,0000*52
$GPGSA,A,3,,,,,,,,,,,,,0.000,0.000,0.000,*1e
$GPGSV,1,1,1,1,1,1,1,,,,,,,,,,,,*48
$GPGSV,1,1,1,1,1,1,1,,,,,,,,,,,,*48
$GPGGA,000243,03018.2445,N,09743.9512,W,1,8,1.1,1.5,M,24.5,M,,0000*51
$GPGSA,A,3,,,,,,,,,,,,,0.000,0.000,0.000,*1e
$GPGSV,1,1,1,1,1,1,1,,,,,,,,,,,,*48
$GPGSV,1,1,1,1,1,1,1,,,,,,,,,,,,*48
$GPGGA,000244,03018.2450,N,09743.9509,W,1,8,1.1,1.5,M,24.5,M,,0000*58
$GPGSA,A,3,,,,,,,,,,,,,0.000,0.000,0.000,*1e
$GPGSV,1,1,1,1,1,1,1,,,,,,,,,,,,*48
$GPGSV,1,1,1,1,1,1,1,,,,,,,,,,,,*48
$GPGGA,000245,03018.2454,N,09743.9506,W,1,8,1.1,1.5,M,24.5,M,,0000*52
$GPGSA,A,3,,,,,,,,,,,,,0.000,0.000,0.000,*1e
$GPGSV,1,1,1,1,1,1,1,,,,,,,,,,,,*48
$GPGSV,1,1,1,1,1,1,1,,,,,,,,,,,,*48
$GPGGA,000246,03018.2459,N,09743.9503,W,1,8,1.1,1.5,M,24.5,M,,0000*59
$GPGSA,A,3,,,,,,,,,,,,,0.000,0.000,0.000,*1e
$GPGSV,1,1,1,1,1,1,1,,,,,,,,,,,,*48
$GPGSV,1,1,1,1,1,1,1,,,,,,,,,,,,*48
$GPGGA,000247,03018.2464,N,09743.9500,W,1,8,1.1,1.5,M,24.5,M,,0000*55
$GPGSA,A,3,,,,,,,,,,,,,0.000,0.000,0.000,*1e
$GPGSV,1,1,1,1,1,1,1,,,,,,,,,,,,*48
$GPGSV,1,1,1,1,1,1,1,,,,,,,,,,,,*48
$GPGGA,000248,03018.2468,N,09743.9497,W,1,8,1.1,1.5,M,24.5,M,,0000*59
$GPGSA,A,3,,,,,,,,,,,,,0.000,0.000,0.000,*1e
$GPGSV,1,1,1,1,1,1,1,,,,,,,,,,,,*48
$GPGSV,1,1,1,1,1,1,1,,,,,,,,,,,,*48
$GPGGA,000249,03018.2473,N,09743.9494,W,1,8,1.1,1.5,M,24.5,M,,0000*51
$GPGSA,A,3,,,,,,,,,,,,,0.000,0.000,0.000,*1e
$GPGSV,1,1,1,1,1,1,1,,,,,,,,,,,,*48
$GPGSV,1,1,1,1,1,1,1,,,,,,,,,,,,*48
$GPGGA,000250,03018.2477,N,09743.9492,W,1,8,1.1,1.5,M,24.5,M,,0000*5b
$GPGSA,A,3,,,,,,,,,,,,,0.000,0.000,0.000,*1e
$GPGSV,1,1,1,1,1,1,1,,,,,,,,,,,,*48
$GPGSV,1,1,1,1,1,1,1,,,,,,,,,,,,*48
$GPGGA,000251,03018.2482,N,09743.9489,W,1,8,1.1,1.5,M,24.5,M,,0000*5a
$GPGSA,A,3,,,,,,,,,,,,,0.000,0.000,0.000,*1e
$GPGSV,1,1,1,1,1,1,1,,,,,,,,,,,,*48
$GPGSV,1,1,1,1,1,1,1,,,,,,,,,,,,*48
$GPGGA,000252,03018.2486,N,09743.9486,W,1,8,1.1,1.5,M,24.5,M,,0000*52
$GPGSA,A,3,,,,,,,,,,,,,0.000,0.000,0.000,*1e
$GPGSV,1,1,1,1,1,1,1,,,,,,,,,,,,*48
$GPGSV,1,1,1,1,1,1,1,,,,,,,,,,,,*48
$GPGGA,000253,03018.2491,N,09743.9483,W,1,8,1.1,1.5,M,24.5,M,,0000*50
$GPGSA,A,3,,,,,,,,,,,,,0.000,0.000,0.000,*1e
$GPGSV,1,1,1,1,1,1,1,,,,,,,,,,,,*48
$GPGSV,1,1,1,1,1,1,1,,,,,,,,,,,,*48
$GPGGA,000254,03018.2496,N,09743.9480,W,1,8,1.1,1.5,M,24.5,M,,0000*53
$GPGSA,A,3,,,,,,,,,,,,,0.000,0.000,0.000,*1e
$GPGSV,1,1,1,1,1,1,1,,,,,,,,,,,,*48
$GPGSV,1,1,1,1,1,1,1,,,,,,,,,,,,*48
$GPGGA,000255,03018.2500,N,09743.9477,W,1,8,1.1,1.5,M,24.5,M,,0000*54
$GPGSA,A,3,,,,,,,,,,,,,0.000,0.000,0.000,*1e
$GPGSV,1,1,1,1,1,1,1,,,,,,,,,,,,*48
$GPGSV,1,1,1,1,1,1,1,,,,,,,,,,,,*48
$GPGGA,000256,03018.2505,N,09743.9474,W,1,8,1.1,1.5,M,24.5,M,,0000*51
$GPGSA,A,3,,,,,,,,,,,,,0.000,0.000,0.000,*1e
$GPGSV,1,1,1,1,1,1,1,,,,,,,,,,,,*48
$GPGSV,1,1,1,1,1,1,1,,,,,,,,,,,,*48
$GPGGA,000257,03018.2510,N,09743.9471,W,1,8,1.1,1.5,M,24.5,M,,0000*51
$GPGSA,A,3,,,,,,,,,,,,,0.000,0.000,0.000,*1e
$GPGSV,1,1,1,1,1,1,1,,,,,,,,,,,,*48
$GPGSV,1,1,1,1,1,1,1,,,,,,,,,,,,*48
$GPGGA,000258,03018.2514,N,09743.9468,W,1,8,1.1,1.5,M,24.5,M,,0000*52
$GPGSA,A,3,,,,,,,,,,,,,0.000,0.000,0.000,*1e
$GPGSV,1,1,1,1,1,1,1,,,,,,,,,,,,*48
$GPGSV,1,1,1,1,1,1,1,,,,,,,,,,,,*48
$GPGGA,000259,03018.2519,N,09743.9465,W,1,8,1.1,1.5,M,24.5,M,,0000*53
$GPGSA,A,3,,,,,,,,,,,,,0.000,0.000,0.000,*1e
$GPGSV,1,1,1,1,1,1,1,,,,,,,,,,,,*48
$GPGSV,1,1,1,1,1,1,1,,,,,,,,,,,,*48
$GPGGA,000260,03018.2524,N,09743.9462,W,1,8,1.1,1.5,M,24.5,M,,0000*50
$GPGSA,A,3,,,,,,,,,,,,,0.000,0.000,0.000,*1e
$GPGSV,1,1,1,1,1,1,1,,,,,,,,,,,,*48
$GPGSV,1,1,1,1,1,1,1,,,,,,,,,,,,*48
$GPGGA,000261,03018.2528,N,09743.9459,W,1,8,1.1,1.5,M,24.5,M,,0000*55
$GPGSA,A,3,,,,,,,,,,,,,0.000,0.000,0.000,*1e
$GPGSV,1,1,1,1,1,1,1,,,,,,,,,,,,*48
$GPGSV,1,1,1,1,1,1,1,,,,,,,,,,,,*48
$GPGGA,000262,03018.2533,N,09743.9456,W,1,8,1.1,1.5,M,24.5,M,,0000*53
$GPGSA,A,3,,,,,,,,,,,,,0.000,0.000,0.000,*1e
$GPGSV,1,1,1,1,1,1,1,,,,,,,,,,,,*48
$GPGSV,1,1,1,1,1,1,1,,,,,,,,,,,,*48
$GPGGA,000263,03018.2537,N,09743.9453,W,1,8,1.1,1.5,M,24.5,M,,0000*53
$GPGSA,A,3,,,,,,,,,,,,,0.000,0.000,0.000,*1e
$GPGSV,1,1,1,1,1,1,1,,,,,,,,,,,,*48
$GPGSV,1,1,1,1,1,1,1,,,,,,,,,,,,*48
$GPGGA,000264,03018.2542,N,09743.9450,W,1,8,1.1,1.5,M,24.5,M,,0000*55
$GPGSA,A,3,,,,,,,,,,,,,0.000,0.000,0.000,*1e
$GPGSV,1,1,1,1,1,1,1,,,,,,,,,,,,*48
$GPGSV,1,1,1,1,1,1,1,,,,,,,,,,,,*48
$GPGGA,000265,03018.2546,N,09743.9447,W,1,8,1.1,1.5,M,24.5,M,,0000*56
$GPGSA,A,3,,,,,,,,,,,,,0.000,0.000,0.000,*1e
$GPGSV,1,1,1,1,1,1,1,,,,,,,,,,,,*48
$GPGSV,1,1,1,1,1,1,1,,,,,,,,,,,,*48
$GPGGA,000266,03018.2551,N,09743.9444,W,1,8,1.1,1.5,M,24.5,M,,0000*50
$GPGSA,A,3,,,,,,,,,,,,,0.000,0.000,0.000,*1e
$GPGSV,1,1,1,1,1,1,1,,,,,,,,,,,,*48
$GPGSV,1,1,1,1,1,1,1,,,,,,,,,,,,*48
$GPGGA,000267,03018.2556,N,09743.9441,W,1,8,1.1,1.5,M,24.5,M,,0000*53
$GPGSA,A,3,,,,,,,,,,,,,0.000,0.000,0.000,*1e
$GPGSV,1,1,1,1,1,1,1,,,,,,,,,,,,*48
$GPGSV,1,1,1,1,1,1,1,,,,,,,,,,,,*48
$GPGGA,000268,03018.2561,N,09743.9438,W,1,8,1.1,1.5,M,24.5,M,,0000*56
$GPGSA,A,3,,,,,,,,,,,,,0.000,0.000,0.000,*1e
$GPGSV,1,1,1,1,1,1,1,,,,,,,,,,,,*48
$GPGSV,1,1,1,1,1,1,1,,,,,,,,,,,,*48
$GPGGA,000269,03018.2565,N,09743.9435,W,1,8,1.1,1.5,M,24.5,M,,0000*5e
$GPGSA,A,3,,,,,,,,,,,,,0.000,0.000,0.000,*1e
$GPGSV,1,1,1,1,1,1,1,,,,,,,,,,,,*48
$GPGSV,1,1,1,1,1,1,1,,,,,,,,,,,,*48
$GPGGA,000270,03018.2570,N,09743.9432,W,1,8,1.1,1.5,M,24.5,M,,0000*55
$GPGSA,A,3,,,,,,,,,,,,,0.000,0.000,0.000,*1e
$GPGSV,1,1,1,1,1,1,1,,,,,,,,,,,,*48
$GPGSV,1,1,1,1,1,1,1,,,,,,,,,,,,*48
$GPGGA,000271,03018.2575,N,09743.9429,W,1,8,1.1,1.5,M,24.5,M,,0000*5b
$GPGSA,A,3,,,,,,,,,,,,,0.000,0.000,0.000,*1e
$GPGSV,1,1,1,1,1,1,1,,,,,,,,,,,,*48
$GPGSV,1,1,1,1,1,1,1,,,,,,,,,,,,*48
$GPGGA,000272,03018.2579,N,09743.9426,W,1,8,1.1,1.5,M,24.5,M,,0000*5b
$GPGSA,A,3,,,,,,,,,,,,,0.000,0.000,0.000,*1e
$GPGSV,1,1,1,1,1,1,1,,,,,,,,,,,,*48
$GPGSV,1,1,1,1,1,1,1,,,,,,,,,,,,*48
$GPGGA,000273,03018.2584,N,09743.9423,W,1,8,1.1,1.5,M,24.5,M,,0000*5d
$GPGSA,A,3,,,,,,,,,,,,,0.000,0.000,0.000,*1e
$GPGSV,1,1,1,1,1,1,1,,,,,,,,,,,,*48
$GPGSV,1,1,1,1,1,1,1,,,,,,,,,,,,*48
$GPGGA,000274,03018.2588,N,09743.9420,W,1,8,1.1,1.5,M,24.5,M,,0000*55
$GPGSA,A,3,,,,,,,,,,,,,0.000,0.000,0.000,*1e
$GPGSV,1,1,1,1,1,1,1,,,,,,,,,,,,*48
$GPGSV,1,1,1,1,1,1,1,,,,,,,,,,,,*48
$GPGGA,000275,03018.2593,N,09743.9417,W,1,8,1.1,1.5,M,24.5,M,,0000*5a
$GPGSA,A,3,,,,,,,,,,,,,0.000,0.000,0.000,*1e
$GPGSV,1,1,1,1,1,1,1,,,,,,,,,,,,*48
$GPGSV,1,1,1,1,1,1,1,,,,,,,,,,,,*48
$GPGGA,000276,03018.2597,N,09743.9414,W,1,8,1.1,1.5,M,24.5,M,,0000*5e
$GPGSA,A,3,,,,,,,,,,,,,0.000,0.000,0.000,*1e
$GPGSV,1,1,1,1,1,1,1,,,,,,,,,,,,*48
$GPGSV,1,1,1,1,1,1,1,,,,,,,,,,,,*48
$GPGGA,000277,03018.2602,N,09743.9411,W,1,8,1.1,1.5,M,24.5,M,,0000*55
$GPGSA,A,3,,,,,,,,,,,,,0.000,0.000,0.000,*1e
$GPGSV,1,1,1,1,1,1,1,,,,,,,,,,,,*48
$GPGSV,1,1,1,1,1,1,1,,,,,,,,,,,,*48
$GPGGA,000278,03018.2607,N,09743.9408,W,1,8,1.1,1.5,M,24.5,M,,0000*57
$GPGSA,A,3,,,,,,,,,,,,,0.000,0.000,0.000,*1e
$GPGSV,1,1,1,1,1,1,1,,,,,,,,,,,,*48
$GPGSV,1,1,1,1,1,1,1,,,,,,,,,,,,*48
$GPGGA,000279,03018.2611,N,09743.9405,W,1,8,1.1,1.5,M,24.5,M,,0000*5c
$GPGSA,A,3,,,,,,,,,,,,,0.000,0.000,0.000,*1e
$GPGSV,1,1,1,1,1,1,1,,,,,,,,,,,,*48
$GPGSV,1,1,1,1,1,1,1,,,,,,,,,,,,*48
$GPGGA,000280,03018.2616,N,09743.9402,W,1,8,1.1,1.5,M,24.5,M,,0000*5a
$GPGSA,A,3,,,,,,,,,,,,,0.000,0.000,0.000,*1e
$GPGSV,1,1,1,1,1,1,1,,,,,,,,,,,,*48
$GPGSV,1,1,1,1,1,1,1,,,,,,,,,,,,*48
$GPGGA,000281,03018.2621,N,09743.9399,W,1,8,1.1,1.5,M,24.5,M,,0000*5a
$GPGSA,A,3,,,,,,,,,,,,,0.000,0.000,0.000,*1e
$GPGSV,1,1,1,1,1,1,1,,,,,,,,,,,,*48
$GPGSV,1,1,1,1,1,1,1,,,,,,,,,,,,*48
$GPGGA,000282,03018.2625,N,09743.9396,W,1,8,1.1,1.5,M,24.5,M,,0000*52
$GPGSA,A,3,,,,,,,,,,,,,0.000,0.000,0.000,*1e
$GPGSV,1,1,1,1,1,1,1,,,,,,,,,,,,*48
$GPGSV,1,1,1,1,1,1,1,,,,,,,,,,,,*48
$GPGGA,000283,03018.2630,N,09743.9393,W,1,8,1.1,1.5,M,24.5,M,,0000*52
$GPGSA,A,3,,,,,,,,,,,,,0.000,0.000,0.000,*1e
$GPGSV,1,1,1,1,1,1,1,,,,,,,,,,,,*48
$GPGSV,1,1,1,1,1,1,1,,,,,,,,,,,,*48
$GPGGA,000284,03018.2635,N,09743.9390,W,1,8,1.1,1.5,M,24.5,M,,0000*53
$GPGSA,A,3,,,,,,,,,,,,,0.000,0.000,0.000,*1e
$GPGSV,1,1,1,1,1,1,1,,,,,,,,,,,,*48
$GPGSV,1,1,1,1,1,1,1,,,,,,,,,,,,*48
$GPGGA,000285,03018.2639,N,09743.9387,W,1,8,1.1,1.5,M,24.5,M,,0000*58
$GPGSA,A,3,,,,,,,,,,,,,0.000,0.000,0.000,*1e
$GPGSV,1,1,1,1,1,1,1,,,,,,,,,,,,*48
$GPGSV,1,1,1,1,1,1,1,,,,,,,,,,,,*48
$GPGGA,000286,03018.2644,N,09743.9384,W,1,8,1.1,1.5,M,24.5,M,,0000*52
$GPGSA,A,3,,,,,,,,,,,,,0.000,0.000,0.000,*1e
$GPGSV,1,1,1,1,1,1,1,,,,,,,,,,,,*48
$GPGSV,1,1,1,1,1,1,1,,,,,,,,,,,,*48
$GPGGA,000287,03018.2648,N,09743.9381,W,1,8,1.1,1.5,M,24.5,M,,0000*5a
$GPGSA,A,3,,,,,,,,,,,,,0.000,0.000,0.000,*1e
$GPGSV,1,1,1,1,1,1,1,,,,,,,,,,,,*48
$GPGSV,1,1,1,1,1,1,1,,,,,,,,,,,,*48
$GPGGA,000288,03018.2653,N,09743.9378,W,1,8,1.1,1.5,M,24.5,M,,0000*59
$GPGSA,A,3,,,,,,,,,,,,,0.000,0.000,0.000,*1e
$GPGSV,1,1,1,1,1,1,1,,,,,,,,,,,,*48
$GPGSV,1,1,1,1,1,1,1,,,,,,,,,,,,*48
$GPGGA,000289,03018.2657,N,09743.9375,W,1,8,1.1,1.5,M,24.5,M,,0000*51
$GPGSA,A,3,,,,,,,,,,,,,0.000,0.000,0.000,*1e
$GPGSV,1,1,1,1,1,1,1,,,,,,,,,,,,*48
$GPGSV,1,1,1,1,1,1,1,,,,,,,,,,,,*48
$GPGGA,000290,03018.2662,N,09743.9372,W,1,8,1.1,1.5,M,24.5,M,,0000*58
$GPGSA,A,3,,,,,,,,,,,,,0.000,0.000,0.000,*1e
$GPGSV,1,1,1,1,1,1,1,,,,,,,,,,,,*48
$GPGSV,1,1,1,1,1,1,1,,,,,,,,,,,,*48
$GPGGA,000291,03018.2667,N,09743.9369,W,1,8,1.1,1.5,M,24.5,M,,0000*56
$GPGSA,A,3,,,,,,,,,,,,,0.000,0.000,0.000,*1e
$GPGSV,1,1,1,1,1,1,1,,,,,,,,,,,,*48
$GPGSV,1,1,1,1,1,1,1,,,,,,,,,,,,*48
$GPGGA,000292,03018.2671,N,09743.9366,W,1,8,1.1,1.5,M,24.5,M,,0000*5d
$GPGSA,A,3,,,,,,,,,,,,,0.000,0.000,0.000,*1e
$GPGSV,1,1,1,1,1,1,1,,,,,,,,,,,,*48
$GPGSV,1,1,1,1,1,1,1,,,,,,,,,,,,*48
$GPGGA,000293,03018.2676,N,09743.9363,W,1,8,1.1,1.5,M,24.5,M,,0000*5e
$GPGSA,A,3,,,,,,,,,,,,,0.000,0.000,0.000,*1e
$GPGSV,1,1,1,1,1,1,1,,,,,,,,,,,,*48
$GPGSV,1,1,1,1,1,1,1,,,,,,,,,,,,*48
$GPGGA,000294,03018.2681,N,09743.9360,W,1,8,1.1,1.5,M,24.5,M,,0000*52
$GPGSA,A,3,,,,,,,,,,,,,0.000,0.000,0.000,*1e
$GPGSV,1,1,1,1,1,1,1,,,,,,,,,,,,*48
$GPGSV,1,1,1,1,1,1,1,,,,,,,,,,,,*48
$GPGGA,000295,03018.2685,N,09743.9357,W,1,8,1.1,1.5,M,24.5,M,,0000*53
$GPGSA,A,3,,,,,,,,,,,,,0.000,0.000,0.000,*1e
$GPGSV,1,1,1,1,1,1,1,,,,,,,,,,,,*48
$GPGSV,1,1,1,1,1,1,1,,,,,,,,,,,,*48
$GPGGA,000296,03018.2690,N,09743.9354,W,1,8,1.1,1.5,M,24.5,M,,0000*57
$GPGSA,A,3,,,,,,,,,,,,,0.000,0.000,0.000,*1e
$GPGSV,1,1,1,1,1,1,1,,,,,,,,,,,,*48
$GPGSV,1,1,1,1,1,1,1,,,,,,,,,,,,*48
$GPGGA,000297,03018.2695,N,09743.9351,W,1,8,1.1,1.5,M,24.5,M,,0000*56
$GPGSA,A,3,,,,,,,,,,,,,0.000,0.000,0.000,*1e
$GPGSV,1,1,1,1,1,1,1,,,,,,,,,,,,*48
$GPGSV,1,1,1,1,1,1,1,,,,,,,,,,,,*48
$GPGGA,000298,03018.2699,N,09743.9348,W,1,8,1.1,1.5,M,24.5,M,,0000*5d
$GPGSA,A,3,,,,,,,,,,,,,0.000,0.000,0.000,*1e
$GPGSV,1,1,1,1,1,1,1,,,,,,,,,,,,*48
$GPGSV,1,1,1,1,1,1,1,,,,,,,,,,,,*48
$GPGGA,000299,03018.2704,N,09743.9345,W,1,8,1.1,1.5,M,24.5,M,,0000*54
$GPGSA,A,3,,,,,,,,,,,,,0.000,0.000,0.000,*1e
$GPGSV,1,1,1,1,1,1,1,,,,,,,,,,,,*48
$GPGSV,1,1,1,1,1,1,1,,,,,,,,,,,,*48
$GPGGA,000300,03018.2708,N,09743.9343,W,1,8,1.1,1.5,M,24.5,M,,0000*5f
$GPGSA,A,3,,,,,,,,,,,,,0.000,0.000,0.000,*1e
$GPGSV,1,1,1,1,1,1,1,,,,,,,,,,,,*48
$GPGSV,1,1,1,1,1,1,1,,,,,,,,,,,,*48
$GPGGA,000301,03018.2713,N,09743.9340,W,1,8,1.1,1.5,M,24.5,M,,0000*57
$GPGSA,A,3,,,,,,,,,,,,,0.000,0.000,0.000,*1e
$GPGSV,1,1,1,1,1,1,1,,,,,,,,,,,,*48
$GPGSV,1,1,1,1,1,1,1,,,,,,,,,,,,*48
$GPGGA,000302,03018.2717,N,09743.9337,W,1,8,1.1,1.5,M,24.5,M,,0000*50
$GPGSA,A,3,,,,,,,,,,,,,0.000,0.000,0.000,*1e
$GPGSV,1,1,1,1,1,1,1,,,,,,,,,,,,*48
$GPGSV,1,1,1,1,1,1,1,,,,,,,,,,,,*48
$GPGGA,000303,03018.2722,N,09743.9334,W,1,8,1.1,1.5,M,24.5,M,,0000*54
$GPGSA,A,3,,,,,,,,,,,,,0.000,0.000,0.000,*1e
$GPGSV,1,1,1,1,1,1,1,,,,,,,,,,,,*48
$GPGSV,1,1,1,1,1,1,1,,,,,,,,,,,,*48
$GPGGA,000304,03018.2727,N,09743.9331,W,1,8,1.1,1.5,M,24.5,M,,0000*53
$GPGSA,A,3,,,,,,,,,,,,,0.000,0.000,0.000,*1e
$GPGSV,1,1,1,1,1,1,1,,,,,,,,,,,,*48
$GPGSV,1,1,1,1,1,1,1,,,,,,,,,,,,*48
$GPGGA,000305,03018.2731,N,09743.9328,W,1,8,1.1,1.5,M,24.5,M,,0000*5d
$GPGSA,A,3,,,,,,,,,,,,,0.000,0.000,0.000,*1e
$GPGSV,1,1,1,1,1,1,1,,,,,,,,,,,,*48
$GPGSV,1,1,1,1,1,1,1,,,,,,,,,,,,*48
$GPGGA,000306,03018.2736,N,09743.9325,W,1,8,1.1,1.5,M,24.5,M,,0000*54
$GPGSA,A,3,,,,,,,,,,,,,0.000,0.000,0.000,*1e
$GPGSV,1,1,1,1,1,1,1,,,,,,,,,,,,*48
$GPGSV,1,1,1,1,1,1,1,,,,,,,,,,,,*48
$GPGGA,000307,03018.2741,N,09743.9322,W,1,8,1.1,1.5,M,24.5,M,,0000*52
$GPGSA,A,3,,,,,,,,,,,,,0.000,0.000,0.000,*1e
$GPGSV,1,1,1,1,1,1,1,,,,,,,,,,,,*48
$GPGSV,1,1,1,1,1,1,1,,,,,,,,,,,,*48
$GPGGA,000308,03018.2746,N,09743.9319,W,1,8,1.1,1.5,M,24.5,M,,0000*52
$GPGSA,A,3,,,,,,,,,,,,,0.000,0.000,0.000,*1e
$GPGSV,1,1,1,1,1,1,1,,,,,,,,,,,,*48
$GPGSV,1,1,1,1,1,1,1,,,,,,,,,,,,*48
$GPGGA,000309,03018.2750,N,09743.9316,W,1,8,1.1,1.5,M,24.5,M,,0000*5b
$GPGSA,A,3,,,,,,,,,,,,,0.000,0.000,0.000,*1e
$GPGSV,1,1,1,1,1,1,1,,,,,,,,,,,,*48
$GPGSV,1,1,1,1,1,1,1,,,,,,,,,,,,*48
$GPGGA,000310,03018.2755,N,09743.9313,W,1,8,1.1,1.5,M,24.5,M,,0000*53
$GPGSA,A,3,,,,,,,,,,,,,0.000,0.000,0.000,*1e
$GPGSV,1,1,1,1,1,1,1,,,,,,,,,,,,*48
$GPGSV,1,1,1,1,1,1,1,,,,,,,,,,,,*48
$GPGGA,000311,03018.2759,N,09743.9310,W,1,8,1.1,1.5,M,24.5,M,,0000*5d
$GPGSA,A,3,,,,,,,,,,,,,0.000,0.000,0.000,*1e
$GPGSV,1,1,1,1,1,1,1,,,,,,,,,,,,*48
$GPGSV,1,1,1,1,1,1,1,,,,,,,,,,,,*48
$GPGGA,000312,03018.2764,N,09743.9307,W,1,8,1.1,1.5,M,24.5,M,,0000*56
$GPGSA,A,3,,,,,,,,,,,,,0.000,0.000,0.000,*1e
$GPGSV,1,1,1,1,1,1,1,,,,,,,,,,,,*48
$GPGSV,1,1,1,1,1,1,1,,,,,,,,,,,,*48
$GPGGA,000313,03018.2768,N,09743.9304,W,1,8,1.1,1.5,M,24.5,M,,0000*58
$GPGSA,A,3,,,,,,,,,,,,,0.000,0.000,0.000,*1e
$GPGSV,1,1,1,1,1,1,1,,,,,,,,,,,,*48
$GPGSV,1,1,1,1,1,1,1,,,,,,,,,,,,*48
$GPGGA,000314,03018.2773,N,09743.9301,W,1,8,1.1,1.5,M,24.5,M,,0000*50
$GPGSA,A,3,,,,,,,,,,,,,0.000,0.000,0.000,*1e
$GPGSV,1,1,1,1,1,1,1,,,,,,,,,,,,*48
$GPGSV,1,1,1,1,1,1,1,,,,,,,,,,,,*48
$GPGGA,000315,03018.2777,N,09743.9298,W,1,8,1.1,1.5,M,24.5,M,,0000*54
$GPGSA,A,3,,,,,,,,,,,,,0.000,0.000,0.000,*1e
$GPGSV,1,1,1,1,1,1,1,,,,,,,,,,,,*48
$GPGSV,1,1,1,1,1,1,1,,,,,,,,,,,,*48
$GPGGA,000316,03018.2782,N,09743.9296,W,1,8,1.1,1.5,M,24.5,M,,0000*53
$GPGSA,A,3,,,,,,,,,,,,,0.000,0.000,0.000,*1e
$GPGSV,1,1,1,1,1,1,1,,,,,,,,,,,,*48
$GPGSV,1,1,1,1,1,1,1,,,,,,,,,,,,*48
$GPGGA,000317,03018.2786,N,09743.9293,W,1,8,1.1,1.5,M,24.5,M,,0000*53
$GPGSA,A,3,,,,,,,,,,,,,0.000,0.000,0.000,*1e
$GPGSV,1,1,1,1,1,1,1,,,,,,,,,,,,*48
$GPGSV,1,1,1,1,1,1,1,,,,,,,,,,,,*48
$GPGGA,000318,03018.2791,N,09743.9290,W,1,8,1.1,1.5,M,24.5,M,,0000*59
$GPGSA,A,3,,,,,,,,,,,,,0.000,0.000,0.000,*1e
$GPGSV,1,1,1,1,1,1,1,,,,,,,,,,,,*48
$GPGSV,1,1,1,1,1,1,1,,,,,,,,,,,,*48
$GPGGA,000319,03018.2795,N,09743.9287,W,1,8,1.1,1.5,M,24.5,M,,0000*5a
$GPGSA,A,3,,,,,,,,,,,,,0.000,0.000,0.000,*1e
$GPGSV,1,1,1,1,1,1,1,,,,,,,,,,,,*48
$GPGSV,1,1,1,1,1,1,1,,,,,,,,,,,,*48
$GPGGA,000320,03018.2800,N,09743.9285,W,1,8,1.1,1.5,M,24.5,M,,0000*51
$GPGSA,A,3,,,,,,,,,,,,,0.000,0.000,0.000,*1e
$GPGSV,1,1,1,1,1,1,1,,,,,,,,,,,,*48
