$GPGGA,000000,03018.1559,N,09743.9101,W,1,8,1.1,200.0,M,24.5,M,,0000*5b
$GPGSA,A,3,,,,,,,,,,,,,0.000,0.000,0.000,*1e
$GPGSV,1,1,1,1,1,1,1,,,,,,,,,,,,*48
$GPGSV,1,1,1,1,1,1,1,,,,,,,,,,,,*48
$GPGGA,000001,03018.1491,N,09743.9033,W,1,8,1.1,200.0,M,24.5,M,,0000*5f
$GPGSA,A,3,,,,,,,,,,,,,0.000,0.000,0.000,*1e
$GPGSV,1,1,1,1,1,1,1,,,,,,,,,,,,*48
$GPGSV,1,1,1,1,1,1,1,,,,,,,,,,,,*48
$GPGGA,000002,03018.1415,N,09743.8976,W,1,8,1.1,200.0,M,24.5,M,,0000*59
$GPGSA,A,3,,,,,,,,,,,,,0.000,0.000,0.000,*1e
$GPGSV,1,1,1,1,1,1,1,,,,,,,,,,,,*48
$GPGSV,1,1,1,1,1,1,1,,,,,,,,,,,,*48
$GPGGA,000003,03018.1333,N,09743.8931,W,1,8,1.1,200.0,M,24.5,M,,0000*58
$GPGSA,A,3,,,,,,,,,,,,,0.000,0.000,0.000,*1e
$GPGSV,1,1,1,1,1,1,1,,,,,,,,,,,,*48
$GPGSV,1,1,1,1,1,1,1,,,,,,,,,,,,*48
$GPGGA,000004,03018.1246,N,09743.8901,W,1,8,1.1,200.0,M,24.5,M,,0000*5f
$GPGSA,A,3,,,,,,,,,,,,,0.000,0.000,0.000,*1e
$GPGSV,1,1,1,1,1,1,1,,,,,,,,,,,,*48
$GPGSV,1,1,1,1,1,1,1,,,,,,,,,,,,*48
$GPGGA,000005,03018.1157,N,09743.8884,W,1,8,1.1,200.0,M,24.5,M,,0000*51
$GPGSA,A,3,,,,,,,,,,,,,0.000,0.000,0.000,*1e
$GPGSV,1,1,1,1,1,1,1,,,,,,,,,,,,*48
$GPGSV,1,1,1,1,1,1,1,,,,,,,,,,,,*48
$GPGGA,000006,03018.1066,N,09743.8883,W,1,8,1.1,200.0,M,24.5,M,,0000*56
$GPGSA,A,3,,,,,,,,,,,,,0.000,0.000,0.000,*1e
$GPGSV,1,1,1,1,1,1,1,,,,,,,,,,,,*48
$GPGSV,1,1,1,1,1,1,1,,,,,,,,,,,,*48
$GPGGA,000007,03018.0976,N,09743.8895,W,1,8,1.1,200.0,M,24.5,M,,0000*59
$GPGSA,A,3,,,,,,,,,,,,,0.000,0.000,0.000,*1e
$GPGSV,1,1,1,1,1,1,1,,,,,,,,,,,,*48
$GPGSV,1,1,1,1,1,1,1,,,,,,,,,,,,*48
$GPGGA,000008,03018.0889,N,09743.8923,W,1,8,1.1,200.0,M,24.5,M,,0000*5b
$GPGSA,A,3,,,,,,,,,,,,,0.000,0.000,0.000,*1e
$GPGSV,1,1,1,1,1,1,1,,,,,,,,,,,,*48
$GPGSV,1,1,1,1,1,1,1,,,,,,,,,,,,*48
$GPGGA,000009,03018.0805,N,09743.8964,W,1,8,1.1,200.0,M,24.5,M,,0000*5d
$GPGSA,A,3,,,,,,,,,,,,,0.000,0.000,0.000,*1e
$GPGSV,1,1,1,1,1,1,1,,,,,,,,,,,,*48
$GPGSV,1,1,1,1,1,1,1,,,,,,,,,,,,*48
$GPGGA,000010,03018.0728,N,09743.9017,W,1,8,1.1,200.0,M,24.5,M,,0000*59
$GPGSA,A,3,,,,,,,,,,,,,0.000,0.000,0.000,*1e
$GPGSV,1,1,1,1,1,1,1,,,,,,,,,,,,*48
$GPGSV,1,1,1,1,1,1,1,,,,,,,,,,,,*48
$GPGGA,000011,03018.0658,N,09743.9083,W,1,8,1.1,200.0,M,24.5,M,,0000*53
$GPGSA,A,3,,,,,,,,,,,,,0.000,0.000,0.000,*1e
$GPGSV,1,1,1,1,1,1,1,,,,,,,,,,,,*48
$GPGSV,1,1,1,1,1,1,1,,,,,,,,,,,,*48
$GPGGA,000012,03018.0596,N,09743.9159,W,1,8,1.1,200.0,M,24.5,M,,0000*57
$GPGSA,A,3,,,,,,,,,,,,,0.000,0.000,0.000,*1e
$GPGSV,1,1,1,1,1,1,1,,,,,,,,,,,,*48
$GPGSV,1,1,1,1,1,1,1,,,,,,,,,,,,*48
$GPGGA,000013,03018.0544,N,09743.9245,W,1,8,1.1,200.0,M,24.5,M,,0000*57
$GPGSA,A,3,,,,,,,,,,,,,0.000,0.000,0.000,*1e
$GPGSV,1,1,1,1,1,1,1,,,,,,,,,,,,*48
$GPGSV,1,1,1,1,1,1,1,,,,,,,,,,,,*48
$GPGGA,000014,03018.0502,N,09743.9338,W,1,8,1.1,200.0,M,24.5,M,,0000*59
$GPGSA,A,3,,,,,,,,,,,,,0.000,0.000,0.000,*1e
$GPGSV,1,1,1,1,1,1,1,,,,,,,,,,,,*48
$GPGSV,1,1,1,1,1,1,1,,,,,,,,,,,,*48
$GPGGA,000015,03018.0478,N,09743.9433,W,1,8,1.1,200.0,M,24.5,M,,0000*58
$GPGSA,A,3,,,,,,,,,,,,,0.000,0.000,0.000,*1e
$GPGSV,1,1,1,1,1,1,1,,,,,,,,,,,,*48
$GPGSV,1,1,1,1,1,1,1,,,,,,,,,,,,*48
$GPGGA,000016,03018.0465,N,09743.9533,W,1,8,1.1,200.0,M,24.5,M,,0000*56
$GPGSA,A,3,,,,,,,,,,,,,0.000,0.000,0.000,*1e
$GPGSV,1,1,1,1,1,1,1,,,,,,,,,,,,*48
$GPGSV,1,1,1,1,1,1,1,,,,,,,,,,,,*48
$GPGGA,000017,03018.0465,N,09743.9634,W,1,8,1.1,200.0,M,24.5,M,,0000*53
$GPGSA,A,3,,,,,,,,,,,,,0.000,0.000,0.000,*1e
$GPGSV,1,1,1,1,1,1,1,,,,,,,,,,,,*48
$GPGSV,1,1,1,1,1,1,1,,,,,,,,,,,,*48
$GPGGA,000018,03018.0478,N,09743.9736,W,1,8,1.1,200.0,M,24.5,M,,0000*53
$GPGSA,A,3,,,,,,,,,,,,,0.000,0.000,0.000,*1e
$GPGSV,1,1,1,1,1,1,1,,,,,,,,,,,,*48
$GPGSV,1,1,1,1,1,1,1,,,,,,,,,,,,*48
$GPGGA,000019,03018.0503,N,09743.9834,W,1,8,1.1,200.0,M,24.5,M,,0000*52
$GPGSA,A,3,,,,,,,,,,,,,0.000,0.000,0.000,*1e
$GPGSV,1,1,1,1,1,1,1,,,,,,,,,,,,*48
$GPGSV,1,1,1,1,1,1,1,,,,,,,,,,,,*48
$GPGGA,000020,03018.0540,N,09743.9929,W,1,8,1.1,200.0,M,24.5,M,,0000*52
$GPGSA,A,3,,,,,,,,,,,,,0.000,0.000,0.000,*1e
$GPGSV,1,1,1,1,1,1,1,,,,,,,,,,,,*48
$GPGSV,1,1,1,1,1,1,1,,,,,,,,,,,,*48
$GPGGA,000021,03018.0589,N,09744.0017,W,1,8,1.1,200.0,M,24.5,M,,0000*5c
$GPGSA,A,3,,,,,,,,,,,,,0.000,0.000,0.000,*1e
$GPGSV,1,1,1,1,1,1,1,,,,,,,,,,,,*48
$GPGSV,1,1,1,1,1,1,1,,,,,,,,,,,,*48
$GPGGA,000022,03018.0648,N,09744.0098,W,1,8,1.1,200.0,M,24.5,M,,0000*56
$GPGSA,A,3,,,,,,,,,,,,,0.000,0.000,0.000,*1e
$GPGSV,1,1,1,1,1,1,1,,,,,,,,,,,,*48
$GPGSV,1,1,1,1,1,1,1,,,,,,,,,,,,*48
$GPGGA,000023,03018.0716,N,09744.0168,W,1,8,1.1,200.0,M,24.5,M,,0000*53
$GPGSA,A,3,,,,,,,,,,,,,0.000,0.000,0.000,*1e
$GPGSV,1,1,1,1,1,1,1,,,,,,,,,,,,*48
$GPGSV,1,1,1,1,1,1,1,,,,,,,,,,,,*48
$GPGGA,000024,03018.0794,N,09744.0228,W,1,8,1.1,200.0,M,24.5,M,,0000*59
$GPGSA,A,3,,,,,,,,,,,,,0.000,0.000,0.000,*1e
$GPGSV,1,1,1,1,1,1,1,,,,,,,,,,,,*48
$GPGSV,1,1,1,1,1,1,1,,,,,,,,,,,,*48
$GPGGA,000025,03018.0878,N,09744.0276,W,1,8,1.1,200.0,M,24.5,M,,0000*5e
$GPGSA,A,3,,,,,,,,,,,,,0.000,0.000,0.000,*1e
$GPGSV,1,1,1,1,1,1,1,,,,,,,,,,,,*48
$GPGSV,1,1,1,1,1,1,1,,,,,,,,,,,,*48
$GPGGA,000026,03018.0967,N,09744.0311,W,1,8,1.1,200.0,M,24.5,M,,0000*52
$GPGSA,A,3,,,,,,,,,,,,,0.000,0.000,0.000,*1e
$GPGSV,1,1,1,1,1,1,1,,,,,,,,,,,,*48
$GPGSV,1,1,1,1,1,1,1,,,,,,,,,,,,*48
$GPGGA,000027,03018.1060,N,09744.0332,W,1,8,1.1,200.0,M,24.5,M,,0000*5d
$GPGSA,A,3,,,,,,,,,,,,,0.000,0.000,0.000,*1e
$GPGSV,1,1,1,1,1,1,1,,,,,,,,,,,,*48
$GPGSV,1,1,1,1,1,1,1,,,,,,,,,,,,*48
$GPGGA,000028,03018.1155,N,09744.0338,W,1,8,1.1,200.0,M,24.5,M,,0000*5f
$GPGSA,A,3,,,,,,,,,,,,,0.000,0.000,0.000,*1e
$GPGSV,1,1,1,1,1,1,1,,,,,,,,,,,,*48
$GPGSV,1,1,1,1,1,1,1,,,,,,,,,,,,*48
$GPGGA,000029,03018.1250,N,09744.0329,W,1,8,1.1,200.0,M,24.5,M,,0000*58
$GPGSA,A,3,,,,,,,,,,,,,0.000,0.000,0.000,*1e
$GPGSV,1,1,1,1,1,1,1,,,,,,,,,,,,*48
$GPGSV,1,1,1,1,1,1,1,,,,,,,,,,,,*48
$GPGGA,000030,03018.1343,N,09744.0306,W,1,8,1.1,200.0,M,24.5,M,,0000*5e
$GPGSA,A,3,,,,,,,,,,,,,0.000,0.000,0.000,*1e
$GPGSV,1,1,1,1,1,1,1,,,,,,,,,,,,*48
$GPGSV,1,1,1,1,1,1,1,,,,,,,,,,,,*48
$GPGGA,000031,03018.1434,N,09744.0269,W,1,8,1.1,200.0,M,24.5,M,,0000*50
$GPGSA,A,3,,,,,,,,,,,,,0.000,0.000,0.000,*1e
$GPGSV,1,1,1,1,1,1,1,,,,,,,,,,,,*48
$GPGSV,1,1,1,1,1,1,1,,,,,,,,,,,,*48
$GPGGA,000032,03018.1519,N,09744.0219,W,1,8,1.1,200.0,M,24.5,M,,0000*5a
$GPGSA,A,3,,,,,,,,,,,,,0.000,0.000,0.000,*1e
$GPGSV,1,1,1,1,1,1,1,,,,,,,,,,,,*48
$GPGSV,1,1,1,1,1,1,1,,,,,,,,,,,,*48
$GPGGA,000033,03018.1598,N,09744.0156,W,1,8,1.1,200.0,M,24.5,M,,0000*5a
$GPGSA,A,3,,,,,,,,,,,,,0.000,0.000,0.000,*1e
$GPGSV,1,1,1,1,1,1,1,,,,,,,,,,,,*48
$GPGSV,1,1,1,1,1,1,1,,,,,,,,,,,,*48
$GPGGA,000034,03018.1669,N,09744.0082,W,1,8,1.1,200.0,M,24.5,M,,0000*58
$GPGSA,A,3,,,,,,,,,,,,,0.000,0.000,0.000,*1e
$GPGSV,1,1,1,1,1,1,1,,,,,,,,,,,,*48
$GPGSV,1,1,1,1,1,1,1,,,,,,,,,,,,*48
$GPGGA,000035,03018.1731,N,09743.9998,W,1,8,1.1,200.0,M,24.5,M,,0000*59
$GPGSA,A,3,,,,,,,,,,,,,0.000,0.000,0.000,*1e
$GPGSV,1,1,1,1,1,1,1,,,,,,,,,,,,*48
$GPGSV,1,1,1,1,1,1,1,,,,,,,,,,,,*48
$GPGGA,000036,03018.1783,N,09743.9906,W,1,8,1.1,200.0,M,24.5,M,,0000*54
$GPGSA,A,3,,,,,,,,,,,,,0.000,0.000,0.000,*1e
$GPGSV,1,1,1,1,1,1,1,,,,,,,,,,,,*48
$GPGSV,1,1,1,1,1,1,1,,,,,,,,,,,,*48
$GPGGA,000037,03018.1823,N,09743.9807,W,1,8,1.1,200.0,M,24.5,M,,0000*50
$GPGSA,A,3,,,,,,,,,,,,,0.000,0.000,0.000,*1e
$GPGSV,1,1,1,1,1,1,1,,,,,,,,,,,,*48
$GPGSV,1,1,1,1,1,1,1,,,,,,,,,,,,*48
$GPGGA,000038,03018.1851,N,09743.9703,W,1,8,1.1,200.0,M,24.5,M,,0000*51
$GPGSA,A,3,,,,,,,,,,,,,0.000,0.000,0.000,*1e
$GPGSV,1,1,1,1,1,1,1,,,,,,,,,,,,*48
$GPGSV,1,1,1,1,1,1,1,,,,,,,,,,,,*48
$GPGGA,000039,03018.1867,N,09743.9596,W,1,8,1.1,200.0,M,24.5,M,,0000*5b
$GPGSA,A,3,,,,,,,,,,,,,0.000,0.000,0.000,*1e
$GPGSV,1,1,1,1,1,1,1,,,,,,,,,,,,*48
$GPGSV,1,1,1,1,1,1,1,,,,,,,,,,,,*48
$GPGGA,000040,03018.1870,N,09743.9489,W,1,8,1.1,200.0,M,24.5,M,,0000*5c
$GPGSA,A,3,,,,,,,,,,,,,0.000,0.000,0.000,*1e
$GPGSV,1,1,1,1,1,1,1,,,,,,,,,,,,*48
$GPGSV,1,1,1,1,1,1,1,,,,,,,,,,,,*48
$GPGGA,000041,03018.1860,N,09743.9382,W,1,8,1.1,200.0,M,24.5,M,,0000*50
$GPGSA,A,3,,,,,,,,,,,,,0.000,0.000,0.000,*1e
$GPGSV,1,1,1,1,1,1,1,,,,,,,,,,,,*48
$GPGSV,1,1,1,1,1,1,1,,,,,,,,,,,,*48
$GPGGA,000042,03018.1838,N,09743.9280,W,1,8,1.1,200.0,M,24.5,M,,0000*5d
$GPGSA,A,3,,,,,,,,,,,,,0.000,0.000,0.000,*1e
$GPGSV,1,1,1,1,1,1,1,,,,,,,,,,,,*48
$GPGSV,1,1,1,1,1,1,1,,,,,,,,,,,,*48
$GPGGA,000043,03018.1805,N,09743.9182,W,1,8,1.1,200.0,M,24.5,M,,0000*53
$GPGSA,A,3,,,,,,,,,,,,,0.000,0.000,0.000,*1e
$GPGSV,1,1,1,1,1,1,1,,,,,,,,,,,,*48
$GPGSV,1,1,1,1,1,1,1,,,,,,,,,,,,*48
$GPGGA,000044,03018.1760,N,09743.9091,W,1,8,1.1,200.0,M,24.5,M,,0000*5b
$GPGSA,A,3,,,,,,,,,,,,,0.000,0.000,0.000,*1e
$GPGSV,1,1,1,1,1,1,1,,,,,,,,,,,,*48
$GPGSV,1,1,1,1,1,1,1,,,,,,,,,,,,*48
$GPGGA,000045,03018.1705,N,09743.9010,W,1,8,1.1,200.0,M,24.5,M,,0000*50
$GPGSA,A,3,,,,,,,,,,,,,0.000,0.000,0.000,*1e
$GPGSV,1,1,1,1,1,1,1,,,,,,,,,,,,*48
$GPGSV,1,1,1,1,1,1,1,,,,,,,,,,,,*48
$GPGGA,000046,03018.1642,N,09743.8938,W,1,8,1.1,200.0,M,24.5,M,,0000*53
$GPGSA,A,3,,,,,,,,,,,,,0.000,0.000,0.000,*1e
$GPGSV,1,1,1,1,1,1,1,,,,,,,,,,,,*48
$GPGSV,1,1,1,1,1,1,1,,,,,,,,,,,,*48
$GPGGA,000047,03018.1570,N,09743.8878,W,1,8,1.1,200.0,M,24.5,M,,0000*55
$GPGSA,A,3,,,,,,,,,,,,,0.000,0.000,0.000,*1e
$GPGSV,1,1,1,1,1,1,1,,,,,,,,,,,,*48
$GPGSV,1,1,1,1,1,1,1,,,,,,,,,,,,*48
$GPGGA,000048,03018.1493,N,09743.8832,W,1,8,1.1,200.0,M,24.5,M,,0000*58
$GPGSA,A,3,,,,,,,,,,,,,0.000,0.000,0.000,*1e
$GPGSV,1,1,1,1,1,1,1,,,,,,,,,,,,*48
$GPGSV,1,1,1,1,1,1,1,,,,,,,,,,,,*48
$GPGGA,000049,03018.1411,N,09743.8798,W,1,8,1.1,200.0,M,24.5,M,,0000*5c
$GPGSA,A,3,,,,,,,,,,,,,0.000,0.000,0.000,*1e
$GPGSV,1,1,1,1,1,1,1,,,,,,,,,,,,*48
$GPGSV,1,1,1,1,1,1,1,,,,,,,,,,,,*48
$GPGGA,000050,03018.1326,N,09743.8779,W,1,8,1.1,200.0,M,24.5,M,,0000*58
$GPGSA,A,3,,,,,,,,,,,,,0.000,0.000,0.000,*1e
$GPGSV,1,1,1,1,1,1,1,,,,,,,,,,,,*48
$GPGSV,1,1,1,1,1,1,1,,,,,,,,,,,,*48
$GPGGA,000051,03018.1240,N,09743.8774,W,1,8,1.1,200.0,M,24.5,M,,0000*55
$GPGSA,A,3,,,,,,,,,,,,,0.000,0.000,0.000,*1e
$GPGSV,1,1,1,1,1,1,1,,,,,,,,,,,,*48
$GPGSV,1,1,1,1,1,1,1,,,,,,,,,,,,*48
$GPGGA,000052,03018.1155,N,09743.8784,W,1,8,1.1,200.0,M,24.5,M,,0000*5e
$GPGSA,A,3,,,,,,,,,,,,,0.000,0.000,0.000,*1e
$GPGSV,1,1,1,1,1,1,1,,,,,,,,,,,,*48
$GPGSV,1,1,1,1,1,1,1,,,,,,,,,,,,*48
$GPGGA,000053,03018.1072,N,09743.8808,W,1,8,1.1,200.0,M,24.5,M,,0000*50
$GPGSA,A,3,,,,,,,,,,,,,0.000,0.000,0.000,*1e
$GPGSV,1,1,1,1,1,1,1,,,,,,,,,,,,*48
$GPGSV,1,1,1,1,1,1,1,,,,,,,,,,,,*48
$GPGGA,000054,03018.0994,N,09743.8846,W,1,8,1.1,200.0,M,24.5,M,,0000*5d
$GPGSA,A,3,,,,,,,,,,,,,0.000,0.000,0.000,*1e
$GPGSV,1,1,1,1,1,1,1,,,,,,,,,,,,*48
$GPGSV,1,1,1,1,1,1,1,,,,,,,,,,,,*48
$GPGGA,000055,03018.0920,N,09743.8897,W,1,8,1.1,200.0,M,24.5,M,,0000*5f
$GPGSA,A,3,,,,,,,,,,,,,0.000,0.000,0.000,*1e
$GPGSV,1,1,1,1,1,1,1,,,,,,,,,,,,*48
$GPGSV,1,1,1,1,1,1,1,,,,,,,,,,,,*48
$GPGGA,000056,03018.0855,N,09743.8959,W,1,8,1.1,200.0,M,24.5,M,,0000*5c
$GPGSA,A,3,,,,,,,,,,,,,0.000,0.000,0.000,*1e
$GPGSV,1,1,1,1,1,1,1,,,,,,,,,,,,*48
$GPGSV,1,1,1,1,1,1,1,,,,,,,,,,,,*48
$GPGGA,000057,03018.0798,N,09743.9033,W,1,8,1.1,200.0,M,24.5,M,,0000*57
$GPGSA,A,3,,,,,,,,,,,,,0.000,0.000,0.000,*1e
$GPGSV,1,1,1,1,1,1,1,,,,,,,,,,,,*48
$GPGSV,1,1,1,1,1,1,1,,,,,,,,,,,,*48
$GPGGA,000058,03018.0751,N,09743.9115,W,1,8,1.1,200.0,M,24.5,M,,0000*58
$GPGSA,A,3,,,,,,,,,,,,,0.000,0.000,0.000,*1e
$GPGSV,1,1,1,1,1,1,1,,,,,,,,,,,,*48
$GPGSV,1,1,1,1,1,1,1,,,,,,,,,,,,*48
$GPGGA,000059,03018.0714,N,09743.9205,W,1,8,1.1,200.0,M,24.5,M,,0000*5a
$GPGSA,A,3,,,,,,,,,,,,,0.000,0.000,0.000,*1e
$GPGSV,1,1,1,1,1,1,1,,,,,,,,,,,,*48
$GPGSV,1,1,1,1,1,1,1,,,,,,,,,,,,*48
$GPGGA,000060,03018.0689,N,09743.9301,W,1,8,1.1,200.0,M,24.5,M,,0000*50
$GPGSA,A,3,,,,,,,,,,,,,0.000,0.000,0.000,*1e
$GPGSV,1,1,1,1,1,1,1,,,,,,,,,,,,*48
$GPGSV,1,1,1,1,1,1,1,,,,,,,,,,,,*48
$GPGGA,000061,03018.0677,N,09743.9401,W,1,8,1.1,200.0,M,24.5,M,,0000*57
$GPGSA,A,3,,,,,,,,,,,,,0.000,0.000,0.000,*1e
$GPGSV,1,1,1,1,1,1,1,,,,,,,,,,,,*48
$GPGSV,1,1,1,1,1,1,1,,,,,,,,,,,,*48
$GPGGA,000062,03018.0677,N,09743.9502,W,1,8,1.1,200.0,M,24.5,M,,0000*56
$GPGSA,A,3,,,,,,,,,,,,,0.000,0.000,0.000,*1e
$GPGSV,1,1,1,1,1,1,1,,,,,,,,,,,,*48
$GPGSV,1,1,1,1,1,1,1,,,,,,,,,,,,*48
$GPGGA,000063,03018.0689,N,09743.9603,W,1,8,1.1,200.0,M,24.5,M,,0000*54
$GPGSA,A,3,,,,,,,,,,,,,0.000,0.000,0.000,*1e
$GPGSV,1,1,1,1,1,1,1,,,,,,,,,,,,*48
$GPGSV,1,1,1,1,1,1,1,,,,,,,,,,,,*48
$GPGGA,000064,03018.0715,N,09743.9702,W,1,8,1.1,200.0,M,24.5,M,,0000*57
$GPGSA,A,3,,,,,,,,,,,,,0.000,0.000,0.000,*1e
$GPGSV,1,1,1,1,1,1,1,,,,,,,,,,,,*48
$GPGSV,1,1,1,1,1,1,1,,,,,,,,,,,,*48
$GPGGA,000065,03018.0752,N,09743.9797,W,1,8,1.1,200.0,M,24.5,M,,0000*59
$GPGSA,A,3,,,,,,,,,,,,,0.000,0.000,0.000,*1e
$GPGSV,1,1,1,1,1,1,1,,,,,,,,,,,,*48
$GPGSV,1,1,1,1,1,1,1,,,,,,,,,,,,*48
$GPGGA,000066,03018.0800,N,09743.9885,W,1,8,1.1,200.0,M,24.5,M,,0000*5e
$GPGSA,A,3,,,,,,,,,,,,,0.000,0.000,0.000,*1e
$GPGSV,1,1,1,1,1,1,1,,,,,,,,,,,,*48
$GPGSV,1,1,1,1,1,1,1,,,,,,,,,,,,*48
$GPGGA,000067,03018.0859,N,09743.9966,W,1,8,1.1,200.0,M,24.5,M,,0000*5f
$GPGSA,A,3,,,,,,,,,,,,,0.000,0.000,0.000,*1e
$GPGSV,1,1,1,1,1,1,1,,,,,,,,,,,,*48
$GPGSV,1,1,1,1,1,1,1,,,,,,,,,,,,*48
$GPGGA,000068,03018.0928,N,09744.0036,W,1,8,1.1,200.0,M,24.5,M,,0000*55
$GPGSA,A,3,,,,,,,,,,,,,0.000,0.000,0.000,*1e
$GPGSV,1,1,1,1,1,1,1,,,,,,,,,,,,*48
$GPGSV,1,1,1,1,1,1,1,,,,,,,,,,,,*48
$GPGGA,000069,03018.1005,N,09744.0096,W,1,8,1.1,200.0,M,24.5,M,,0000*59
$GPGSA,A,3,,,,,,,,,,,,,0.000,0.000,0.000,*1e
$GPGSV,1,1,1,1,1,1,1,,,,,,,,,,,,*48
$GPGSV,1,1,1,1,1,1,1,,,,,,,,,,,,*48
$GPGGA,000070,03018.1089,N,09744.0144,W,1,8,1.1,200.0,M,24.5,M,,0000*5b
$GPGSA,A,3,,,,,,,,,,,,,0.000,0.000,0.000,*1e
$GPGSV,1,1,1,1,1,1,1,,,,,,,,,,,,*48
$GPGSV,1,1,1,1,1,1,1,,,,,,,,,,,,*48
$GPGGA,000071,03018.1178,N,09744.0179,W,1,8,1.1,200.0,M,24.5,M,,0000*5b
$GPGSA,A,3,,,,,,,,,,,,,0.000,0.000,0.000,*1e
$GPGSV,1,1,1,1,1,1,1,,,,,,,,,,,,*48
$GPGSV,1,1,1,1,1,1,1,,,,,,,,,,,,*48
$GPGGA,000072,03018.1271,N,09744.0199,W,1,8,1.1,200.0,M,24.5,M,,0000*5c
$GPGSA,A,3,,,,,,,,,,,,,0.000,0.000,0.000,*1e
$GPGSV,1,1,1,1,1,1,1,,,,,,,,,,,,*48
$GPGSV,1,1,1,1,1,1,1,,,,,,,,,,,,*48
$GPGGA,000073,03018.1366,N,09744.0206,W,1,8,1.1,200.0,M,24.5,M,,0000*5f
$GPGSA,A,3,,,,,,,,,,,,,0.000,0.000,0.000,*1e
$GPGSV,1,1,1,1,1,1,1,,,,,,,,,,,,*48
$GPGSV,1,1,1,1,1,1,1,,,,,,,,,,,,*48
$GPGGA,000074,03018.1462,N,09744.0197,W,1,8,1.1,200.0,M,24.5,M,,0000*50
$GPGSA,A,3,,,,,,,,,,,,,0.000,0.000,0.000,*1e
$GPGSV,1,1,1,1,1,1,1,,,,,,,,,,,,*48
$GPGSV,1,1,1,1,1,1,1,,,,,,,,,,,,*48
$GPGGA,000075,03018.1555,N,09744.0174,W,1,8,1.1,200.0,M,24.5,M,,0000*59
$GPGSA,A,3,,,,,,,,,,,,,0.000,0.000,0.000,*1e
$GPGSV,1,1,1,1,1,1,1,,,,,,,,,,,,*48
$GPGSV,1,1,1,1,1,1,1,,,,,,,,,,,,*48
$GPGGA,000076,03018.1646,N,09744.0137,W,1,8,1.1,200.0,M,24.5,M,,0000*5c
$GPGSA,A,3,,,,,,,,,,,,,0.000,0.000,0.000,*1e
$GPGSV,1,1,1,1,1,1,1,,,,,,,,,,,,*48
$GPGSV,1,1,1,1,1,1,1,,,,,,,,,,,,*48
$GPGGA,000077,03018.1731,N,09744.0087,W,1,8,1.1,200.0,M,24.5,M,,0000*56
$GPGSA,A,3,,,,,,,,,,,,,0.000,0.000,0.000,*1e
$GPGSV,1,1,1,1,1,1,1,,,,,,,,,,,,*48
$GPGSV,1,1,1,1,1,1,1,,,,,,,,,,,,*48
$GPGGA,000078,03018.1810,N,09744.0024,W,1,8,1.1,200.0,M,24.5,M,,0000*5c
$GPGSA,A,3,,,,,,,,,,,,,0.000,0.000,0.000,*1e
$GPGSV,1,1,1,1,1,1,1,,,,,,,,,,,,*48
$GPGSV,1,1,1,1,1,1,1,,,,,,,,,,,,*48
$GPGGA,000079,03018.1881,N,09743.9950,W,1,8,1.1,200.0,M,24.5,M,,0000*51
$GPGSA,A,3,,,,,,,,,,,,,0.000,0.000,0.000,*1e
$GPGSV,1,1,1,1,1,1,1,,,,,,,,,,,,*48
$GPGSV,1,1,1,1,1,1,1,,,,,,,,,,,,*48
$GPGGA,000080,03018.1943,N,09743.9866,W,1,8,1.1,200.0,M,24.5,M,,0000*5c
$GPGSA,A,3,,,,,,,,,,,,,0.000,0.000,0.000,*1e
$GPGSV,1,1,1,1,1,1,1,,,,,,,,,,,,*48
$GPGSV,1,1,1,1,1,1,1,,,,,,,,,,,,*48
$GPGGA,000081,03018.1994,N,09743.9774,W,1,8,1.1,200.0,M,24.5,M,,0000*5b
$GPGSA,A,3,,,,,,,,,,,,,0.000,0.000,0.000,*1e
$GPGSV,1,1,1,1,1,1,1,,,,,,,,,,,,*48
$GPGSV,1,1,1,1,1,1,1,,,,,,,,,,,,*48
$GPGGA,000082,03018.2034,N,09743.9674,W,1,8,1.1,200.0,M,24.5,M,,0000*59
$GPGSA,A,3,,,,,,,,,,,,,0.000,0.000,0.000,*1e
$GPGSV,1,1,1,1,1,1,1,,,,,,,,,,,,*48
$GPGSV,1,1,1,1,1,1,1,,,,,,,,,,,,*48
$GPGGA,000083,03018.2062,N,09743.9570,W,1,8,1.1,200.0,M,24.5,M,,0000*5c
$GPGSA,A,3,,,,,,,,,,,,,0.000,0.000,0.000,*1e
$GPGSV,1,1,1,1,1,1,1,,,,,,,,,,,,*48
$GPGSV,1,1,1,1,1,1,1,,,,,,,,,,,,*48
$GPGGA,000084,03018.2078,N,09743.9464,W,1,8,1.1,200.0,M,24.5,M,,0000*54
$GPGSA,A,3,,,,,,,,,,,,,0.000,0.000,0.000,*1e
$GPGSV,1,1,1,1,1,1,1,,,,,,,,,,,,*48
$GPGSV,1,1,1,1,1,1,1,,,,,,,,,,,,*48
$GPGGA,000085,03018.2081,N,09743.9357,W,1,8,1.1,200.0,M,24.5,M,,0000*54
$GPGSA,A,3,,,,,,,,,,,,,0.000,0.000,0.000,*1e
$GPGSV,1,1,1,1,1,1,1,,,,,,,,,,,,*48
$GPGSV,1,1,1,1,1,1,1,,,,,,,,,,,,*48
$GPGGA,000086,03018.2072,N,09743.9250,W,1,8,1.1,200.0,M,24.5,M,,0000*5d
$GPGSA,A,3,,,,,,,,,,,,,0.000,0.000,0.000,*1e
$GPGSV,1,1,1,1,1,1,1,,,,,,,,,,,,*48
$GPGSV,1,1,1,1,1,1,1,,,,,,,,,,,,*48
$GPGGA,000087,03018.2050,N,09743.9148,W,1,8,1.1,200.0,M,24.5,M,,0000*56
$GPGSA,A,3,,,,,,,,,,,,,0.000,0.000,0.000,*1e
$GPGSV,1,1,1,1,1,1,1,,,,,,,,,,,,*48
$GPGSV,1,1,1,1,1,1,1,,,,,,,,,,,,*48
$GPGGA,000088,03018.2017,N,09743.9050,W,1,8,1.1,200.0,M,24.5,M,,0000*52
$GPGSA,A,3,,,,,,,,,,,,,0.000,0.000,0.000,*1e
$GPGSV,1,1,1,1,1,1,1,,,,,,,,,,,,*48
$GPGSV,1,1,1,1,1,1,1,,,,,,,,,,,,*48
$GPGGA,000089,03018.1972,N,09743.8959,W,1,8,1.1,200.0,M,24.5,M,,0000*5b
$GPGSA,A,3,,,,,,,,,,,,,0.000,0.000,0.000,*1e
$GPGSV,1,1,1,1,1,1,1,,,,,,,,,,,,*48
$GPGSV,1,1,1,1,1,1,1,,,,,,,,,,,,*48
$GPGGA,000090,03018.1917,N,09743.8878,W,1,8,1.1,200.0,M,24.5,M,,0000*52
$GPGSA,A,3,,,,,,,,,,,,,0.000,0.000,0.000,*1e
$GPGSV,1,1,1,1,1,1,1,,,,,,,,,,,,*48
$GPGSV,1,1,1,1,1,1,1,,,,,,,,,,,,*48
$GPGGA,000091,03018.1853,N,09743.8806,W,1,8,1.1,200.0,M,24.5,M,,0000*5b
$GPGSA,A,3,,,,,,,,,,,,,0.000,0.000,0.000,*1e
$GPGSV,1,1,1,1,1,1,1,,,,,,,,,,,,*48
$GPGSV,1,1,1,1,1,1,1,,,,,,,,,,,,*48
$GPGGA,000092,03018.1782,N,09743.8746,W,1,8,1.1,200.0,M,24.5,M,,0000*50
$GPGSA,A,3,,,,,,,,,,,,,0.000,0.000,0.000,*1e
$GPGSV,1,1,1,1,1,1,1,,,,,,,,,,,,*48
$GPGSV,1,1,1,1,1,1,1,,,,,,,,,,,,*48
$GPGGA,000093,03018.1705,N,09743.8700,W,1,8,1.1,200.0,M,24.5,M,,0000*5c
$GPGSA,A,3,,,,,,,,,,,,,0.000,0.000,0.000,*1e
$GPGSV,1,1,1,1,1,1,1,,,,,,,,,,,,*48
$GPGSV,1,1,1,1,1,1,1,,,,,,,,,,,,*48
$GPGGA,000094,03018.1622,N,09743.8666,W,1,8,1.1,200.0,M,24.5,M,,0000*5e
$GPGSA,A,3,,,,,,,,,,,,,0.000,0.000,0.000,*1e
$GPGSV,1,1,1,1,1,1,1,,,,,,,,,,,,*48
$GPGSV,1,1,1,1,1,1,1,,,,,,,,,,,,*48
$GPGGA,000095,03018.1538,N,09743.8647,W,1,8,1.1,200.0,M,24.5,M,,0000*54
$GPGSA,A,3,,,,,,,,,,,,,0.000,0.000,0.000,*1e
$GPGSV,1,1,1,1,1,1,1,,,,,,,,,,,,*48
$GPGSV,1,1,1,1,1,1,1,,,,,,,,,,,,*48
$GPGGA,000096,03018.1452,N,09743.8642,W,1,8,1.1,200.0,M,24.5,M,,0000*5f
$GPGSA,A,3,,,,,,,,,,,,,0.000,0.000,0.000,*1e
$GPGSV,1,1,1,1,1,1,1,,,,,,,,,,,,*48
$GPGSV,1,1,1,1,1,1,1,,,,,,,,,,,,*48
$GPGGA,000097,03018.1367,N,09743.8652,W,1,8,1.1,200.0,M,24.5,M,,0000*5e
$GPGSA,A,3,,,,,,,,,,,,,0.000,0.000,0.000,*1e
$GPGSV,1,1,1,1,1,1,1,,,,,,,,,,,,*48
$GPGSV,1,1,1,1,1,1,1,,,,,,,,,,,,*48
$GPGGA,000098,03018.1284,N,09743.8676,W,1,8,1.1,200.0,M,24.5,M,,0000*5b
$GPGSA,A,3,,,,,,,,,,,,,0.000,0.000,0.000,*1e
$GPGSV,1,1,1,1,1,1,1,,,,,,,,,,,,*48
$GPGSV,1,1,1,1,1,1,1,,,,,,,,,,,,*48
$GPGGA,000099,03018.1205,N,09743.8714,W,1,8,1.1,200.0,M,24.5,M,,0000*56
$GPGSA,A,3,,,,,,,,,,,,,0.000,0.000,0.000,*1e
$GPGSV,1,1,1,1,1,1,1,,,,,,,,,,,,*48
$GPGSV,1,1,1,1,1,1,1,,,,,,,,,,,,*48
$GPGGA,000100,03018.1132,N,09743.8764,W,1,8,1.1,200.0,M,24.5,M,,0000*57
$GPGSA,A,3,,,,,,,,,,,,,0.000,0.000,0.000,*1e
$GPGSV,1,1,1,1,1,1,1,,,,,,,,,,,,*48
$GPGSV,1,1,1,1,1,1,1,,,,,,,,,,,,*48
$GPGGA,000101,03018.1067,N,09743.8827,W,1,8,1.1,200.0,M,24.5,M,,0000*5f
$GPGSA,A,3,,,,,,,,,,,,,0.000,0.000,0.000,*1e
$GPGSV,1,1,1,1,1,1,1,,,,,,,,,,,,*48
$GPGSV,1,1,1,1,1,1,1,,,,,,,,,,,,*48
$GPGGA,000102,03018.1009,N,09743.8901,W,1,8,1.1,200.0,M,24.5,M,,0000*51
$GPGSA,A,3,,,,,,,,,,,,,0.000,0.000,0.000,*1e
$GPGSV,1,1,1,1,1,1,1,,,,,,,,,,,,*48
$GPGSV,1,1,1,1,1,1,1,,,,,,,,,,,,*48
$GPGGA,000103,03018.0962,N,09743.8983,W,1,8,1.1,200.0,M,24.5,M,,0000*5f
$GPGSA,A,3,,,,,,,,,,,,,0.000,0.000,0.000,*1e
$GPGSV,1,1,1,1,1,1,1,,,,,,,,,,,,*48
$GPGSV,1,1,1,1,1,1,1,,,,,,,,,,,,*48
$GPGGA,000104,03018.0926,N,09743.9073,W,1,8,1.1,200.0,M,24.5,M,,0000*5f
$GPGSA,A,3,,,,,,,,,,,,,0.000,0.000,0.000,*1e
$GPGSV,1,1,1,1,1,1,1,,,,,,,,,,,,*48
$GPGSV,1,1,1,1,1,1,1,,,,,,,,,,,,*48
$GPGGA,000105,03018.0901,N,09743.9169,W,1,8,1.1,200.0,M,24.5,M,,0000*51
$GPGSA,A,3,,,,,,,,,,,,,0.000,0.000,0.000,*1e
$GPGSV,1,1,1,1,1,1,1,,,,,,,,,,,,*48
$GPGSV,1,1,1,1,1,1,1,,,,,,,,,,,,*48
$GPGGA,000106,03018.0889,N,09743.9269,W,1,8,1.1,200.0,M,24.5,M,,0000*50
$GPGSA,A,3,,,,,,,,,,,,,0.000,0.000,0.000,*1e
$GPGSV,1,1,1,1,1,1,1,,,,,,,,,,,,*48
$GPGSV,1,1,1,1,1,1,1,,,,,,,,,,,,*48
$GPGGA,000107,03018.0889,N,09743.9370,W,1,8,1.1,200.0,M,24.5,M,,0000*58
$GPGSA,A,3,,,,,,,,,,,,,0.000,0.000,0.000,*1e
$GPGSV,1,1,1,1,1,1,1,,,,,,,,,,,,*48
$GPGSV,1,1,1,1,1,1,1,,,,,,,,,,,,*48
$GPGGA,000108,03018.0901,N,09743.9471,W,1,8,1.1,200.0,M,24.5,M,,0000*50
$GPGSA,A,3,,,,,,,,,,,,,0.000,0.000,0.000,*1e
$GPGSV,1,1,1,1,1,1,1,,,,,,,,,,,,*48
$GPGSV,1,1,1,1,1,1,1,,,,,,,,,,,,*48
$GPGGA,000109,03018.0926,N,09743.9570,W,1,8,1.1,200.0,M,24.5,M,,0000*54
$GPGSA,A,3,,,,,,,,,,,,,0.000,0.000,0.000,*1e
$GPGSV,1,1,1,1,1,1,1,,,,,,,,,,,,*48
$GPGSV,1,1,1,1,1,1,1,,,,,,,,,,,,*48
$GPGGA,000110,03018.0963,N,09743.9665,W,1,8,1.1,200.0,M,24.5,M,,0000*5a
$GPGSA,A,3,,,,,,,,,,,,,0.000,0.000,0.000,*1e
$GPGSV,1,1,1,1,1,1,1,,,,,,,,,,,,*48
$GPGSV,1,1,1,1,1,1,1,,,,,,,,,,,,*48
$GPGGA,000111,03018.1012,N,09743.9753,W,1,8,1.1,200.0,M,24.5,M,,0000*51
$GPGSA,A,3,,,,,,,,,,,,,0.000,0.000,0.000,*1e
$GPGSV,1,1,1,1,1,1,1,,,,,,,,,,,,*48
$GPGSV,1,1,1,1,1,1,1,,,,,,,,,,,,*48
$GPGGA,000112,03018.1071,N,09743.9834,W,1,8,1.1,200.0,M,24.5,M,,0000*59
$GPGSA,A,3,,,,,,,,,,,,,0.000,0.000,0.000,*1e
$GPGSV,1,1,1,1,1,1,1,,,,,,,,,,,,*48
$GPGSV,1,1,1,1,1,1,1,,,,,,,,,,,,*48
$GPGGA,000113,03018.1140,N,09743.9904,W,1,8,1.1,200.0,M,24.5,M,,0000*59
$GPGSA,A,3,,,,,,,,,,,,,0.000,0.000,0.000,*1e
$GPGSV,1,1,1,1,1,1,1,,,,,,,,,,,,*48
$GPGSV,1,1,1,1,1,1,1,,,,,,,,,,,,*48
$GPGGA,000114,03018.1217,N,09743.9964,W,1,8,1.1,200.0,M,24.5,M,,0000*59
$GPGSA,A,3,,,,,,,,,,,,,0.000,0.000,0.000,*1e
$GPGSV,1,1,1,1,1,1,1,,,,,,,,,,,,*48
$GPGSV,1,1,1,1,1,1,1,,,,,,,,,,,,*48
$GPGGA,000115,03018.1301,N,09744.0012,W,1,8,1.1,200.0,M,24.5,M,,0000*58
$GPGSA,A,3,,,,,,,,,,,,,0.000,0.000,0.000,*1e
$GPGSV,1,1,1,1,1,1,1,,,,,,,,,,,,*48
$GPGSV,1,1,1,1,1,1,1,,,,,,,,,,,,*48
$GPGGA,000116,03018.1390,N,09744.0047,W,1,8,1.1,200.0,M,24.5,M,,0000*53
$GPGSA,A,3,,,,,,,,,,,,,0.000,0.000,0.000,*1e
$GPGSV,1,1,1,1,1,1,1,,,,,,,,,,,,*48
$GPGSV,1,1,1,1,1,1,1,,,,,,,,,,,,*48
$GPGGA,000117,03018.1483,N,09744.0067,W,1,8,1.1,200.0,M,24.5,M,,0000*55
$GPGSA,A,3,,,,,,,,,,,,,0.000,0.000,0.000,*1e
$GPGSV,1,1,1,1,1,1,1,,,,,,,,,,,,*48
$GPGSV,1,1,1,1,1,1,1,,,,,,,,,,,,*48
$GPGGA,000118,03018.1578,N,09744.0074,W,1,8,1.1,200.0,M,24.5,M,,0000*5d
$GPGSA,A,3,,,,,,,,,,,,,0.000,0.000,0.000,*1e
$GPGSV,1,1,1,1,1,1,1,,,,,,,,,,,,*48
$GPGSV,1,1,1,1,1,1,1,,,,,,,,,,,,*48
$GPGGA,000119,03018.1673,N,09744.0065,W,1,8,1.1,200.0,M,24.5,M,,0000*54
$GPGSA,A,3,,,,,,,,,,,,,0.000,0.000,0.000,*1e
$GPGSV,1,1,1,1,1,1,1,,,,,,,,,,,,*48
$GPGSV,1,1,1,1,1,1,1,,,,,,,,,,,,*48
$GPGGA,000120,03018.1767,N,09744.0042,W,1,8,1.1,200.0,M,24.5,M,,0000*5f
$GPGSA,A,3,,,,,,,,,,,,,0.000,0.000,0.000,*1e
$GPGSV,1,1,1,1,1,1,1,,,,,,,,,,,,*48
$GPGSV,1,1,1,1,1,1,1,,,,,,,,,,,,*48
$GPGGA,000121,03018.1858,N,09744.0005,W,1,8,1.1,200.0,M,24.5,M,,0000*5e
$GPGSA,A,3,,,,,,,,,,,,,0.000,0.000,0.000,*1e
$GPGSV,1,1,1,1,1,1,1,,,,,,,,,,,,*48
$GPGSV,1,1,1,1,1,1,1,,,,,,,,,,,,*48
$GPGGA,000122,03018.1943,N,09743.9955,W,1,8,1.1,200.0,M,24.5,M,,0000*54
$GPGSA,A,3,,,,,,,,,,,,,0.000,0.000,0.000,*1e
$GPGSV,1,1,1,1,1,1,1,,,,,,,,,,,,*48
$GPGSV,1,1,1,1,1,1,1,,,,,,,,,,,,*48
$GPGGA,000123,03018.2021,N,09743.9892,W,1,8,1.1,200.0,M,24.5,M,,0000*51
$GPGSA,A,3,,,,,,,,,,,,,0.000,0.000,0.000,*1e
$GPGSV,1,1,1,1,1,1,1,,,,,,,,,,,,*48
$GPGSV,1,1,1,1,1,1,1,,,,,,,,,,,,*48
$GPGGA,000124,03018.2093,N,09743.9818,W,1,8,1.1,200.0,M,24.5,M,,0000*5d
$GPGSA,A,3,,,,,,,,,,,,,0.000,0.000,0.000,*1e
$GPGSV,1,1,1,1,1,1,1,,,,,,,,,,,,*48
$GPGSV,1,1,1,1,1,1,1,,,,,,,,,,,,*48
$GPGGA,000125,03018.2155,N,09743.9734,W,1,8,1.1,200.0,M,24.5,M,,0000*56
$GPGSA,A,3,,,,,,,,,,,,,0.000,0.000,0.000,*1e
$GPGSV,1,1,1,1,1,1,1,,,,,,,,,,,,*48
$GPGSV,1,1,1,1,1,1,1,,,,,,,,,,,,*48
$GPGGA,000126,03018.2206,N,09743.9641,W,1,8,1.1,200.0,M,24.5,M,,0000*53
$GPGSA,A,3,,,,,,,,,,,,,0.000,0.000,0.000,*1e
$GPGSV,1,1,1,1,1,1,1,,,,,,,,,,,,*48
$GPGSV,1,1,1,1,1,1,1,,,,,,,,,,,,*48
$GPGGA,000127,03018.2246,N,09743.9542,W,1,8,1.1,200.0,M,24.5,M,,0000*56
$GPGSA,A,3,,,,,,,,,,,,,0.000,0.000,0.000,*1e
$GPGSV,1,1,1,1,1,1,1,,,,,,,,,,,,*48
$GPGSV,1,1,1,1,1,1,1,,,,,,,,,,,,*48
$GPGGA,000128,03018.2274,N,09743.9438,W,1,8,1.1,200.0,M,24.5,M,,0000*54
$GPGSA,A,3,,,,,,,,,,,,,0.000,0.000,0.000,*1e
$GPGSV,1,1,1,1,1,1,1,,,,,,,,,,,,*48
$GPGSV,1,1,1,1,1,1,1,,,,,,,,,,,,*48
$GPGGA,000129,03018.2290,N,09743.9332,W,1,8,1.1,200.0,M,24.5,M,,0000*52
$GPGSA,A,3,,,,,,,,,,,,,0.000,0.000,0.000,*1e
$GPGSV,1,1,1,1,1,1,1,,,,,,,,,,,,*48
$GPGSV,1,1,1,1,1,1,1,,,,,,,,,,,,*48
$GPGGA,000130,03018.2293,N,09743.9225,W,1,8,1.1,200.0,M,24.5,M,,0000*5e
$GPGSA,A,3,,,,,,,,,,,,,0.000,0.000,0.000,*1e
$GPGSV,1,1,1,1,1,1,1,,,,,,,,,,,,*48
$GPGSV,1,1,1,1,1,1,1,,,,,,,,,,,,*48
$GPGGA,000131,03018.2284,N,09743.9118,W,1,8,1.1,200.0,M,24.5,M,,0000*54
$GPGSA,A,3,,,,,,,,,,,,,0.000,0.000,0.000,*1e
$GPGSV,1,1,1,1,1,1,1,,,,,,,,,,,,*48
$GPGSV,1,1,1,1,1,1,1,,,,,,,,,,,,*48
$GPGGA,000132,03018.2261,N,09743.9016,W,1,8,1.1,200.0,M,24.5,M,,0000*53
$GPGSA,A,3,,,,,,,,,,,,,0.000,0.000,0.000,*1e
$GPGSV,1,1,1,1,1,1,1,,,,,,,,,,,,*48
$GPGSV,1,1,1,1,1,1,1,,,,,,,,,,,,*48
$GPGGA,000133,03018.2228,N,09743.8918,W,1,8,1.1,200.0,M,24.5,M,,0000*59
$GPGSA,A,3,,,,,,,,,,,,,0.000,0.000,0.000,*1e
$GPGSV,1,1,1,1,1,1,1,,,,,,,,,,,,*48
$GPGSV,1,1,1,1,1,1,1,,,,,,,,,,,,*48
$GPGGA,000134,03018.2183,N,09743.8827,W,1,8,1.1,200.0,M,24.5,M,,0000*51
$GPGSA,A,3,,,,,,,,,,,,,0.000,0.000,0.000,*1e
$GPGSV,1,1,1,1,1,1,1,,,,,,,,,,,,*48
$GPGSV,1,1,1,1,1,1,1,,,,,,,,,,,,*48
$GPGGA,000135,03018.2129,N,09743.8746,W,1,8,1.1,200.0,M,24.5,M,,0000*58
$GPGSA,A,3,,,,,,,,,,,,,0.000,0.000,0.000,*1e
$GPGSV,1,1,1,1,1,1,1,,,,,,,,,,,,*48
$GPGSV,1,1,1,1,1,1,1,,,,,,,,,,,,*48
$GPGGA,000136,03018.2065,N,09743.8674,W,1,8,1.1,200.0,M,24.5,M,,0000*52
$GPGSA,A,3,,,,,,,,,,,,,0.000,0.000,0.000,*1e
$GPGSV,1,1,1,1,1,1,1,,,,,,,,,,,,*48
$GPGSV,1,1,1,1,1,1,1,,,,,,,,,,,,*48
$GPGGA,000137,03018.1994,N,09743.8614,W,1,8,1.1,200.0,M,24.5,M,,0000*51
$GPGSA,A,3,,,,,,,,,,,,,0.000,0.000,0.000,*1e
$GPGSV,1,1,1,1,1,1,1,,,,,,,,,,,,*48
$GPGSV,1,1,1,1,1,1,1,,,,,,,,,,,,*48
$GPGGA,000138,03018.1916,N,09743.8568,W,1,8,1.1,200.0,M,24.5,M,,0000*5c
$GPGSA,A,3,,,,,,,,,,,,,0.000,0.000,0.000,*1e
$GPGSV,1,1,1,1,1,1,1,,,,,,,,,,,,*48
$GPGSV,1,1,1,1,1,1,1,,,,,,,,,,,,*48
$GPGGA,000139,03018.1834,N,09743.8534,W,1,8,1.1,200.0,M,24.5,M,,0000*55
$GPGSA,A,3,,,,,,,,,,,,,0.000,0.000,0.000,*1e
$GPGSV,1,1,1,1,1,1,1,,,,,,,,,,,,*48
$GPGSV,1,1,1,1,1,1,1,,,,,,,,,,,,*48
$GPGGA,000140,03018.1750,N,09743.8515,W,1,8,1.1,200.0,M,24.5,M,,0000*55
$GPGSA,A,3,,,,,,,,,,,,,0.000,0.000,0.000,*1e
$GPGSV,1,1,1,1,1,1,1,,,,,,,,,,,,*48
$GPGSV,1,1,1,1,1,1,1,,,,,,,,,,,,*48
$GPGGA,000141,03018.1664,N,09743.8510,W,1,8,1.1,200.0,M,24.5,M,,0000*57
$GPGSA,A,3,,,,,,,,,,,,,0.000,0.000,0.000,*1e
$GPGSV,1,1,1,1,1,1,1,,,,,,,,,,,,*48
$GPGSV,1,1,1,1,1,1,1,,,,,,,,,,,,*48
$GPGGA,000142,03018.1579,N,09743.8520,W,1,8,1.1,200.0,M,24.5,M,,0000*58
$GPGSA,A,3,,,,,,,,,,,,,0.000,0.000,0.000,*1e
$GPGSV,1,1,1,1,1,1,1,,,,,,,,,,,,*48
$GPGSV,1,1,1,1,1,1,1,,,,,,,,,,,,*48
$GPGGA,000143,03018.1496,N,09743.8544,W,1,8,1.1,200.0,M,24.5,M,,0000*5b
$GPGSA,A,3,,,,,,,,,,,,,0.000,0.000,0.000,*1e
$GPGSV,1,1,1,1,1,1,1,,,,,,,,,,,,*48
$GPGSV,1,1,1,1,1,1,1,,,,,,,,,,,,*48
$GPGGA,000144,03018.1417,N,09743.8581,W,1,8,1.1,200.0,M,24.5,M,,0000*5c
$GPGSA,A,3,,,,,,,,,,,,,0.000,0.000,0.000,*1e
$GPGSV,1,1,1,1,1,1,1,,,,,,,,,,,,*48
$GPGSV,1,1,1,1,1,1,1,,,,,,,,,,,,*48
$GPGGA,000145,03018.1344,N,09743.8632,W,1,8,1.1,200.0,M,24.5,M,,0000*57
$GPGSA,A,3,,,,,,,,,,,,,0.000,0.000,0.000,*1e
$GPGSV,1,1,1,1,1,1,1,,,,,,,,,,,,*48
$GPGSV,1,1,1,1,1,1,1,,,,,,,,,,,,*48
$GPGGA,000146,03018.1278,N,09743.8695,W,1,8,1.1,200.0,M,24.5,M,,0000*57
$GPGSA,A,3,,,,,,,,,,,,,0.000,0.000,0.000,*1e
$GPGSV,1,1,1,1,1,1,1,,,,,,,,,,,,*48
$GPGSV,1,1,1,1,1,1,1,,,,,,,,,,,,*48
$GPGGA,000147,03018.1221,N,09743.8769,W,1,8,1.1,200.0,M,24.5,M,,0000*58
$GPGSA,A,3,,,,,,,,,,,,,0.000,0.000,0.000,*1e
$GPGSV,1,1,1,1,1,1,1,,,,,,,,,,,,*48
$GPGSV,1,1,1,1,1,1,1,,,,,,,,,,,,*48
$GPGGA,000148,03018.1174,N,09743.8851,W,1,8,1.1,200.0,M,24.5,M,,0000*50
$GPGSA,A,3,,,,,,,,,,,,,0.000,0.000,0.000,*1e
$GPGSV,1,1,1,1,1,1,1,,,,,,,,,,,,*48
$GPGSV,1,1,1,1,1,1,1,,,,,,,,,,,,*48
$GPGGA,000149,03018.1138,N,09743.8941,W,1,8,1.1,200.0,M,24.5,M,,0000*59
$GPGSA,A,3,,,,,,,,,,,,,0.000,0.000,0.000,*1e
$GPGSV,1,1,1,1,1,1,1,,,,,,,,,,,,*48
$GPGSV,1,1,1,1,1,1,1,,,,,,,,,,,,*48
$GPGGA,000150,03018.1112,N,09743.9037,W,1,8,1.1,200.0,M,24.5,M,,0000*50
$GPGSA,A,3,,,,,,,,,,,,,0.000,0.000,0.000,*1e
$GPGSV,1,1,1,1,1,1,1,,,,,,,,,,,,*48
$GPGSV,1,1,1,1,1,1,1,,,,,,,,,,,,*48
$GPGGA,000151,03018.1100,N,09743.9137,W,1,8,1.1,200.0,M,24.5,M,,0000*53
$GPGSA,A,3,,,,,,,,,,,,,0.000,0.000,0.000,*1e
$GPGSV,1,1,1,1,1,1,1,,,,,,,,,,,,*48
$GPGSV,1,1,1,1,1,1,1,,,,,,,,,,,,*48
$GPGGA,000152,03018.1100,N,09743.9238,W,1,8,1.1,200.0,M,24.5,M,,0000*5c
$GPGSA,A,3,,,,,,,,,,,,,0.000,0.000,0.000,*1e
$GPGSV,1,1,1,1,1,1,1,,,,,,,,,,,,*48
$GPGSV,1,1,1,1,1,1,1,,,,,,,,,,,,*48
$GPGGA,000153,03018.1112,N,09743.9339,W,1,8,1.1,200.0,M,24.5,M,,0000*5e
$GPGSA,A,3,,,,,,,,,,,,,0.000,0.000,0.000,*1e
$GPGSV,1,1,1,1,1,1,1,,,,,,,,,,,,*48
$GPGSV,1,1,1,1,1,1,1,,,,,,,,,,,,*48
$GPGGA,000154,03018.1138,N,09743.9438,W,1,8,1.1,200.0,M,24.5,M,,0000*57
$GPGSA,A,3,,,,,,,,,,,,,0.000,0.000,0.000,*1e
$GPGSV,1,1,1,1,1,1,1,,,,,,,,,,,,*48
$GPGSV,1,1,1,1,1,1,1,,,,,,,,,,,,*48
$GPGGA,000155,03018.1175,N,09743.9532,W,1,8,1.1,200.0,M,24.5,M,,0000*54
$GPGSA,A,3,,,,,,,,,,,,,0.000,0.000,0.000,*1e
$GPGSV,1,1,1,1,1,1,1,,,,,,,,,,,,*48
$GPGSV,1,1,1,1,1,1,1,,,,,,,,,,,,*48
$GPGGA,000156,03018.1223,N,09743.9621,W,1,8,1.1,200.0,M,24.5,M,,0000*56
$GPGSA,A,3,,,,,,,,,,,,,0.000,0.000,0.000,*1e
$GPGSV,1,1,1,1,1,1,1,,,,,,,,,,,,*48
$GPGSV,1,1,1,1,1,1,1,,,,,,,,,,,,*48
$GPGGA,000157,03018.1283,N,09743.9702,W,1,8,1.1,200.0,M,24.5,M,,0000*5d
$GPGSA,A,3,,,,,,,,,,,,,0.000,0.000,0.000,*1e
$GPGSV,1,1,1,1,1,1,1,,,,,,,,,,,,*48
$GPGSV,1,1,1,1,1,1,1,,,,,,,,,,,,*48
$GPGGA,000158,03018.1351,N,09743.9772,W,1,8,1.1,200.0,M,24.5,M,,0000*5b
$GPGSA,A,3,,,,,,,,,,,,,0.000,0.000,0.000,*1e
$GPGSV,1,1,1,1,1,1,1,,,,,,,,,,,,*48
$GPGSV,1,1,1,1,1,1,1,,,,,,,,,,,,*48
$GPGGA,000159,03018.1429,N,09743.9832,W,1,8,1.1,200.0,M,24.5,M,,0000*59
$GPGSA,A,3,,,,,,,,,,,,,0.000,0.000,0.000,*1e
$GPGSV,1,1,1,1,1,1,1,,,,,,,,,,,,*48
$GPGSV,1,1,1,1,1,1,1,,,,,,,,,,,,*48
$GPGGA,000160,03018.1513,N,09743.9880,W,1,8,1.1,200.0,M,24.5,M,,0000*52
$GPGSA,A,3,,,,,,,,,,,,,0.000,0.000,0.000,*1e
$GPGSV,1,1,1,1,1,1,1,,,,,,,,,,,,*48
$GPGSV,1,1,1,1,1,1,1,,,,,,,,,,,,*48
$GPGGA,000161,03018.1602,N,09743.9915,W,1,8,1.1,200.0,M,24.5,M,,0000*5d
$GPGSA,A,3,,,,,,,,,,,,,0.000,0.000,0.000,*1e
$GPGSV,1,1,1,1,1,1,1,,,,,,,,,,,,*48
$GPGSV,1,1,1,1,1,1,1,,,,,,,,,,,,*48
$GPGGA,000162,03018.1695,N,09743.9935,W,1,8,1.1,200.0,M,24.5,M,,0000*52
$GPGSA,A,3,,,,,,,,,,,,,0.000,0.000,0.000,*1e
$GPGSV,1,1,1,1,1,1,1,,,,,,,,,,,,*48
$GPGSV,1,1,1,1,1,1,1,,,,,,,,,,,,*48
$GPGGA,000163,03018.1790,N,09743.9941,W,1,8,1.1,200.0,M,24.5,M,,0000*54
$GPGSA,A,3,,,,,,,,,,,,,0.000,0.000,0.000,*1e
$GPGSV,1,1,1,1,1,1,1,,,,,,,,,,,,*48
$GPGSV,1,1,1,1,1,1,1,,,,,,,,,,,,*48
$GPGGA,000164,03018.1885,N,09743.9933,W,1,8,1.1,200.0,M,24.5,M,,0000*5d
$GPGSA,A,3,,,,,,,,,,,,,0.000,0.000,0.000,*1e
$GPGSV,1,1,1,1,1,1,1,,,,,,,,,,,,*48
$GPGSV,1,1,1,1,1,1,1,,,,,,,,,,,,*48
$GPGGA,000165,03018.1979,N,09743.9910,W,1,8,1.1,200.0,M,24.5,M,,0000*5f
$GPGSA,A,3,,,,,,,,,,,,,0.000,0.000,0.000,*1e
$GPGSV,1,1,1,1,1,1,1,,,,,,,,,,,,*48
$GPGSV,1,1,1,1,1,1,1,,,,,,,,,,,,*48
$GPGGA,000166,03018.2069,N,09743.9873,W,1,8,1.1,200.0,M,24.5,M,,0000*53
$GPGSA,A,3,,,,,,,,,,,,,0.000,0.000,0.000,*1e
$GPGSV,1,1,1,1,1,1,1,,,,,,,,,,,,*48
$GPGSV,1,1,1,1,1,1,1,,,,,,,,,,,,*48
$GPGGA,000167,03018.2155,N,09743.9823,W,1,8,1.1,200.0,M,24.5,M,,0000*59
$GPGSA,A,3,,,,,,,,,,,,,0.000,0.000,0.000,*1e
$GPGSV,1,1,1,1,1,1,1,,,,,,,,,,,,*48
$GPGSV,1,1,1,1,1,1,1,,,,,,,,,,,,*48
$GPGGA,000168,03018.2233,N,09743.9760,W,1,8,1.1,200.0,M,24.5,M,,0000*5d
$GPGSA,A,3,,,,,,,,,,,,,0.000,0.000,0.000,*1e
$GPGSV,1,1,1,1,1,1,1,,,,,,,,,,,,*48
$GPGSV,1,1,1,1,1,1,1,,,,,,,,,,,,*48
$GPGGA,000169,03018.2304,N,09743.9685,W,1,8,1.1,200.0,M,24.5,M,,0000*53
$GPGSA,A,3,,,,,,,,,,,,,0.000,0.000,0.000,*1e
$GPGSV,1,1,1,1,1,1,1,,,,,,,,,,,,*48
$GPGSV,1,1,1,1,1,1,1,,,,,,,,,,,,*48
$GPGGA,000170,03018.2366,N,09743.9601,W,1,8,1.1,200.0,M,24.5,M,,0000*53
$GPGSA,A,3,,,,,,,,,,,,,0.000,0.000,0.000,*1e
$GPGSV,1,1,1,1,1,1,1,,,,,,,,,,,,*48
$GPGSV,1,1,1,1,1,1,1,,,,,,,,,,,,*48
$GPGGA,000171,03018.2417,N,09743.9509,W,1,8,1.1,200.0,M,24.5,M,,0000*58
$GPGSA,A,3,,,,,,,,,,,,,0.000,0.000,0.000,*1e
$GPGSV,1,1,1,1,1,1,1,,,,,,,,,,,,*48
$GPGSV,1,1,1,1,1,1,1,,,,,,,,,,,,*48
$GPGGA,000172,03018.2457,N,09743.9409,W,1,8,1.1,200.0,M,24.5,M,,0000*5e
$GPGSA,A,3,,,,,,,,,,,,,0.000,0.000,0.000,*1e
$GPGSV,1,1,1,1,1,1,1,,,,,,,,,,,,*48
$GPGSV,1,1,1,1,1,1,1,,,,,,,,,,,,*48
$GPGGA,000173,03018.2485,N,09743.9306,W,1,8,1.1,200.0,M,24.5,M,,0000*58
$GPGSA,A,3,,,,,,,,,,,,,0.000,0.000,0.000,*1e
$GPGSV,1,1,1,1,1,1,1,,,,,,,,,,,,*48
$GPGSV,1,1,1,1,1,1,1,,,,,,,,,,,,*48
$GPGGA,000174,03018.2501,N,09743.9199,W,1,8,1.1,200.0,M,24.5,M,,0000*56
$GPGSA,A,3,,,,,,,,,,,,,0.000,0.000,0.000,*1e
$GPGSV,1,1,1,1,1,1,1,,,,,,,,,,,,*48
$GPGSV,1,1,1,1,1,1,1,,,,,,,,,,,,*48
$GPGGA,000175,03018.2504,N,09743.9091,W,1,8,1.1,200.0,M,24.5,M,,0000*5b
$GPGSA,A,3,,,,,,,,,,,,,0.000,0.000,0.000,*1e
$GPGSV,1,1,1,1,1,1,1,,,,,,,,,,,,*48
$GPGSV,1,1,1,1,1,1,1,,,,,,,,,,,,*48
$GPGGA,000176,03018.2495,N,09743.8986,W,1,8,1.1,200.0,M,24.5,M,,0000*5f
$GPGSA,A,3,,,,,,,,,,,,,0.000,0.000,0.000,*1e
$GPGSV,1,1,1,1,1,1,1,,,,,,,,,,,,*48
$GPGSV,1,1,1,1,1,1,1,,,,,,,,,,,,*48
$GPGGA,000177,03018.2473,N,09743.8883,W,1,8,1.1,200.0,M,24.5,M,,0000*52
$GPGSA,A,3,,,,,,,,,,,,,0.000,0.000,0.000,*1e
$GPGSV,1,1,1,1,1,1,1,,,,,,,,,,,,*48
$GPGSV,1,1,1,1,1,1,1,,,,,,,,,,,,*48
$GPGGA,000178,03018.2439,N,09743.8785,W,1,8,1.1,200.0,M,24.5,M,,0000*5a
$GPGSA,A,3,,,,,,,,,,,,,0.000,0.000,0.000,*1e
$GPGSV,1,1,1,1,1,1,1,,,,,,,,,,,,*48
$GPGSV,1,1,1,1,1,1,1,,,,,,,,,,,,*48
$GPGGA,000179,03018.2395,N,09743.8694,W,1,8,1.1,200.0,M,24.5,M,,0000*5b
$GPGSA,A,3,,,,,,,,,,,,,0.000,0.000,0.000,*1e
$GPGSV,1,1,1,1,1,1,1,,,,,,,,,,,,*48
$GPGSV,1,1,1,1,1,1,1,,,,,,,,,,,,*48
$GPGGA,000180,03018.2339,N,09743.8613,W,1,8,1.1,200.0,M,24.5,M,,0000*54
$GPGSA,A,3,,,,,,,,,,,,,0.000,0.000,0.000,*1e
$GPGSV,1,1,1,1,1,1,1,,,,,,,,,,,,*48
$GPGSV,1,1,1,1,1,1,1,,,,,,,,,,,,*48
$GPGGA,000181,03018.2276,N,09743.8541,W,1,8,1.1,200.0,M,24.5,M,,0000*5b
$GPGSA,A,3,,,,,,,,,,,,,0.000,0.000,0.000,*1e
$GPGSV,1,1,1,1,1,1,1,,,,,,,,,,,,*48
$GPGSV,1,1,1,1,1,1,1,,,,,,,,,,,,*48
$GPGGA,000182,03018.2204,N,09743.8481,W,1,8,1.1,200.0,M,24.5,M,,0000*50
$GPGSA,A,3,,,,,,,,,,,,,0.000,0.000,0.000,*1e
$GPGSV,1,1,1,1,1,1,1,,,,,,,,,,,,*48
$GPGSV,1,1,1,1,1,1,1,,,,,,,,,,,,*48
$GPGGA,000183,03018.2127,N,09743.8434,W,1,8,1.1,200.0,M,24.5,M,,0000*5d
$GPGSA,A,3,,,,,,,,,,,,,0.000,0.000,0.000,*1e
$GPGSV,1,1,1,1,1,1,1,,,,,,,,,,,,*48
$GPGSV,1,1,1,1,1,1,1,,,,,,,,,,,,*48
$GPGGA,000184,03018.2045,N,09743.8401,W,1,8,1.1,200.0,M,24.5,M,,0000*59
$GPGSA,A,3,,,,,,,,,,,,,0.000,0.000,0.000,*1e
$GPGSV,1,1,1,1,1,1,1,,,,,,,,,,,,*48
$GPGSV,1,1,1,1,1,1,1,,,,,,,,,,,,*48
$GPGGA,000185,03018.1960,N,09743.8381,W,1,8,1.1,200.0,M,24.5,M,,0000*5a
$GPGSA,A,3,,,,,,,,,,,,,0.000,0.000,0.000,*1e
$GPGSV,1,1,1,1,1,1,1,,,,,,,,,,,,*48
$GPGSV,1,1,1,1,1,1,1,,,,,,,,,,,,*48
$GPGGA,000186,03018.1874,N,09743.8376,W,1,8,1.1,200.0,M,24.5,M,,0000*55
$GPGSA,A,3,,,,,,,,,,,,,0.000,0.000,0.000,*1e
$GPGSV,1,1,1,1,1,1,1,,,,,,,,,,,,*48
$GPGSV,1,1,1,1,1,1,1,,,,,,,,,,,,*48
$GPGGA,000187,03018.1789,N,09743.8386,W,1,8,1.1,200.0,M,24.5,M,,0000*56
$GPGSA,A,3,,,,,,,,,,,,,0.000,0.000,0.000,*1e
$GPGSV,1,1,1,1,1,1,1,,,,,,,,,,,,*48
$GPGSV,1,1,1,1,1,1,1,,,,,,,,,,,,*48
$GPGGA,000188,03018.1706,N,09743.8410,W,1,8,1.1,200.0,M,24.5,M,,0000*56
$GPGSA,A,3,,,,,,,,,,,,,0.000,0.000,0.000,*1e
$GPGSV,1,1,1,1,1,1,1,,,,,,,,,,,,*48
$GPGSV,1,1,1,1,1,1,1,,,,,,,,,,,,*48
$GPGGA,000189,03018.1627,N,09743.8448,W,1,8,1.1,200.0,M,24.5,M,,0000*58
$GPGSA,A,3,,,,,,,,,,,,,0.000,0.000,0.000,*1e
$GPGSV,1,1,1,1,1,1,1,,,,,,,,,,,,*48
$GPGSV,1,1,1,1,1,1,1,,,,,,,,,,,,*48
$GPGGA,000190,03018.1555,N,09743.8499,W,1,8,1.1,200.0,M,24.5,M,,0000*5a
$GPGSA,A,3,,,,,,,,,,,,,0.000,0.000,0.000,*1e
$GPGSV,1,1,1,1,1,1,1,,,,,,,,,,,,*48
$GPGSV,1,1,1,1,1,1,1,,,,,,,,,,,,*48
$GPGGA,000191,03018.1489,N,09743.8562,W,1,8,1.1,200.0,M,24.5,M,,0000*5e
$GPGSA,A,3,,,,,,,,,,,,,0.000,0.000,0.000,*1e
$GPGSV,1,1,1,1,1,1,1,,,,,,,,,,,,*48
$GPGSV,1,1,1,1,1,1,1,,,,,,,,,,,,*48
$GPGGA,000192,03018.1432,N,09743.8635,W,1,8,1.1,200.0,M,24.5,M,,0000*5c
$GPGSA,A,3,,,,,,,,,,,,,0.000,0.000,0.000,*1e
$GPGSV,1,1,1,1,1,1,1,,,,,,,,,,,,*48
$GPGSV,1,1,1,1,1,1,1,,,,,,,,,,,,*48
$GPGGA,000193,03018.1384,N,09743.8718,W,1,8,1.1,200.0,M,24.5,M,,0000*59
$GPGSA,A,3,,,,,,,,,,,,,0.000,0.000,0.000,*1e
$GPGSV,1,1,1,1,1,1,1,,,,,,,,,,,,*48
$GPGSV,1,1,1,1,1,1,1,,,,,,,,,,,,*48
$GPGGA,000194,03018.1348,N,09743.8808,W,1,8,1.1,200.0,M,24.5,M,,0000*50
$GPGSA,A,3,,,,,,,,,,,,,0.000,0.000,0.000,*1e
$GPGSV,1,1,1,1,1,1,1,,,,,,,,,,,,*48
$GPGSV,1,1,1,1,1,1,1,,,,,,,,,,,,*48
$GPGGA,000195,03018.1323,N,09743.8903,W,1,8,1.1,200.0,M,24.5,M,,0000*56
$GPGSA,A,3,,,,,,,,,,,,,0.000,0.000,0.000,*1e
$GPGSV,1,1,1,1,1,1,1,,,,,,,,,,,,*48
$GPGSV,1,1,1,1,1,1,1,,,,,,,,,,,,*48
$GPGGA,000196,03018.1310,N,09743.9003,W,1,8,1.1,200.0,M,24.5,M,,0000*5d
$GPGSA,A,3,,,,,,,,,,,,,0.000,0.000,0.000,*1e
$GPGSV,1,1,1,1,1,1,1,,,,,,,,,,,,*48
$GPGSV,1,1,1,1,1,1,1,,,,,,,,,,,,*48
$GPGGA,000197,03018.1310,N,09743.9104,W,1,8,1.1,200.0,M,24.5,M,,0000*5a
$GPGSA,A,3,,,,,,,,,,,,,0.000,0.000,0.000,*1e
$GPGSV,1,1,1,1,1,1,1,,,,,,,,,,,,*48
$GPGSV,1,1,1,1,1,1,1,,,,,,,,,,,,*48
$GPGGA,000198,03018.1323,N,09743.9205,W,1,8,1.1,200.0,M,24.5,M,,0000*57
$GPGSA,A,3,,,,,,,,,,,,,0.000,0.000,0.000,*1e
$GPGSV,1,1,1,1,1,1,1,,,,,,,,,,,,*48
$GPGSV,1,1,1,1,1,1,1,,,,,,,,,,,,*48
$GPGGA,000199,03018.1348,N,09743.9304,W,1,8,1.1,200.0,M,24.5,M,,0000*5b
$GPGSA,A,3,,,,,,,,,,,,,0.000,0.000,0.000,*1e
$GPGSV,1,1,1,1,1,1,1,,,,,,,,,,,,*48
$GPGSV,1,1,1,1,1,1,1,,,,,,,,,,,,*48
$GPGGA,000200,03018.1385,N,09743.9398,W,1,8,1.1,200.0,M,24.5,M,,0000*5c
$GPGSA,A,3,,,,,,,,,,,,,0.000,0.000,0.000,*1e
$GPGSV,1,1,1,1,1,1,1,,,,,,,,,,,,*48
$GPGSV,1,1,1,1,1,1,1,,,,,,,,,,,,*48
$GPGGA,000201,03018.1433,N,09743.9486,W,1,8,1.1,200.0,M,24.5,M,,0000*5f
$GPGSA,A,3,,,,,,,,,,,,,0.000,0.000,0.000,*1e
$GPGSV,1,1,1,1,1,1,1,,,,,,,,,,,,*48
$GPGSV,1,1,1,1,1,1,1,,,,,,,,,,,,*48
$GPGGA,000202,03018.1493,N,09743.9567,W,1,8,1.1,200.0,M,24.5,M,,0000*58
$GPGSA,A,3,,,,,,,,,,,,,0.000,0.000,0.000,*1e
$GPGSV,1,1,1,1,1,1,1,,,,,,,,,,,,*48
$GPGSV,1,1,1,1,1,1,1,,,,,,,,,,,,*48
$GPGGA,000203,03018.1561,N,09743.9637,W,1,8,1.1,200.0,M,24.5,M,,0000*53
$GPGSA,A,3,,,,,,,,,,,,,0.000,0.000,0.000,*1e
$GPGSV,1,1,1,1,1,1,1,,,,,,,,,,,,*48
$GPGSV,1,1,1,1,1,1,1,,,,,,,,,,,,*48
$GPGGA,000204,03018.1639,N,09743.9697,W,1,8,1.1,200.0,M,24.5,M,,0000*50
$GPGSA,A,3,,,,,,,,,,,,,0.000,0.000,0.000,*1e
$GPGSV,1,1,1,1,1,1,1,,,,,,,,,,,,*48
$GPGSV,1,1,1,1,1,1,1,,,,,,,,,,,,*48
$GPGGA,000205,03018.1723,N,09743.9745,W,1,8,1.1,200.0,M,24.5,M,,0000*55
$GPGSA,A,3,,,,,,,,,,,,,0.000,0.000,0.000,*1e
$GPGSV,1,1,1,1,1,1,1,,,,,,,,,,,,*48
$GPGSV,1,1,1,1,1,1,1,,,,,,,,,,,,*48
$GPGGA,000206,03018.1811,N,09743.9780,W,1,8,1.1,200.0,M,24.5,M,,0000*51
$GPGSA,A,3,,,,,,,,,,,,,0.000,0.000,0.000,*1e
$GPGSV,1,1,1,1,1,1,1,,,,,,,,,,,,*48
$GPGSV,1,1,1,1,1,1,1,,,,,,,,,,,,*48
$GPGGA,000207,03018.1904,N,09743.9800,W,1,8,1.1,200.0,M,24.5,M,,0000*52
$GPGSA,A,3,,,,,,,,,,,,,0.000,0.000,0.000,*1e
$GPGSV,1,1,1,1,1,1,1,,,,,,,,,,,,*48
$GPGSV,1,1,1,1,1,1,1,,,,,,,,,,,,*48
$GPGGA,000208,03018.1999,N,09743.9806,W,1,8,1.1,200.0,M,24.5,M,,0000*5f
$GPGSA,A,3,,,,,,,,,,,,,0.000,0.000,0.000,*1e
$GPGSV,1,1,1,1,1,1,1,,,,,,,,,,,,*48
$GPGSV,1,1,1,1,1,1,1,,,,,,,,,,,,*48
$GPGGA,000209,03018.2095,N,09743.9798,W,1,8,1.1,200.0,M,24.5,M,,0000*50
$GPGSA,A,3,,,,,,,,,,,,,0.000,0.000,0.000,*1e
$GPGSV,1,1,1,1,1,1,1,,,,,,,,,,,,*48
$GPGSV,1,1,1,1,1,1,1,,,,,,,,,,,,*48
$GPGGA,000210,03018.2188,N,09743.9775,W,1,8,1.1,200.0,M,24.5,M,,0000*56
$GPGSA,A,3,,,,,,,,,,,,,0.000,0.000,0.000,*1e
$GPGSV,1,1,1,1,1,1,1,,,,,,,,,,,,*48
$GPGSV,1,1,1,1,1,1,1,,,,,,,,,,,,*48
$GPGGA,000211,03018.2279,N,09743.9738,W,1,8,1.1,200.0,M,24.5,M,,0000*53
$GPGSA,A,3,,,,,,,,,,,,,0.000,0.000,0.000,*1e
$GPGSV,1,1,1,1,1,1,1,,,,,,,,,,,,*48
$GPGSV,1,1,1,1,1,1,1,,,,,,,,,,,,*48
$GPGGA,000212,03018.2364,N,09743.9687,W,1,8,1.1,200.0,M,24.5,M,,0000*58
$GPGSA,A,3,,,,,,,,,,,,,0.000,0.000,0.000,*1e
$GPGSV,1,1,1,1,1,1,1,,,,,,,,,,,,*48
$GPGSV,1,1,1,1,1,1,1,,,,,,,,,,,,*48
$GPGGA,000213,03018.2443,N,09743.9624,W,1,8,1.1,200.0,M,24.5,M,,0000*52
$GPGSA,A,3,,,,,,,,,,,,,0.000,0.000,0.000,*1e
$GPGSV,1,1,1,1,1,1,1,,,,,,,,,,,,*48
$GPGSV,1,1,1,1,1,1,1,,,,,,,,,,,,*48
$GPGGA,000214,03018.2514,N,09743.9550,W,1,8,1.1,200.0,M,24.5,M,,0000*56
$GPGSA,A,3,,,,,,,,,,,,,0.000,0.000,0.000,*1e
$GPGSV,1,1,1,1,1,1,1,,,,,,,,,,,,*48
$GPGSV,1,1,1,1,1,1,1,,,,,,,,,,,,*48
$GPGGA,000215,03018.2575,N,09743.9466,W,1,8,1.1,200.0,M,24.5,M,,0000*54
$GPGSA,A,3,,,,,,,,,,,,,0.000,0.000,0.000,*1e
$GPGSV,1,1,1,1,1,1,1,,,,,,,,,,,,*48
$GPGSV,1,1,1,1,1,1,1,,,,,,,,,,,,*48
$GPGGA,000216,03018.2627,N,09743.9373,W,1,8,1.1,200.0,M,24.5,M,,0000*50
$GPGSA,A,3,,,,,,,,,,,,,0.000,0.000,0.000,*1e
$GPGSV,1,1,1,1,1,1,1,,,,,,,,,,,,*48
$GPGSV,1,1,1,1,1,1,1,,,,,,,,,,,,*48
$GPGGA,000217,03018.2667,N,09743.9274,W,1,8,1.1,200.0,M,24.5,M,,0000*53
$GPGSA,A,3,,,,,,,,,,,,,0.000,0.000,0.000,*1e
$GPGSV,1,1,1,1,1,1,1,,,,,,,,,,,,*48
$GPGSV,1,1,1,1,1,1,1,,,,,,,,,,,,*48
$GPGGA,000218,03018.2695,N,09743.9171,W,1,8,1.1,200.0,M,24.5,M,,0000*57
$GPGSA,A,3,,,,,,,,,,,,,0.000,0.000,0.000,*1e
$GPGSV,1,1,1,1,1,1,1,,,,,,,,,,,,*48
$GPGSV,1,1,1,1,1,1,1,,,,,,,,,,,,*48
$GPGGA,000219,03018.2711,N,09743.9064,W,1,8,1.1,200.0,M,24.5,M,,0000*5e
$GPGSA,A,3,,,,,,,,,,,,,0.000,0.000,0.000,*1e
$GPGSV,1,1,1,1,1,1,1,,,,,,,,,,,,*48
$GPGSV,1,1,1,1,1,1,1,,,,,,,,,,,,*48
$GPGGA,000220,03018.2714,N,09743.8956,W,1,8,1.1,200.0,M,24.5,M,,0000*58
$GPGSA,A,3,,,,,,,,,,,,,0.000,0.000,0.000,*1e
$GPGSV,1,1,1,1,1,1,1,,,,,,,,,,,,*48
$GPGSV,1,1,1,1,1,1,1,,,,,,,,,,,,*48
$GPGGA,000221,03018.2704,N,09743.8850,W,1,8,1.1,200.0,M,24.5,M,,0000*5f
$GPGSA,A,3,,,,,,,,,,,,,0.000,0.000,0.000,*1e
$GPGSV,1,1,1,1,1,1,1,,,,,,,,,,,,*48
$GPGSV,1,1,1,1,1,1,1,,,,,,,,,,,,*48
$GPGGA,000222,03018.2683,N,09743.8748,W,1,8,1.1,200.0,M,24.5,M,,0000*54
$GPGSA,A,3,,,,,,,,,,,,,0.000,0.000,0.000,*1e
$GPGSV,1,1,1,1,1,1,1,,,,,,,,,,,,*48
$GPGSV,1,1,1,1,1,1,1,,,,,,,,,,,,*48
$GPGGA,000223,03018.2649,N,09743.8650,W,1,8,1.1,200.0,M,24.5,M,,0000*5b
$GPGSA,A,3,,,,,,,,,,,,,0.000,0.000,0.000,*1e
$GPGSV,1,1,1,1,1,1,1,,,,,,,,,,,,*48
$GPGSV,1,1,1,1,1,1,1,,,,,,,,,,,,*48
$GPGGA,000224,03018.2604,N,09743.8559,W,1,8,1.1,200.0,M,24.5,M,,0000*5f
$GPGSA,A,3,,,,,,,,,,,,,0.000,0.000,0.000,*1e
$GPGSV,1,1,1,1,1,1,1,,,,,,,,,,,,*48
$GPGSV,1,1,1,1,1,1,1,,,,,,,,,,,,*48
$GPGGA,000225,03018.2549,N,09743.8478,W,1,8,1.1,200.0,M,24.5,M,,0000*56
$GPGSA,A,3,,,,,,,,,,,,,0.000,0.000,0.000,*1e
$GPGSV,1,1,1,1,1,1,1,,,,,,,,,,,,*48
$GPGSV,1,1,1,1,1,1,1,,,,,,,,,,,,*48
$GPGGA,000226,03018.2486,N,09743.8406,W,1,8,1.1,200.0,M,24.5,M,,0000*5e
$GPGSA,A,3,,,,,,,,,,,,,0.000,0.000,0.000,*1e
$GPGSV,1,1,1,1,1,1,1,,,,,,,,,,,,*48
$GPGSV,1,1,1,1,1,1,1,,,,,,,,,,,,*48
$GPGGA,000227,03018.2414,N,09743.8346,W,1,8,1.1,200.0,M,24.5,M,,0000*57
$GPGSA,A,3,,,,,,,,,,,,,0.000,0.000,0.000,*1e
$GPGSV,1,1,1,1,1,1,1,,,,,,,,,,,,*48
$GPGSV,1,1,1,1,1,1,1,,,,,,,,,,,,*48
$GPGGA,000228,03018.2337,N,09743.8299,W,1,8,1.1,200.0,M,24.5,M,,0000*5d
$GPGSA,A,3,,,,,,,,,,,,,0.000,0.000,0.000,*1e
$GPGSV,1,1,1,1,1,1,1,,,,,,,,,,,,*48
$GPGSV,1,1,1,1,1,1,1,,,,,,,,,,,,*48
$GPGGA,000229,03018.2255,N,09743.8265,W,1,8,1.1,200.0,M,24.5,M,,0000*5a
$GPGSA,A,3,,,,,,,,,,,,,0.000,0.000,0.000,*1e
$GPGSV,1,1,1,1,1,1,1,,,,,,,,,,,,*48
$GPGSV,1,1,1,1,1,1,1,,,,,,,,,,,,*48
$GPGGA,000230,03018.2170,N,09743.8246,W,1,8,1.1,200.0,M,24.5,M,,0000*57
$GPGSA,A,3,,,,,,,,,,,,,0.000,0.000,0.000,*1e
$GPGSV,1,1,1,1,1,1,1,,,,,,,,,,,,*48
$GPGSV,1,1,1,1,1,1,1,,,,,,,,,,,,*48
$GPGGA,000231,03018.2084,N,09743.8241,W,1,8,1.1,200.0,M,24.5,M,,0000*5b
$GPGSA,A,3,,,,,,,,,,,,,0.000,0.000,0.000,*1e
$GPGSV,1,1,1,1,1,1,1,,,,,,,,,,,,*48
$GPGSV,1,1,1,1,1,1,1,,,,,,,,,,,,*48
$GPGGA,000232,03018.1999,N,09743.8251,W,1,8,1.1,200.0,M,24.5,M,,0000*5f
$GPGSA,A,3,,,,,,,,,,,,,0.000,0.000,0.000,*1e
$GPGSV,1,1,1,1,1,1,1,,,,,,,,,,,,*48
$GPGSV,1,1,1,1,1,1,1,,,,,,,,,,,,*48
$GPGGA,000233,03018.1916,N,09743.8275,W,1,8,1.1,200.0,M,24.5,M,,0000*5f
$GPGSA,A,3,,,,,,,,,,,,,0.000,0.000,0.000,*1e
$GPGSV,1,1,1,1,1,1,1,,,,,,,,,,,,*48
$GPGSV,1,1,1,1,1,1,1,,,,,,,,,,,,*48
$GPGGA,000234,03018.1837,N,09743.8313,W,1,8,1.1,200.0,M,24.5,M,,0000*5b
$GPGSA,A,3,,,,,,,,,,,,,0.000,0.000,0.000,*1e
$GPGSV,1,1,1,1,1,1,1,,,,,,,,,,,,*48
$GPGSV,1,1,1,1,1,1,1,,,,,,,,,,,,*48
$GPGGA,000235,03018.1764,N,09743.8364,W,1,8,1.1,200.0,M,24.5,M,,0000*53
$GPGSA,A,3,,,,,,,,,,,,,0.000,0.000,0.000,*1e
$GPGSV,1,1,1,1,1,1,1,,,,,,,,,,,,*48
$GPGSV,1,1,1,1,1,1,1,,,,,,,,,,,,*48
$GPGGA,000236,03018.1699,N,09743.8426,W,1,8,1.1,200.0,M,24.5,M,,0000*52
$GPGSA,A,3,,,,,,,,,,,,,0.000,0.000,0.000,*1e
$GPGSV,1,1,1,1,1,1,1,,,,,,,,,,,,*48
$GPGSV,1,1,1,1,1,1,1,,,,,,,,,,,,*48
$GPGGA,000237,03018.1641,N,09743.8500,W,1,8,1.1,200.0,M,24.5,M,,0000*53
$GPGSA,A,3,,,,,,,,,,,,,0.000,0.000,0.000,*1e
$GPGSV,1,1,1,1,1,1,1,,,,,,,,,,,,*48
$GPGSV,1,1,1,1,1,1,1,,,,,,,,,,,,*48
$GPGGA,000238,03018.1594,N,09743.8582,W,1,8,1.1,200.0,M,24.5,M,,0000*5d
$GPGSA,A,3,,,,,,,,,,,,,0.000,0.000,0.000,*1e
$GPGSV,1,1,1,1,1,1,1,,,,,,,,,,,,*48
$GPGSV,1,1,1,1,1,1,1,,,,,,,,,,,,*48
$GPGGA,000239,03018.1558,N,09743.8672,W,1,8,1.1,200.0,M,24.5,M,,0000*50
$GPGSA,A,3,,,,,,,,,,,,,0.000,0.000,0.000,*1e
$GPGSV,1,1,1,1,1,1,1,,,,,,,,,,,,*48
$GPGSV,1,1,1,1,1,1,1,,,,,,,,,,,,*48
$GPGGA,000240,03018.1532,N,09743.8768,W,1,8,1.1,200.0,M,24.5,M,,0000*58
$GPGSA,A,3,,,,,,,,,,,,,0.000,0.000,0.000,*1e
$GPGSV,1,1,1,1,1,1,1,,,,,,,,,,,,*48
$GPGSV,1,1,1,1,1,1,1,,,,,,,,,,,,*48
$GPGGA,000241,03018.1520,N,09743.8868,W,1,8,1.1,200.0,M,24.5,M,,0000*55
$GPGSA,A,3,,,,,,,,,,,,,0.000,0.000,0.000,*1e
$GPGSV,1,1,1,1,1,1,1,,,,,,,,,,,,*48
$GPGSV,1,1,1,1,1,1,1,,,,,,,,,,,,*48
$GPGGA,000242,03018.1520,N,09743.8968,W,1,8,1.1,200.0,M,24.5,M,,0000*57
$GPGSA,A,3,,,,,,,,,,,,,0.000,0.000,0.000,*1e
$GPGSV,1,1,1,1,1,1,1,,,,,,,,,,,,*48
$GPGSV,1,1,1,1,1,1,1,,,,,,,,,,,,*48
$GPGGA,000243,03018.1532,N,09743.9070,W,1,8,1.1,200.0,M,24.5,M,,0000*54
$GPGSA,A,3,,,,,,,,,,,,,0.000,0.000,0.000,*1e
$GPGSV,1,1,1,1,1,1,1,,,,,,,,,,,,*48
$GPGSV,1,1,1,1,1,1,1,,,,,,,,,,,,*48
$GPGGA,000244,03018.1558,N,09743.9168,W,1,8,1.1,200.0,M,24.5,M,,0000*57
$GPGSA,A,3,,,,,,,,,,,,,0.000,0.000,0.000,*1e
$GPGSV,1,1,1,1,1,1,1,,,,,,,,,,,,*48
$GPGSV,1,1,1,1,1,1,1,,,,,,,,,,,,*48
$GPGGA,000245,03018.1595,N,09743.9263,W,1,8,1.1,200.0,M,24.5,M,,0000*5f
$GPGSA,A,3,,,,,,,,,,,,,0.000,0.000,0.000,*1e
$GPGSV,1,1,1,1,1,1,1,,,,,,,,,,,,*48
$GPGSV,1,1,1,1,1,1,1,,,,,,,,,,,,*48
$GPGGA,000246,03018.1643,N,09743.9351,W,1,8,1.1,200.0,M,24.5,M,,0000*54
$GPGSA,A,3,,,,,,,,,,,,,0.000,0.000,0.000,*1e
$GPGSV,1,1,1,1,1,1,1,,,,,,,,,,,,*48
$GPGSV,1,1,1,1,1,1,1,,,,,,,,,,,,*48
$GPGGA,000247,03018.1702,N,09743.9432,W,1,8,1.1,200.0,M,24.5,M,,0000*53
$GPGSA,A,3,,,,,,,,,,,,,0.000,0.000,0.000,*1e
$GPGSV,1,1,1,1,1,1,1,,,,,,,,,,,,*48
$GPGSV,1,1,1,1,1,1,1,,,,,,,,,,,,*48
$GPGGA,000248,03018.1771,N,09743.9502,W,1,8,1.1,200.0,M,24.5,M,,0000*5a
$GPGSA,A,3,,,,,,,,,,,,,0.000,0.000,0.000,*1e
$GPGSV,1,1,1,1,1,1,1,,,,,,,,,,,,*48
$GPGSV,1,1,1,1,1,1,1,,,,,,,,,,,,*48
$GPGGA,000249,03018.1848,N,09743.9562,W,1,8,1.1,200.0,M,24.5,M,,0000*58
$GPGSA,A,3,,,,,,,,,,,,,0.000,0.000,0.000,*1e
$GPGSV,1,1,1,1,1,1,1,,,,,,,,,,,,*48
$GPGSV,1,1,1,1,1,1,1,,,,,,,,,,,,*48
$GPGGA,000250,03018.1932,N,09743.9610,W,1,8,1.1,200.0,M,24.5,M,,0000*5a
$GPGSA,A,3,,,,,,,,,,,,,0.000,0.000,0.000,*1e
$GPGSV,1,1,1,1,1,1,1,,,,,,,,,,,,*48
$GPGSV,1,1,1,1,1,1,1,,,,,,,,,,,,*48
$GPGGA,000251,03018.2021,N,09743.9645,W,1,8,1.1,200.0,M,24.5,M,,0000*53
$GPGSA,A,3,,,,,,,,,,,,,0.000,0.000,0.000,*1e
$GPGSV,1,1,1,1,1,1,1,,,,,,,,,,,,*48
$GPGSV,1,1,1,1,1,1,1,,,,,,,,,,,,*48
$GPGGA,000252,03018.2114,N,09743.9665,W,1,8,1.1,200.0,M,24.5,M,,0000*55
$GPGSA,A,3,,,,,,,,,,,,,0.000,0.000,0.000,*1e
$GPGSV,1,1,1,1,1,1,1,,,,,,,,,,,,*48
$GPGSV,1,1,1,1,1,1,1,,,,,,,,,,,,*48
$GPGGA,000253,03018.2209,N,09743.9671,W,1,8,1.1,200.0,M,24.5,M,,0000*5e
$GPGSA,A,3,,,,,,,,,,,,,0.000,0.000,0.000,*1e
$GPGSV,1,1,1,1,1,1,1,,,,,,,,,,,,*48
$GPGSV,1,1,1,1,1,1,1,,,,,,,,,,,,*48
$GPGGA,000254,03018.2304,N,09743.9663,W,1,8,1.1,200.0,M,24.5,M,,0000*56
$GPGSA,A,3,,,,,,,,,,,,,0.000,0.000,0.000,*1e
$GPGSV,1,1,1,1,1,1,1,,,,,,,,,,,,*48
$GPGSV,1,1,1,1,1,1,1,,,,,,,,,,,,*48
$GPGGA,000255,03018.2398,N,09743.9640,W,1,8,1.1,200.0,M,24.5,M,,0000*53
$GPGSA,A,3,,,,,,,,,,,,,0.000,0.000,0.000,*1e
$GPGSV,1,1,1,1,1,1,1,,,,,,,,,,,,*48
$GPGSV,1,1,1,1,1,1,1,,,,,,,,,,,,*48
$GPGGA,000256,03018.2488,N,09743.9603,W,1,8,1.1,200.0,M,24.5,M,,0000*51
$GPGSA,A,3,,,,,,,,,,,,,0.000,0.000,0.000,*1e
$GPGSV,1,1,1,1,1,1,1,,,,,,,,,,,,*48
$GPGSV,1,1,1,1,1,1,1,,,,,,,,,,,,*48
$GPGGA,000257,03018.2573,N,09743.9552,W,1,8,1.1,200.0,M,24.5,M,,0000*52
$GPGSA,A,3,,,,,,,,,,,,,0.000,0.000,0.000,*1e
$GPGSV,1,1,1,1,1,1,1,,,,,,,,,,,,*48
$GPGSV,1,1,1,1,1,1,1,,,,,,,,,,,,*48
$GPGGA,000258,03018.2653,N,09743.9489,W,1,8,1.1,200.0,M,24.5,M,,0000*5b
$GPGSA,A,3,,,,,,,,,,,,,0.000,0.000,0.000,*1e
$GPGSV,1,1,1,1,1,1,1,,,,,,,,,,,,*48
$GPGSV,1,1,1,1,1,1,1,,,,,,,,,,,,*48
$GPGGA,000259,03018.2723,N,09743.9415,W,1,8,1.1,200.0,M,24.5,M,,0000*59
$GPGSA,A,3,,,,,,,,,,,,,0.000,0.000,0.000,*1e
$GPGSV,1,1,1,1,1,1,1,,,,,,,,,,,,*48
$GPGSV,1,1,1,1,1,1,1,,,,,,,,,,,,*48
$GPGGA,000260,03018.2785,N,09743.9331,W,1,8,1.1,200.0,M,24.5,M,,0000*5e
$GPGSA,A,3,,,,,,,,,,,,,0.000,0.000,0.000,*1e
$GPGSV,1,1,1,1,1,1,1,,,,,,,,,,,,*48
$GPGSV,1,1,1,1,1,1,1,,,,,,,,,,,,*48
$GPGGA,000261,03018.2836,N,09743.9238,W,1,8,1.1,200.0,M,24.5,M,,0000*50
$GPGSA,A,3,,,,,,,,,,,,,0.000,0.000,0.000,*1e
$GPGSV,1,1,1,1,1,1,1,,,,,,,,,,,,*48
$GPGSV,1,1,1,1,1,1,1,,,,,,,,,,,,*48
$GPGGA,000262,03018.2876,N,09743.9139,W,1,8,1.1,200.0,M,24.5,M,,0000*55
$GPGSA,A,3,,,,,,,,,,,,,0.000,0.000,0.000,*1e
$GPGSV,1,1,1,1,1,1,1,,,,,,,,,,,,*48
$GPGSV,1,1,1,1,1,1,1,,,,,,,,,,,,*48
$GPGGA,000263,03018.2905,N,09743.9036,W,1,8,1.1,200.0,M,24.5,M,,0000*5f
$GPGSA,A,3,,,,,,,,,,,,,0.000,0.000,0.000,*1e
$GPGSV,1,1,1,1,1,1,1,,,,,,,,,,,,*48
$GPGSV,1,1,1,1,1,1,1,,,,,,,,,,,,*48
$GPGGA,000264,03018.2920,N,09743.8929,W,1,8,1.1,200.0,M,24.5,M,,0000*59
$GPGSA,A,3,,,,,,,,,,,,,0.000,0.000,0.000,*1e
$GPGSV,1,1,1,1,1,1,1,,,,,,,,,,,,*48
$GPGSV,1,1,1,1,1,1,1,,,,,,,,,,,,*48
$GPGGA,000265,03018.2923,N,09743.8821,W,1,8,1.1,200.0,M,24.5,M,,0000*52
$GPGSA,A,3,,,,,,,,,,,,,0.000,0.000,0.000,*1e
$GPGSV,1,1,1,1,1,1,1,,,,,,,,,,,,*48
$GPGSV,1,1,1,1,1,1,1,,,,,,,,,,,,*48
$GPGGA,000266,03018.2914,N,09743.8715,W,1,8,1.1,200.0,M,24.5,M,,0000*5d
$GPGSA,A,3,,,,,,,,,,,,,0.000,0.000,0.000,*1e
$GPGSV,1,1,1,1,1,1,1,,,,,,,,,,,,*48
$GPGSV,1,1,1,1,1,1,1,,,,,,,,,,,,*48
$GPGGA,000267,03018.2892,N,09743.8612,W,1,8,1.1,200.0,M,24.5,M,,0000*55
$GPGSA,A,3,,,,,,,,,,,,,0.000,0.000,0.000,*1e
$GPGSV,1,1,1,1,1,1,1,,,,,,,,,,,,*48
$GPGSV,1,1,1,1,1,1,1,,,,,,,,,,,,*48
$GPGGA,000268,03018.2858,N,09743.8515,W,1,8,1.1,200.0,M,24.5,M,,0000*58
$GPGSA,A,3,,,,,,,,,,,,,0.000,0.000,0.000,*1e
$GPGSV,1,1,1,1,1,1,1,,,,,,,,,,,,*48
$GPGSV,1,1,1,1,1,1,1,,,,,,,,,,,,*48
$GPGGA,000269,03018.2814,N,09743.8424,W,1,8,1.1,200.0,M,24.5,M,,0000*52
$GPGSA,A,3,,,,,,,,,,,,,0.000,0.000,0.000,*1e
$GPGSV,1,1,1,1,1,1,1,,,,,,,,,,,,*48
$GPGSV,1,1,1,1,1,1,1,,,,,,,,,,,,*48
$GPGGA,000270,03018.2759,N,09743.8342,W,1,8,1.1,200.0,M,24.5,M,,0000*5b
$GPGSA,A,3,,,,,,,,,,,,,0.000,0.000,0.000,*1e
$GPGSV,1,1,1,1,1,1,1,,,,,,,,,,,,*48
$GPGSV,1,1,1,1,1,1,1,,,,,,,,,,,,*48
$GPGGA,000271,03018.2695,N,09743.8271,W,1,8,1.1,200.0,M,24.5,M,,0000*5a
$GPGSA,A,3,,,,,,,,,,,,,0.000,0.000,0.000,*1e
$GPGSV,1,1,1,1,1,1,1,,,,,,,,,,,,*48
$GPGSV,1,1,1,1,1,1,1,,,,,,,,,,,,*48
$GPGGA,000272,03018.2624,N,09743.8211,W,1,8,1.1,200.0,M,24.5,M,,0000*55
$GPGSA,A,3,,,,,,,,,,,,,0.000,0.000,0.000,*1e
$GPGSV,1,1,1,1,1,1,1,,,,,,,,,,,,*48
$GPGSV,1,1,1,1,1,1,1,,,,,,,,,,,,*48
$GPGGA,000273,03018.2546,N,09743.8164,W,1,8,1.1,200.0,M,24.5,M,,0000*52
$GPGSA,A,3,,,,,,,,,,,,,0.000,0.000,0.000,*1e
$GPGSV,1,1,1,1,1,1,1,,,,,,,,,,,,*48
$GPGSV,1,1,1,1,1,1,1,,,,,,,,,,,,*48
$GPGGA,000274,03018.2464,N,09743.8130,W,1,8,1.1,200.0,M,24.5,M,,0000*55
$GPGSA,A,3,,,,,,,,,,,,,0.000,0.000,0.000,*1e
$GPGSV,1,1,1,1,1,1,1,,,,,,,,,,,,*48
$GPGSV,1,1,1,1,1,1,1,,,,,,,,,,,,*48
$GPGGA,000275,03018.2380,N,09743.8111,W,1,8,1.1,200.0,M,24.5,M,,0000*5a
$GPGSA,A,3,,,,,,,,,,,,,0.000,0.000,0.000,*1e
$GPGSV,1,1,1,1,1,1,1,,,,,,,,,,,,*48
$GPGSV,1,1,1,1,1,1,1,,,,,,,,,,,,*48
$GPGGA,000276,03018.2294,N,09743.8106,W,1,8,1.1,200.0,M,24.5,M,,0000*5b
$GPGSA,A,3,,,,,,,,,,,,,0.000,0.000,0.000,*1e
$GPGSV,1,1,1,1,1,1,1,,,,,,,,,,,,*48
$GPGSV,1,1,1,1,1,1,1,,,,,,,,,,,,*48
$GPGGA,000277,03018.2209,N,09743.8116,W,1,8,1.1,200.0,M,24.5,M,,0000*5f
$GPGSA,A,3,,,,,,,,,,,,,0.000,0.000,0.000,*1e
$GPGSV,1,1,1,1,1,1,1,,,,,,,,,,,,*48
$GPGSV,1,1,1,1,1,1,1,,,,,,,,,,,,*48
$GPGGA,000278,03018.2126,N,09743.8140,W,1,8,1.1,200.0,M,24.5,M,,0000*5d
$GPGSA,A,3,,,,,,,,,,,,,0.000,0.000,0.000,*1e
$GPGSV,1,1,1,1,1,1,1,,,,,,,,,,,,*48
$GPGSV,1,1,1,1,1,1,1,,,,,,,,,,,,*48
$GPGGA,000279,03018.2047,N,09743.8178,W,1,8,1.1,200.0,M,24.5,M,,0000*51
$GPGSA,A,3,,,,,,,,,,,,,0.000,0.000,0.000,*1e
$GPGSV,1,1,1,1,1,1,1,,,,,,,,,,,,*48
$GPGSV,1,1,1,1,1,1,1,,,,,,,,,,,,*48
$GPGGA,000280,03018.1974,N,09743.8228,W,1,8,1.1,200.0,M,24.5,M,,0000*5b
$GPGSA,A,3,,,,,,,,,,,,,0.000,0.000,0.000,*1e
$GPGSV,1,1,1,1,1,1,1,,,,,,,,,,,,*48
$GPGSV,1,1,1,1,1,1,1,,,,,,,,,,,,*48
$GPGGA,000281,03018.1908,N,09743.8291,W,1,8,1.1,200.0,M,24.5,M,,0000*53
$GPGSA,A,3,,,,,,,,,,,,,0.000,0.000,0.000,*1e
$GPGSV,1,1,1,1,1,1,1,,,,,,,,,,,,*48
$GPGSV,1,1,1,1,1,1,1,,,,,,,,,,,,*48
$GPGGA,000282,03018.1851,N,09743.8364,W,1,8,1.1,200.0,M,24.5,M,,0000*56
$GPGSA,A,3,,,,,,,,,,,,,0.000,0.000,0.000,*1e
$GPGSV,1,1,1,1,1,1,1,,,,,,,,,,,,*48
$GPGSV,1,1,1,1,1,1,1,,,,,,,,,,,,*48
$GPGGA,000283,03018.1804,N,09743.8447,W,1,8,1.1,200.0,M,24.5,M,,0000*51
$GPGSA,A,3,,,,,,,,,,,,,0.000,0.000,0.000,*1e
$GPGSV,1,1,1,1,1,1,1,,,,,,,,,,,,*48
$GPGSV,1,1,1,1,1,1,1,,,,,,,,,,,,*48
$GPGGA,000284,03018.1767,N,09743.8537,W,1,8,1.1,200.0,M,24.5,M,,0000*5a
$GPGSA,A,3,,,,,,,,,,,,,0.000,0.000,0.000,*1e
$GPGSV,1,1,1,1,1,1,1,,,,,,,,,,,,*48
$GPGSV,1,1,1,1,1,1,1,,,,,,,,,,,,*48
$GPGGA,000285,03018.1742,N,09743.8632,W,1,8,1.1,200.0,M,24.5,M,,0000*5a
$GPGSA,A,3,,,,,,,,,,,,,0.000,0.000,0.000,*1e
$GPGSV,1,1,1,1,1,1,1,,,,,,,,,,,,*48
$GPGSV,1,1,1,1,1,1,1,,,,,,,,,,,,*48
$GPGGA,000286,03018.1730,N,09743.8732,W,1,8,1.1,200.0,M,24.5,M,,0000*5d
$GPGSA,A,3,,,,,,,,,,,,,0.000,0.000,0.000,*1e
$GPGSV,1,1,1,1,1,1,1,,,,,,,,,,,,*48
$GPGSV,1,1,1,1,1,1,1,,,,,,,,,,,,*48
$GPGGA,000287,03018.1730,N,09743.8833,W,1,8,1.1,200.0,M,24.5,M,,0000*52
$GPGSA,A,3,,,,,,,,,,,,,0.000,0.000,0.000,*1e
$GPGSV,1,1,1,1,1,1,1,,,,,,,,,,,,*48
$GPGSV,1,1,1,1,1,1,1,,,,,,,,,,,,*48
$GPGGA,000288,03018.1742,N,09743.8934,W,1,8,1.1,200.0,M,24.5,M,,0000*5e
$GPGSA,A,3,,,,,,,,,,,,,0.000,0.000,0.000,*1e
$GPGSV,1,1,1,1,1,1,1,,,,,,,,,,,,*48
$GPGSV,1,1,1,1,1,1,1,,,,,,,,,,,,*48
$GPGGA,000289,03018.1767,N,09743.9033,W,1,8,1.1,200.0,M,24.5,M,,0000*57
$GPGSA,A,3,,,,,,,,,,,,,0.000,0.000,0.000,*1e
$GPGSV,1,1,1,1,1,1,1,,,,,,,,,,,,*48
$GPGSV,1,1,1,1,1,1,1,,,,,,,,,,,,*48
$GPGGA,000290,03018.1804,N,09743.9127,W,1,8,1.1,200.0,M,24.5,M,,0000*51
$GPGSA,A,3,,,,,,,,,,,,,0.000,0.000,0.000,*1e
$GPGSV,1,1,1,1,1,1,1,,,,,,,,,,,,*48
$GPGSV,1,1,1,1,1,1,1,,,,,,,,,,,,*48
$GPGGA,000291,03018.1853,N,09743.9216,W,1,8,1.1,200.0,M,24.5,M,,0000*53
$GPGSA,A,3,,,,,,,,,,,,,0.000,0.000,0.000,*1e
$GPGSV,1,1,1,1,1,1,1,,,,,,,,,,,,*48
$GPGSV,1,1,1,1,1,1,1,,,,,,,,,,,,*48
$GPGGA,000292,03018.1912,N,09743.9297,W,1,8,1.1,200.0,M,24.5,M,,0000*5d
$GPGSA,A,3,,,,,,,,,,,,,0.000,0.000,0.000,*1e
$GPGSV,1,1,1,1,1,1,1,,,,,,,,,,,,*48
$GPGSV,1,1,1,1,1,1,1,,,,,,,,,,,,*48
$GPGGA,000293,03018.1981,N,09743.9367,W,1,8,1.1,200.0,M,24.5,M,,0000*58
$GPGSA,A,3,,,,,,,,,,,,,0.000,0.000,0.000,*1e
$GPGSV,1,1,1,1,1,1,1,,,,,,,,,,,,*48
$GPGSV,1,1,1,1,1,1,1,,,,,,,,,,,,*48
$GPGGA,000294,03018.2058,N,09743.9427,W,1,8,1.1,200.0,M,24.5,M,,0000*52
$GPGSA,A,3,,,,,,,,,,,,,0.000,0.000,0.000,*1e
$GPGSV,1,1,1,1,1,1,1,,,,,,,,,,,,*48
$GPGSV,1,1,1,1,1,1,1,,,,,,,,,,,,*48
$GPGGA,000295,03018.2141,N,09743.9475,W,1,8,1.1,200.0,M,24.5,M,,0000*5d
$GPGSA,A,3,,,,,,,,,,,,,0.000,0.000,0.000,*1e
$GPGSV,1,1,1,1,1,1,1,,,,,,,,,,,,*48
$GPGSV,1,1,1,1,1,1,1,,,,,,,,,,,,*48
$GPGGA,000296,03018.2231,N,09743.9509,W,1,8,1.1,200.0,M,24.5,M,,0000*50
$GPGSA,A,3,,,,,,,,,,,,,0.000,0.000,0.000,*1e
$GPGSV,1,1,1,1,1,1,1,,,,,,,,,,,,*48
$GPGSV,1,1,1,1,1,1,1,,,,,,,,,,,,*48
$GPGGA,000297,03018.2324,N,09743.9529,W,1,8,1.1,200.0,M,24.5,M,,0000*56
$GPGSA,A,3,,,,,,,,,,,,,0.000,0.000,0.000,*1e
$GPGSV,1,1,1,1,1,1,1,,,,,,,,,,,,*48
$GPGSV,1,1,1,1,1,1,1,,,,,,,,,,,,*48
$GPGGA,000298,03018.2419,N,09743.9536,W,1,8,1.1,200.0,M,24.5,M,,0000*5e
$GPGSA,A,3,,,,,,,,,,,,,0.000,0.000,0.000,*1e
$GPGSV,1,1,1,1,1,1,1,,,,,,,,,,,,*48
$GPGSV,1,1,1,1,1,1,1,,,,,,,,,,,,*48
$GPGGA,000299,03018.2514,N,09743.9527,W,1,8,1.1,200.0,M,24.5,M,,0000*53
$GPGSA,A,3,,,,,,,,,,,,,0.000,0.000,0.000,*1e
$GPGSV,1,1,1,1,1,1,1,,,,,,,,,,,,*48
$GPGSV,1,1,1,1,1,1,1,,,,,,,,,,,,*48
$GPGGA,000300,03018.2608,N,09743.9504,W,1,8,1.1,200.0,M,24.5,M,,0000*5d
$GPGSA,A,3,,,,,,,,,,,,,0.000,0.000,0.000,*1e
$GPGSV,1,1,1,1,1,1,1,,,,,,,,,,,,*48
$GPGSV,1,1,1,1,1,1,1,,,,,,,,,,,,*48
$GPGGA,000301,03018.2698,N,09743.9468,W,1,8,1.1,200.0,M,24.5,M,,0000*5e
$GPGSA,A,3,,,,,,,,,,,,,0.000,0.000,0.000,*1e
$GPGSV,1,1,1,1,1,1,1,,,,,,,,,,,,*48
$GPGSV,1,1,1,1,1,1,1,,,,,,,,,,,,*48
$GPGGA,000302,03018.2783,N,09743.9417,W,1,8,1.1,200.0,M,24.5,M,,0000*5e
$GPGSA,A,3,,,,,,,,,,,,,0.000,0.000,0.000,*1e
$GPGSV,1,1,1,1,1,1,1,,,,,,,,,,,,*48
$GPGSV,1,1,1,1,1,1,1,,,,,,,,,,,,*48
$GPGGA,000303,03018.2862,N,09743.9354,W,1,8,1.1,200.0,M,24.5,M,,0000*5f
$GPGSA,A,3,,,,,,,,,,,,,0.000,0.000,0.000,*1e
$GPGSV,1,1,1,1,1,1,1,,,,,,,,,,,,*48
$GPGSV,1,1,1,1,1,1,1,,,,,,,,,,,,*48
$GPGGA,000304,03018.2933,N,09743.9280,W,1,8,1.1,200.0,M,24.5,M,,0000*55
$GPGSA,A,3,,,,,,,,,,,,,0.000,0.000,0.000,*1e
$GPGSV,1,1,1,1,1,1,1,,,,,,,,,,,,*48
$GPGSV,1,1,1,1,1,1,1,,,,,,,,,,,,*48
$GPGGA,000305,03018.2995,N,09743.9196,W,1,8,1.1,200.0,M,24.5,M,,0000*5c
$GPGSA,A,3,,,,,,,,,,,,,0.000,0.000,0.000,*1e
$GPGSV,1,1,1,1,1,1,1,,,,,,,,,,,,*48
$GPGSV,1,1,1,1,1,1,1,,,,,,,,,,,,*48
$GPGGA,000306,03018.3046,N,09743.9103,W,1,8,1.1,200.0,M,24.5,M,,0000*55
$GPGSA,A,3,,,,,,,,,,,,,0.000,0.000,0.000,*1e
$GPGSV,1,1,1,1,1,1,1,,,,,,,,,,,,*48
$GPGSV,1,1,1,1,1,1,1,,,,,,,,,,,,*48
$GPGGA,000307,03018.3086,N,09743.9004,W,1,8,1.1,200.0,M,24.5,M,,0000*5e
$GPGSA,A,3,,,,,,,,,,,,,0.000,0.000,0.000,*1e
$GPGSV,1,1,1,1,1,1,1,,,,,,,,,,,,*48
$GPGSV,1,1,1,1,1,1,1,,,,,,,,,,,,*48
$GPGGA,000308,03018.3114,N,09743.8900,W,1,8,1.1,200.0,M,24.5,M,,0000*57
$GPGSA,A,3,,,,,,,,,,,,,0.000,0.000,0.000,*1e
$GPGSV,1,1,1,1,1,1,1,,,,,,,,,,,,*48
$GPGSV,1,1,1,1,1,1,1,,,,,,,,,,,,*48
$GPGGA,000309,03018.3130,N,09743.8793,W,1,8,1.1,200.0,M,24.5,M,,0000*54
$GPGSA,A,3,,,,,,,,,,,,,0.000,0.000,0.000,*1e
$GPGSV,1,1,1,1,1,1,1,,,,,,,,,,,,*48
$GPGSV,1,1,1,1,1,1,1,,,,,,,,,,,,*48
$GPGGA,000310,03018.3133,N,09743.8686,W,1,8,1.1,200.0,M,24.5,M,,0000*5a
$GPGSA,A,3,,,,,,,,,,,,,0.000,0.000,0.000,*1e
$GPGSV,1,1,1,1,1,1,1,,,,,,,,,,,,*48
$GPGSV,1,1,1,1,1,1,1,,,,,,,,,,,,*48
$GPGGA,000311,03018.3124,N,09743.8580,W,1,8,1.1,200.0,M,24.5,M,,0000*58
$GPGSA,A,3,,,,,,,,,,,,,0.000,0.000,0.000,*1e
$GPGSV,1,1,1,1,1,1,1,,,,,,,,,,,,*48
$GPGSV,1,1,1,1,1,1,1,,,,,,,,,,,,*48
$GPGGA,000312,03018.3101,N,09743.8477,W,1,8,1.1,200.0,M,24.5,M,,0000*55
$GPGSA,A,3,,,,,,,,,,,,,0.000,0.000,0.000,*1e
$GPGSV,1,1,1,1,1,1,1,,,,,,,,,,,,*48
$GPGSV,1,1,1,1,1,1,1,,,,,,,,,,,,*48
$GPGGA,000313,03018.3068,N,09743.8380,W,1,8,1.1,200.0,M,24.5,M,,0000*55
$GPGSA,A,3,,,,,,,,,,,,,0.000,0.000,0.000,*1e
$GPGSV,1,1,1,1,1,1,1,,,,,,,,,,,,*48
$GPGSV,1,1,1,1,1,1,1,,,,,,,,,,,,*48
$GPGGA,000314,03018.3023,N,09743.8289,W,1,8,1.1,200.0,M,24.5,M,,0000*55
$GPGSA,A,3,,,,,,,,,,,,,0.000,0.000,0.000,*1e
$GPGSV,1,1,1,1,1,1,1,,,,,,,,,,,,*48
$GPGSV,1,1,1,1,1,1,1,,,,,,,,,,,,*48
$GPGGA,000315,03018.2968,N,09743.8208,W,1,8,1.1,200.0,M,24.5,M,,0000*5a
$GPGSA,A,3,,,,,,,,,,,,,0.000,0.000,0.000,*1e
$GPGSV,1,1,1,1,1,1,1,,,,,,,,,,,,*48
$GPGSV,1,1,1,1,1,1,1,,,,,,,,,,,,*48
$GPGGA,000316,03018.2904,N,09743.8136,W,1,8,1.1,200.0,M,24.5,M,,0000*5d
$GPGSA,A,3,,,,,,,,,,,,,0.000,0.000,0.000,*1e
$GPGSV,1,1,1,1,1,1,1,,,,,,,,,,,,*48
$GPGSV,1,1,1,1,1,1,1,,,,,,,,,,,,*48
$GPGGA,000317,03018.2833,N,09743.8077,W,1,8,1.1,200.0,M,24.5,M,,0000*5d
