$GPGGA,000000,03018.1402,N,09744.0220,W,1,8,1.1,1.5,M,24.5,M,,0000*5c
$GPGSA,A,3,,,,,,,,,,,,,0.000,0.000,0.000,*1e
$GPGSV,1,1,1,1,1,1,1,,,,,,,,,,,,*48
$GPGSV,1,1,1,1,1,1,1,,,,,,,,,,,,*48
$GPGGA,000001,03018.1402,N,09744.0220,W,1,8,1.1,1.5,M,24.5,M,,0000*5d
$GPGSA,A,3,,,,,,,,,,,,,0.000,0.000,0.000,*1e
$GPGSV,1,1,1,1,1,1,1,,,,,,,,,,,,*48
$GPGSV,1,1,1,1,1,1,1,,,,,,,,,,,,*48
$GPGGA,000002,03018.1402,N,09744.0220,W,1,8,1.1,1.5,M,24.5,M,,0000*5e
$GPGSA,A,3,,,,,,,,,,,,,0.000,0.000,0.000,*1e
$GPGSV,1,1,1,1,1,1,1,,,,,,,,,,,,*48
$GPGSV,1,1,1,1,1,1,1,,,,,,,,,,,,*48
$GPGGA,000003,03018.1402,N,09744.0220,W,1,8,1.1,1.5,M,24.5,M,,0000*5f
$GPGSA,A,3,,,,,,,,,,,,,0.000,0.000,0.000,*1e
$GPGSV,1,1,1,1,1,1,1,,,,,,,,,,,,*48
$GPGSV,1,1,1,1,1,1,1,,,,,,,,,,,,*48
$GPGGA,000004,03018.1402,N,09744.0220,W,1,8,1.1,1.5,M,24.5,M,,0000*58
$GPGSA,A,3,,,,,,,,,,,,,0.000,0.000,0.000,*1e
$GPGSV,1,1,1,1,1,1,1,,,,,,,,,,,,*48
$GPGSV,1,1,1,1,1,1,1,,,,,,,,,,,,*48
$GPGGA,000005,03018.1402,N,09744.0220,W,1,8,1.1,1.5,M,24.5,M,,0000*59
$GPGSA,A,3,,,,,,,,,,,,,0.000,0.000,0.000,*1e
$GPGSV,1,1,1,1,1,1,1,,,,,,,,,,,,*48
$GPGSV,1,1,1,1,1,1,1,,,,,,,,,,,,*48
$GPGGA,000006,03018.1402,N,09744.0220,W,1,8,1.1,1.5,M,24.5,M,,0000*5a
$GPGSA,A,3,,,,,,,,,,,,,0.000,0.000,0.000,*1e
$GPGSV,1,1,1,1,1,1,1,,,,,,,,,,,,*48
$GPGSV,1,1,1,1,1,1,1,,,,,,,,,,,,*48
$GPGGA,000007,03018.1402,N,09744.0220,W,1,8,1.1,1.5,M,24.5,M,,0000*5b
$GPGSA,A,3,,,,,,,,,,,,,0.000,0.000,0.000,*1e
$GPGSV,1,1,1,1,1,1,1,,,,,,,,,,,,*48
$GPGSV,1,1,1,1,1,1,1,,,,,,,,,,,,*48
$GPGGA,000008,03018.1402,N,09744.0220,W,1,8,1.1,1.5,M,24.5,M,,0000*54
$GPGSA,A,3,,,,,,,,,,,,,0.000,0.000,0.000,*1e
$GPGSV,1,1,1,1,1,1,1,,,,,,,,,,,,*48
$GPGSV,1,1,1,1,1,1,1,,,,,,,,,,,,*48
$GPGGA,000009,03018.1402,N,09744.0220,W,1,8,1.1,1.5,M,24.5,M,,0000*55
$GPGSA,A,3,,,,,,,,,,,,,0.000,0.000,0.000,*1e
$GPGSV,1,1,1,1,1,1,1,,,,,,,,,,,,*48
$GPGSV,1,1,1,1,1,1,1,,,,,,,,,,,,*48
$GPGGA,000010,03018.1402,N,09744.0220,W,1,8,1.1,1.5,M,24.5,M,,0000*5d
$GPGSA,A,3,,,,,,,,,,,,,0.000,0.000,0.000,*1e
$GPGSV,1,1,1,1,1,1,1,,,,,,,,,,,,*48
$GPGSV,1,1,1,1,1,1,1,,,,,,,,,,,,*48
$GPGGA,000011,03018.1402,N,09744.0220,W,1,8,1.1,1.5,M,24.5,M,,0000*5c
$GPGSA,A,3,,,,,,,,,,,,,0.000,0.000,0.000,*1e
$GPGSV,1,1,1,1,1,1,1,,,,,,,,,,,,*48
$GPGSV,1,1,1,1,1,1,1,,,,,,,,,,,,*48
$GPGGA,000012,03018.1402,N,09744.0220,W,1,8,1.1,1.5,M,24.5,M,,0000*5f
$GPGSA,A,3,,,,,,,,,,,,,0.000,0.000,0.000,*1e
$GPGSV,1,1,1,1,1,1,1,,,,,,,,,,,,*48
$GPGSV,1,1,1,1,1,1,1,,,,,,,,,,,,*48
$GPGGA,000013,03018.1402,N,09744.0220,W,1,8,1.1,1.5,M,24.5,M,,0000*5e
$GPGSA,A,3,,,,,,,,,,,,,0.000,0.000,0.000,*1e
$GPGSV,1,1,1,1,1,1,1,,,,,,,,,,,,*48
$GPGSV,1,1,1,1,1,1,1,,,,,,,,,,,,*48
$GPGGA,000014,03018.1402,N,09744.0220,W,1,8,1.1,1.5,M,24.5,M,,0000*59
$GPGSA,A,3,,,,,,,,,,,,,0.000,0.000,0.000,*1e
$GPGSV,1,1,1,1,1,1,1,,,,,,,,,,,,*48
$GPGSV,1,1,1,1,1,1,1,,,,,,,,,,,,*48
$GPGGA,000015,03018.1407,N,09744.0217,W,1,8,1.1,1.5,M,24.5,M,,0000*59
$GPGSA,A,3,,,,,,,,,,,,,0.000,0.000,0.000,*1e
$GPGSV,1,1,1,1,1,1,1,,,,,,,,,,,,*48
$GPGSV,1,1,1,1,1,1,1,,,,,,,,,,,,*48
$GPGGA,000016,03018.1411,N,09744.0214,W,1,8,1.1,1.5,M,24.5,M,,0000*5e
$GPGSA,A,3,,,,,,,,,,,,,0.000,0.000,0.000,*1e
$GPGSV,1,1,1,1,1,1,1,,,,,,,,,,,,*48
$GPGSV,1,1,1,1,1,1,1,,,,,,,,,,,,*48
$GPGGA,000017,03018.1416,N,09744.0211,W,1,8,1.1,1.5,M,24.5,M,,0000*5d
$GPGSA,A,3,,,,,,,,,,,,,0.000,0.000,0.000,*1e
$GPGSV,1,1,1,1,1,1,1,,,,,,,,,,,,*48
$GPGSV,1,1,1,1,1,1,1,,,,,,,,,,,,*48
$GPGGA,000018,03018.1421,N,09744.0208,W,1,8,1.1,1.5,M,24.5,M,,0000*5e
$GPGSA,A,3,,,,,,,,,,,,,0.000,0.000,0.000,*1e
$GPGSV,1,1,1,1,1,1,1,,,,,,,,,,,,*48
$GPGSV,1,1,1,1,1,1,1,,,,,,,,,,,,*48
$GPGGA,000019,03018.1426,N,09744.0205,W,1,8,1.1,1.5,M,24.5,M,,0000*55
$GPGSA,A,3,,,,,,,,,,,,,0.000,0.000,0.000,*1e
$GPGSV,1,1,1,1,1,1,1,,,,,,,,,,,,*48
$GPGSV,1,1,1,1,1,1,1,,,,,,,,,,,,*48
$GPGGA,000020,03018.1430,N,09744.0202,W,1,8,1.1,1.5,M,24.5,M,,0000*5f
$GPGSA,A,3,,,,,,,,,,,,,0.000,0.000,0.000,*1e
$GPGSV,1,1,1,1,1,1,1,,,,,,,,,,,,*48
$GPGSV,1,1,1,1,1,1,1,,,,,,,,,,,,*48
$GPGGA,000021,03018.1435,N,09744.0199,W,1,8,1.1,1.5,M,24.5,M,,0000*5a
$GPGSA,A,3,,,,,,,,,,,,,0.000,0.000,0.000,*1e
$GPGSV,1,1,1,1,1,1,1,,,,,,,,,,,,*48
$GPGSV,1,1,1,1,1,1,1,,,,,,,,,,,,*48
$GPGGA,000022,03018.1439,N,09744.0196,W,1,8,1.1,1.5,M,24.5,M,,0000*5a
$GPGSA,A,3,,,,,,,,,,,,,0.000,0.000,0.000,*1e
$GPGSV,1,1,1,1,1,1,1,,,,,,,,,,,,*48
$GPGSV,1,1,1,1,1,1,1,,,,,,,,,,,,*48
$GPGGA,000023,03018.1444,N,09744.0194,W,1,8,1.1,1.5,M,24.5,M,,0000*53
$GPGSA,A,3,,,,,,,,,,,,,0.000,0.000,0.000,*1e
$GPGSV,1,1,1,1,1,1,1,,,,,,,,,,,,*48
$GPGSV,1,1,1,1,1,1,1,,,,,,,,,,,,*48
$GPGGA,000024,03018.1448,N,09744.0191,W,1,8,1.1,1.5,M,24.5,M,,0000*5d
$GPGSA,A,3,,,,,,,,,,,,,0.000,0.000,0.000,*1e
$GPGSV,1,1,1,1,1,1,1,,,,,,,,,,,,*48
$GPGSV,1,1,1,1,1,1,1,,,,,,,,,,,,*48
$GPGGA,000025,03018.1453,N,09744.0188,W,1,8,1.1,1.5,M,24.5,M,,0000*5e
$GPGSA,A,3,,,,,,,,,,,,,0.000,0.000,0.000,*1e
$GPGSV,1,1,1,1,1,1,1,,,,,,,,,,,,*48
$GPGSV,1,1,1,1,1,1,1,,,,,,,,,,,,*48
$GPGGA,000026,03018.1458,N,09744.0185,W,1,8,1.1,1.5,M,24.5,M,,0000*5b
$GPGSA,A,3,,,,,,,,,,,,,0.000,0.000,0.000,*1e
$GPGSV,1,1,1,1,1,1,1,,,,,,,,,,,,*48
$GPGSV,1,1,1,1,1,1,1,,,,,,,,,,,,*48
$GPGGA,000027,03018.1462,N,09744.0182,W,1,8,1.1,1.5,M,24.5,M,,0000*54
$GPGSA,A,3,,,,,,,,,,,,,0.000,0.000,0.000,*1e
$GPGSV,1,1,1,1,1,1,1,,,,,,,,,,,,*48
$GPGSV,1,1,1,1,1,1,1,,,,,,,,,,,,*48
$GPGGA,000028,03018.1467,N,09744.0179,W,1,8,1.1,1.5,M,24.5,M,,0000*5a
$GPGSA,A,3,,,,,,,,,,,,,0.000,0.000,0.000,*1e
$GPGSV,1,1,1,1,1,1,1,,,,,,,,,,,,*48
$GPGSV,1,1,1,1,1,1,1,,,,,,,,,,,,*48
$GPGGA,000029,03018.1472,N,09744.0176,W,1,8,1.1,1.5,M,24.5,M,,0000*50
$GPGSA,A,3,,,,,,,,,,,,,0.000,0.000,0.000,*1e
$GPGSV,1,1,1,1,1,1,1,,,,,,,,,,,,*48
$GPGSV,1,1,1,1,1,1,1,,,,,,,,,,,,*48
$GPGGA,000030,03018.1476,N,09744.0173,W,1,8,1.1,1.5,M,24.5,M,,0000*59
$GPGSA,A,3,,,,,,,,,,,,,0.000,0.000,0.000,*1e
$GPGSV,1,1,1,1,1,1,1,,,,,,,,,,,,*48
$GPGSV,1,1,1,1,1,1,1,,,,,,,,,,,,*48
$GPGGA,000031,03018.1481,N,09744.0170,W,1,8,1.1,1.5,M,24.5,M,,0000*53
$GPGSA,A,3,,,,,,,,,,,,,0.000,0.000,0.000,*1e
$GPGSV,1,1,1,1,1,1,1,,,,,,,,,,,,*48
$GPGSV,1,1,1,1,1,1,1,,,,,,,,,,,,*48
$GPGGA,000032,03018.1486,N,09744.0167,W,1,8,1.1,1.5,M,24.5,M,,0000*51
$GPGSA,A,3,,,,,,,,,,,,,0.000,0.000,0.000,*1e
$GPGSV,1,1,1,1,1,1,1,,,,,,,,,,,,*48
$GPGSV,1,1,1,1,1,1,1,,,,,,,,,,,,*48
$GPGGA,000033,03018.1490,N,09744.0164,W,1,8,1.1,1.5,M,24.5,M,,0000*54
$GPGSA,A,3,,,,,,,,,,,,,0.000,0.000,0.000,*1e
$GPGSV,1,1,1,1,1,1,1,,,,,,,,,,,,*48
$GPGSV,1,1,1,1,1,1,1,,,,,,,,,,,,*48
$GPGGA,000034,03018.1495,N,09744.0161,W,1,8,1.1,1.5,M,24.5,M,,0000*53
$GPGSA,A,3,,,,,,,,,,,,,0.000,0.000,0.000,*1e
$GPGSV,1,1,1,1,1,1,1,,,,,,,,,,,,*48
$GPGSV,1,1,1,1,1,1,1,,,,,,,,,,,,*48
$GPGGA,000035,03018.1499,N,09744.0158,W,1,8,1.1,1.5,M,24.5,M,,0000*54
$GPGSA,A,3,,,,,,,,,,,,,0.000,0.000,0.000,*1e
$GPGSV,1,1,1,1,1,1,1,,,,,,,,,,,,*48
$GPGSV,1,1,1,1,1,1,1,,,,,,,,,,,,*48
$GPGGA,000036,03018.1504,N,09744.0155,W,1,8,1.1,1.5,M,24.5,M,,0000*5f
$GPGSA,A,3,,,,,,,,,,,,,0.000,0.000,0.000,*1e
$GPGSV,1,1,1,1,1,1,1,,,,,,,,,,,,*48
$GPGSV,1,1,1,1,1,1,1,,,,,,,,,,,,*48
$GPGGA,000037,03018.1509,N,09744.0152,W,1,8,1.1,1.5,M,24.5,M,,0000*54
$GPGSA,A,3,,,,,,,,,,,,,0.000,0.000,0.000,*1e
$GPGSV,1,1,1,1,1,1,1,,,,,,,,,,,,*48
$GPGSV,1,1,1,1,1,1,1,,,,,,,,,,,,*48
$GPGGA,000038,03018.1513,N,09744.0149,W,1,8,1.1,1.5,M,24.5,M,,0000*5a
$GPGSA,A,3,,,,,,,,,,,,,0.000,0.000,0.000,*1e
$GPGSV,1,1,1,1,1,1,1,,,,,,,,,,,,*48
$GPGSV,1,1,1,1,1,1,1,,,,,,,,,,,,*48
$GPGGA,000039,03018.1518,N,09744.0146,W,1,8,1.1,1.5,M,24.5,M,,0000*5f
$GPGSA,A,3,,,,,,,,,,,,,0.000,0.000,0.000,*1e
$GPGSV,1,1,1,1,1,1,1,,,,,,,,,,,,*48
$GPGSV,1,1,1,1,1,1,1,,,,,,,,,,,,*48
$GPGGA,000040,03018.1523,N,09744.0143,W,1,8,1.1,1.5,M,24.5,M,,0000*5c
$GPGSA,A,3,,,,,,,,,,,,,0.000,0.000,0.000,*1e
$GPGSV,1,1,1,1,1,1,1,,,,,,,,,,,,*48
$GPGSV,1,1,1,1,1,1,1,,,,,,,,,,,,*48
$GPGGA,000041,03018.1527,N,09744.0140,W,1,8,1.1,1.5,M,24.5,M,,0000*5a
$GPGSA,A,3,,,,,,,,,,,,,0.000,0.000,0.000,*1e
$GPGSV,1,1,1,1,1,1,1,,,,,,,,,,,,*48
$GPGSV,1,1,1,1,1,1,1,,,,,,,,,,,,*48
$GPGGA,000042,03018.1532,N,09744.0137,W,1,8,1.1,1.5,M,24.5,M,,0000*5d
$GPGSA,A,3,,,,,,,,,,,,,0.000,0.000,0.000,*1e
$GPGSV,1,1,1,1,1,1,1,,,,,,,,,,,,*48
$GPGSV,1,1,1,1,1,1,1,,,,,,,,,,,,*48
$GPGGA,000043,03018.1537,N,09744.0134,W,1,8,1.1,1.5,M,24.5,M,,0000*5a
$GPGSA,A,3,,,,,,,,,,,,,0.000,0.000,0.000,*1e
$GPGSV,1,1,1,1,1,1,1,,,,,,,,,,,,*48
$GPGSV,1,1,1,1,1,1,1,,,,,,,,,,,,*48
$GPGGA,000044,03018.1541,N,09744.0131,W,1,8,1.1,1.5,M,24.5,M,,0000*59
$GPGSA,A,3,,,,,,,,,,,,,0.000,0.000,0.000,*1e
$GPGSV,1,1,1,1,1,1,1,,,,,,,,,,,,*48
$GPGSV,1,1,1,1,1,1,1,,,,,,,,,,,,*48
$GPGGA,000045,03018.1546,N,09744.0128,W,1,8,1.1,1.5,M,24.5,M,,0000*57
$GPGSA,A,3,,,,,,,,,,,,,0.000,0.000,0.000,*1e
$GPGSV,1,1,1,1,1,1,1,,,,,,,,,,,,*48
$GPGSV,1,1,1,1,1,1,1,,,,,,,,,,,,*48
$GPGGA,000046,03018.1550,N,09744.0125,W,1,8,1.1,1.5,M,24.5,M,,0000*5e
$GPGSA,A,3,,,,,,,,,,,,,0.000,0.000,0.000,*1e
$GPGSV,1,1,1,1,1,1,1,,,,,,,,,,,,*48
$GPGSV,1,1,1,1,1,1,1,,,,,,,,,,,,*48
$GPGGA,000047,03018.1555,N,09744.0123,W,1,8,1.1,1.5,M,24.5,M,,0000*5c
$GPGSA,A,3,,,,,,,,,,,,,0.000,0.000,0.000,*1e
$GPGSV,1,1,1,1,1,1,1,,,,,,,,,,,,*48
$GPGSV,1,1,1,1,1,1,1,,,,,,,,,,,,*48
$GPGGA,000048,03018.1559,N,09744.0120,W,1,8,1.1,1.5,M,24.5,M,,0000*5c
$GPGSA,A,3,,,,,,,,,,,,,0.000,0.000,0.000,*1e
$GPGSV,1,1,1,1,1,1,1,,,,,,,,,,,,*48
$GPGSV,1,1,1,1,1,1,1,,,,,,,,,,,,*48
$GPGGA,000049,03018.1564,N,09744.0117,W,1,8,1.1,1.5,M,24.5,M,,0000*57
$GPGSA,A,3,,,,,,,,,,,,,0.000,0.000,0.000,*1e
$GPGSV,1,1,1,1,1,1,1,,,,,,,,,,,,*48
$GPGSV,1,1,1,1,1,1,1,,,,,,,,,,,,*48
$GPGGA,000050,03018.1569,N,09744.0114,W,1,8,1.1,1.5,M,24.5,M,,0000*51
$GPGSA,A,3,,,,,,,,,,,,,0.000,0.000,0.000,*1e
$GPGSV,1,1,1,1,1,1,1,,,,,,,,,,,,*48
$GPGSV,1,1,1,1,1,1,1,,,,,,,,,,,,*48
$GPGGA,000051,03018.1574,N,09744.0111,W,1,8,1.1,1.5,M,24.5,M,,0000*59
$GPGSA,A,3,,,,,,,,,,,,,0.000,0.000,0.000,*1e
$GPGSV,1,1,1,1,1,1,1,,,,,,,,,,,,*48
$GPGSV,1,1,1,1,1,1,1,,,,,,,,,,,,*48
$GPGGA,000052,03018.1578,N,09744.0108,W,1,8,1.1,1.5,M,24.5,M,,0000*5e
$GPGSA,A,3,,,,,,,,,,,,,0.000,0.000,0.000,*1e
$GPGSV,1,1,1,1,1,1,1,,,,,,,,,,,,*48
$GPGSV,1,1,1,1,1,1,1,,,,,,,,,,,,*48
$GPGGA,000053,03018.1583,N,09744.0105,W,1,8,1.1,1.5,M,24.5,M,,0000*56
$GPGSA,A,3,,,,,,,,,,,,,0.000,0.000,0.000,*1e
$GPGSV,1,1,1,1,1,1,1,,,,,,,,,,,,*48
$GPGSV,1,1,1,1,1,1,1,,,,,,,,,,,,*48
$GPGGA,000054,03018.1588,N,09744.0102,W,1,8,1.1,1.5,M,24.5,M,,0000*5d
$GPGSA,A,3,,,,,,,,,,,,,0.000,0.000,0.000,*1e
$GPGSV,1,1,1,1,1,1,1,,,,,,,,,,,,*48
$GPGSV,1,1,1,1,1,1,1,,,,,,,,,,,,*48
$GPGGA,000055,03018.1592,N,09744.0099,W,1,8,1.1,1.5,M,24.5,M,,0000*54
$GPGSA,A,3,,,,,,,,,,,,,0.000,0.000,0.000,*1e
$GPGSV,1,1,1,1,1,1,1,,,,,,,,,,,,*48
$GPGSV,1,1,1,1,1,1,1,,,,,,,,,,,,*48
$GPGGA,000056,03018.1597,N,09744.0096,W,1,8,1.1,1.5,M,24.5,M,,0000*5d
$GPGSA,A,3,,,,,,,,,,,,,0.000,0.000,0.000,*1e
$GPGSV,1,1,1,1,1,1,1,,,,,,,,,,,,*48
$GPGSV,1,1,1,1,1,1,1,,,,,,,,,,,,*48
$GPGGA,000057,03018.1601,N,09744.0093,W,1,8,1.1,1.5,M,24.5,M,,0000*55
$GPGSA,A,3,,,,,,,,,,,,,0.000,0.000,0.000,*1e
$GPGSV,1,1,1,1,1,1,1,,,,,,,,,,,,*48
$GPGSV,1,1,1,1,1,1,1,,,,,,,,,,,,*48
$GPGGA,000058,03018.1606,N,09744.0090,W,1,8,1.1,1.5,M,24.5,M,,0000*5e
$GPGSA,A,3,,,,,,,,,,,,,0.000,0.000,0.000,*1e
$GPGSV,1,1,1,1,1,1,1,,,,,,,,,,,,*48
$GPGSV,1,1,1,1,1,1,1,,,,,,,,,,,,*48
$GPGGA,000059,03018.1610,N,09744.0087,W,1,8,1.1,1.5,M,24.5,M,,0000*5e
$GPGSA,A,3,,,,,,,,,,,,,0.000,0.000,0.000,*1e
$GPGSV,1,1,1,1,1,1,1,,,,,,,,,,,,*48
$GPGSV,1,1,1,1,1,1,1,,,,,,,,,,,,*48
$GPGGA,000060,03018.1615,N,09744.0084,W,1,8,1.1,1.5,M,24.5,M,,0000*52
$GPGSA,A,3,,,,,,,,,,,,,0.000,0.000,0.000,*1e
$GPGSV,1,1,1,1,1,1,1,,,,,,,,,,,,*48
$GPGSV,1,1,1,1,1,1,1,,,,,,,,,,,,*48
$GPGGA,000061,03018.1620,N,09744.0081,W,1,8,1.1,1.5,M,24.5,M,,0000*50
$GPGSA,A,3,,,,,,,,,,,,,0.000,0.000,0.000,*1e
$GPGSV,1,1,1,1,1,1,1,,,,,,,,,,,,*48
$GPGSV,1,1,1,1,1,1,1,,,,,,,,,,,,*48
$GPGGA,000062,03018.1624,N,09744.0078,W,1,8,1.1,1.5,M,24.5,M,,0000*51
$GPGSA,A,3,,,,,,,,,,,,,0.000,0.000,0.000,*1e
$GPGSV,1,1,1,1,1,1,1,,,,,,,,,,,,*48
$GPGSV,1,1,1,1,1,1,1,,,,,,,,,,,,*48
$GPGGA,000063,03018.1629,N,09744.0075,W,1,8,1.1,1.5,M,24.5,M,,0000*50
$GPGSA,A,3,,,,,,,,,,,,,0.000,0.000,0.000,*1e
$GPGSV,1,1,1,1,1,1,1,,,,,,,,,,,,*48
$GPGSV,1,1,1,1,1,1,1,,,,,,,,,,,,*48
$GPGGA,000064,03018.1634,N,09744.0072,W,1,8,1.1,1.5,M,24.5,M,,0000*5c
$GPGSA,A,3,,,,,,,,,,,,,0.000,0.000,0.000,*1e
$GPGSV,1,1,1,1,1,1,1,,,,,,,,,,,,*48
$GPGSV,1,1,1,1,1,1,1,,,,,,,,,,,,*48
$GPGGA,000065,03018.1639,N,09744.0069,W,1,8,1.1,1.5,M,24.5,M,,0000*5a
$GPGSA,A,3,,,,,,,,,,,,,0.000,0.000,0.000,*1e
$GPGSV,1,1,1,1,1,1,1,,,,,,,,,,,,*48
$GPGSV,1,1,1,1,1,1,1,,,,,,,,,,,,*48
$GPGGA,000066,03018.1643,N,09744.0066,W,1,8,1.1,1.5,M,24.5,M,,0000*5b
$GPGSA,A,3,,,,,,,,,,,,,0.000,0.000,0.000,*1e
$GPGSV,1,1,1,1,1,1,1,,,,,,,,,,,,*48
$GPGSV,1,1,1,1,1,1,1,,,,,,,,,,,,*48
$GPGGA,000067,03018.1648,N,09744.0063,W,1,8,1.1,1.5,M,24.5,M,,0000*54
$GPGSA,A,3,,,,,,,,,,,,,0.000,0.000,0.000,*1e
$GPGSV,1,1,1,1,1,1,1,,,,,,,,,,,,*48
$GPGSV,1,1,1,1,1,1,1,,,,,,,,,,,,*48
$GPGGA,000068,03018.1652,N,09744.0060,W,1,8,1.1,1.5,M,24.5,M,,0000*53
$GPGSA,A,3,,,,,,,,,,,,,0.000,0.000,0.000,*1e
$GPGSV,1,1,1,1,1,1,1,,,,,,,,,,,,*48
$GPGSV,1,1,1,1,1,1,1,,,,,,,,,,,,*48
$GPGGA,000069,03018.1657,N,09744.0057,W,1,8,1.1,1.5,M,24.5,M,,0000*53
$GPGSA,A,3,,,,,,,,,,,,,0.000,0.000,0.000,*1e
$GPGSV,1,1,1,1,1,1,1,,,,,,,,,,,,*48
$GPGSV,1,1,1,1,1,1,1,,,,,,,,,,,,*48
$GPGGA,000070,03018.1661,N,09744.0054,W,1,8,1.1,1.5,M,24.5,M,,0000*5d
$GPGSA,A,3,,,,,,,,,,,,,0.000,0.000,0.000,*1e
$GPGSV,1,1,1,1,1,1,1,,,,,,,,,,,,*48
$GPGSV,1,1,1,1,1,1,1,,,,,,,,,,,,*48
$GPGGA,000071,03018.1666,N,09744.0051,W,1,8,1.1,1.5,M,24.5,M,,0000*5e
$GPGSA,A,3,,,,,,,,,,,,,0.000,0.000,0.000,*1e
$GPGSV,1,1,1,1,1,1,1,,,,,,,,,,,,*48
$GPGSV,1,1,1,1,1,1,1,,,,,,,,,,,,*48
$GPGGA,000072,03018.1671,N,09744.0049,W,1,8,1.1,1.5,M,24.5,M,,0000*52
$GPGSA,A,3,,,,,,,,,,,,,0.000,0.000,0.000,*1e
$GPGSV,1,1,1,1,1,1,1,,,,,,,,,,,,*48
$GPGSV,1,1,1,1,1,1,1,,,,,,,,,,,,*48
$GPGGA,000073,03018.1675,N,09744.0046,W,1,8,1.1,1.5,M,24.5,M,,0000*58
$GPGSA,A,3,,,,,,,,,,,,,0.000,0.000,0.000,*1e
$GPGSV,1,1,1,1,1,1,1,,,,,,,,,,,,*48
$GPGSV,1,1,1,1,1,1,1,,,,,,,,,,,,*48
$GPGGA,000074,03018.1680,N,09744.0043,W,1,8,1.1,1.5,M,24.5,M,,0000*50
$GPGSA,A,3,,,,,,,,,,,,,0.000,0.000,0.000,*1e
$GPGSV,1,1,1,1,1,1,1,,,,,,,,,,,,*48
$GPGSV,1,1,1,1,1,1,1,,,,,,,,,,,,*48
$GPGGA,000075,03018.1685,N,09744.0040,W,1,8,1.1,1.5,M,24.5,M,,0000*57
$GPGSA,A,3,,,,,,,,,,,,,0.000,0.000,0.000,*1e
$GPGSV,1,1,1,1,1,1,1,,,,,,,,,,,,*48
$GPGSV,1,1,1,1,1,1,1,,,,,,,,,,,,*48
$GPGGA,000076,03018.1690,N,09744.0037,W,1,8,1.1,1.5,M,24.5,M,,0000*50
$GPGSA,A,3,,,,,,,,,,,,,0.000,0.000,0.000,*1e
$GPGSV,1,1,1,1,1,1,1,,,,,,,,,,,,*48
$GPGSV,1,1,1,1,1,1,1,,,,,,,,,,,,*48
$GPGGA,000077,03018.1694,N,09744.0034,W,1,8,1.1,1.5,M,24.5,M,,0000*56
$GPGSA,A,3,,,,,,,,,,,,,0.000,0.000,0.000,*1e
$GPGSV,1,1,1,1,1,1,1,,,,,,,,,,,,*48
$GPGSV,1,1,1,1,1,1,1,,,,,,,,,,,,*48
$GPGGA,000078,03018.1699,N,09744.0031,W,1,8,1.1,1.5,M,24.5,M,,0000*51
$GPGSA,A,3,,,,,,,,,,,,,0.000,0.000,0.000,*1e
$GPGSV,1,1,1,1,1,1,1,,,,,,,,,,,,*48
$GPGSV,1,1,1,1,1,1,1,,,,,,,,,,,,*48
$GPGGA,000079,03018.1703,N,09744.0028,W,1,8,1.1,1.5,M,24.5,M,,0000*5a
$GPGSA,A,3,,,,,,,,,,,,,0.000,0.000,0.000,*1e
$GPGSV,1,1,1,1,1,1,1,,,,,,,,,,,,*48
$GPGSV,1,1,1,1,1,1,1,,,,,,,,,,,,*48
$GPGGA,000080,03018.1708,N,09744.0025,W,1,8,1.1,1.5,M,24.5,M,,0000*5a
$GPGSA,A,3,,,,,,,,,,,,,0.000,0.000,0.000,*1e
$GPGSV,1,1,1,1,1,1,1,,,,,,,,,,,,*48
$GPGSV,1,1,1,1,1,1,1,,,,,,,,,,,,*48
$GPGGA,000081,03018.1712,N,09744.0022,W,1,8,1.1,1.5,M,24.5,M,,0000*57
$GPGSA,A,3,,,,,,,,,,,,,0.000,0.000,0.000,*1e
$GPGSV,1,1,1,1,1,1,1,,,,,,,,,,,,*48
$GPGSV,1,1,1,1,1,1,1,,,,,,,,,,,,*48
$GPGGA,000082,03018.1717,N,09744.0019,W,1,8,1.1,1.5,M,24.5,M,,0000*59
$GPGSA,A,3,,,,,,,,,,,,,0.000,0.000,0.000,*1e
$GPGSV,1,1,1,1,1,1,1,,,,,,,,,,,,*48
$GPGSV,1,1,1,1,1,1,1,,,,,,,,,,,,*48
$GPGGA,000083,03018.1722,N,09744.0016,W,1,8,1.1,1.5,M,24.5,M,,0000*51
$GPGSA,A,3,,,,,,,,,,,,,0.000,0.000,0.000,*1e
$GPGSV,1,1,1,1,1,1,1,,,,,,,,,,,,*48
$GPGSV,1,1,1,1,1,1,1,,,,,,,,,,,,*48
$GPGGA,000084,03018.1726,N,09744.0014,W,1,8,1.1,1.5,M,24.5,M,,0000*50
$GPGSA,A,3,,,,,,,,,,,,,0.000,0.000,0.000,*1e
$GPGSV,1,1,1,1,1,1,1,,,,,,,,,,,,*48
$GPGSV,1,1,1,1,1,1,1,,,,,,,,,,,,*48
$GPGGA,000085,03018.1731,N,09744.0011,W,1,8,1.1,1.5,M,24.5,M,,0000*52
$GPGSA,A,3,,,,,,,,,,,,,0.000,0.000,0.000,*1e
$GPGSV,1,1,1,1,1,1,1,,,,,,,,,,,,*48
$GPGSV,1,1,1,1,1,1,1,,,,,,,,,,,,*48
$GPGGA,000086,03018.1736,N,09744.0008,W,1,8,1.1,1.5,M,24.5,M,,0000*5e
$GPGSA,A,3,,,,,,,,,,,,,0.000,0.000,0.000,*1e
$GPGSV,1,1,1,1,1,1,1,,,,,,,,,,,,*48
$GPGSV,1,1,1,1,1,1,1,,,,,,,,,,,,*48
$GPGGA,000087,03018.1740,N,09744.0005,W,1,8,1.1,1.5,M,24.5,M,,0000*53
$GPGSA,A,3,,,,,,,,,,,,,0.000,0.000,0.000,*1e
$GPGSV,1,1,1,1,1,1,1,,,,,,,,,,,,*48
$GPGSV,1,1,1,1,1,1,1,,,,,,,,,,,,*48
$GPGGA,000088,03018.1745,N,09744.0002,W,1,8,1.1,1.5,M,24.5,M,,0000*5e
$GPGSA,A,3,,,,,,,,,,,,,0.000,0.000,0.000,*1e
$GPGSV,1,1,1,1,1,1,1,,,,,,,,,,,,*48
$GPGSV,1,1,1,1,1,1,1,,,,,,,,,,,,*48
$GPGGA,000089,03018.1750,N,09743.9999,W,1,8,1.1,1.5,M,24.5,M,,0000*5e
$GPGSA,A,3,,,,,,,,,,,,,0.000,0.000,0.000,*1e
$GPGSV,1,1,1,1,1,1,1,,,,,,,,,,,,*48
$GPGSV,1,1,1,1,1,1,1,,,,,,,,,,,,*48
$GPGGA,000090,03018.1754,N,09743.9996,W,1,8,1.1,1.5,M,24.5,M,,0000*5d
$GPGSA,A,3,,,,,,,,,,,,,0.000,0.000,0.000,*1e
$GPGSV,1,1,1,1,1,1,1,,,,,,,,,,,,*48
$GPGSV,1,1,1,1,1,1,1,,,,,,,,,,,,*48
$GPGGA,000091,03018.1759,N,09743.9993,W,1,8,1.1,1.5,M,24.5,M,,0000*54
$GPGSA,A,3,,,,,,,,,,,,,0.000,0.000,0.000,*1e
$GPGSV,1,1,1,1,1,1,1,,,,,,,,,,,,*48
$GPGSV,1,1,1,1,1,1,1,,,,,,,,,,,,*48
$GPGGA,000092,03018.1763,N,09743.9990,W,1,8,1.1,1.5,M,24.5,M,,0000*5d
$GPGSA,A,3,,,,,,,,,,,,,0.000,0.000,0.000,*1e
$GPGSV,1,1,1,1,1,1,1,,,,,,,,,,,,*48
$GPGSV,1,1,1,1,1,1,1,,,,,,,,,,,,*48
$GPGGA,000093,03018.1768,N,09743.9987,W,1,8,1.1,1.5,M,24.5,M,,0000*51
$GPGSA,A,3,,,,,,,,,,,,,0.000,0.000,0.000,*1e
$GPGSV,1,1,1,1,1,1,1,,,,,,,,,,,,*48
$GPGSV,1,1,1,1,1,1,1,,,,,,,,,,,,*48
$GPGGA,000094,03018.1772,N,09743.9984,W,1,8,1.1,1.5,M,24.5,M,,0000*5e
$GPGSA,A,3,,,,,,,,,,,,,0.000,0.000,0.000,*1e
$GPGSV,1,1,1,1,1,1,1,,,,,,,,,,,,*48
$GPGSV,1,1,1,1,1,1,1,,,,,,,,,,,,*48
$GPGGA,000095,03018.1777,N,09743.9981,W,1,8,1.1,1.5,M,24.5,M,,0000*5f
$GPGSA,A,3,,,,,,,,,,,,,0.000,0.000,0.000,*1e
$GPGSV,1,1,1,1,1,1,1,,,,,,,,,,,,*48
$GPGSV,1,1,1,1,1,1,1,,,,,,,,,,,,*48
$GPGGA,000096,03018.1782,N,09743.9978,W,1,8,1.1,1.5,M,24.5,M,,0000*50
$GPGSA,A,3,,,,,,,,,,,,,0.000,0.000,0.000,*1e
$GPGSV,1,1,1,1,1,1,1,,,,,,,,,,,,*48
$GPGSV,1,1,1,1,1,1,1,,,,,,,,,,,,*48
$GPGGA,000097,03018.1787,N,09743.9975,W,1,8,1.1,1.5,M,24.5,M,,0000*59
$GPGSA,A,3,,,,,,,,,,,,,0.000,0.000,0.000,*1e
$GPGSV,1,1,1,1,1,1,1,,,,,,,,,,,,*48
$GPGSV,1,1,1,1,1,1,1,,,,,,,,,,,,*48
$GPGGA,000098,03018.1791,N,09743.9972,W,1,8,1.1,1.5,M,24.5,M,,0000*56
$GPGSA,A,3,,,,,,,,,,,,,0.000,0.000,0.000,*1e
$GPGSV,1,1,1,1,1,1,1,,,,,,,,,,,,*48
$GPGSV,1,1,1,1,1,1,1,,,,,,,,,,,,*48
$GPGGA,000099,03018.1796,N,09743.9969,W,1,8,1.1,1.5,M,24.5,M,,0000*5a
$GPGSA,A,3,,,,,,,,,,,,,0.000,0.000,0.000,*1e
$GPGSV,1,1,1,1,1,1,1,,,,,,,,,,,,*48
$GPGSV,1,1,1,1,1,1,1,,,,,,,,,,,,*48
$GPGGA,000100,03018.1801,N,09743.9966,W,1,8,1.1,1.5,M,24.5,M,,0000*55
$GPGSA,A,3,,,,,,,,,,,,,0.000,0.000,0.000,*1e
$GPGSV,1,1,1,1,1,1,1,,,,,,,,,,,,*48
$GPGSV,1,1,1,1,1,1,1,,,,,,,,,,,,*48
$GPGGA,000101,03018.1805,N,09743.9963,W,1,8,1.1,1.5,M,24.5,M,,0000*55
$GPGSA,A,3,,,,,,,,,,,,,0.000,0.000,0.000,*1e
$GPGSV,1,1,1,1,1,1,1,,,,,,,,,,,,*48
$GPGSV,1,1,1,1,1,1,1,,,,,,,,,,,,*48
$GPGGA,000102,03018.1810,N,09743.9960,W,1,8,1.1,1.5,M,24.5,M,,0000*51
$GPGSA,A,3,,,,,,,,,,,,,0.000,0.000,0.000,*1e
$GPGSV,1,1,1,1,1,1,1,,,,,,,,,,,,*48
$GPGSV,1,1,1,1,1,1,1,,,,,,,,,,,,*48
$GPGGA,000103,03018.1814,N,09743.9957,W,1,8,1.1,1.5,M,24.5,M,,0000*50
$GPGSA,A,3,,,,,,,,,,,,,0.000,0.000,0.000,*1e
$GPGSV,1,1,1,1,1,1,1,,,,,,,,,,,,*48
$GPGSV,1,1,1,1,1,1,1,,,,,,,,,,,,*48
$GPGGA,000104,03018.1819,N,09743.9954,W,1,8,1.1,1.5,M,24.5,M,,0000*59
$GPGSA,A,3,,,,,,,,,,,,,0.000,0.000,0.000,*1e
$GPGSV,1,1,1,1,1,1,1,,,,,,,,,,,,*48
$GPGSV,1,1,1,1,1,1,1,,,,,,,,,,,,*48
$GPGGA,000105,03018.1823,N,09743.9951,W,1,8,1.1,1.5,M,24.5,M,,0000*54
$GPGSA,A,3,,,,,,,,,,,,,0.000,0.000,0.000,*1e
$GPGSV,1,1,1,1,1,1,1,,,,,,,,,,,,*48
$GPGSV,1,1,1,1,1,1,1,,,,,,,,,,,,*48
$GPGGA,000106,03018.1828,N,09743.9948,W,1,8,1.1,1.5,M,24.5,M,,0000*54
$GPGSA,A,3,,,,,,,,,,,,,0.000,0.000,0.000,*1e
$GPGSV,1,1,1,1,1,1,1,,,,,,,,,,,,*48
$GPGSV,1,1,1,1,1,1,1,,,,,,,,,,,,*48
$GPGGA,000107,03018.1833,N,09743.9945,W,1,8,1.1,1.5,M,24.5,M,,0000*52
$GPGSA,A,3,,,,,,,,,,,,,0.000,0.000,0.000,*1e
$GPGSV,1,1,1,1,1,1,1,,,,,,,,,,,,*48
$GPGSV,1,1,1,1,1,1,1,,,,,,,,,,,,*48
$GPGGA,000108,03018.1838,N,09743.9943,W,1,8,1.1,1.5,M,24.5,M,,0000*50
$GPGSA,A,3,,,,,,,,,,,,,0.000,0.000,0.000,*1e
$GPGSV,1,1,1,1,1,1,1,,,,,,,,,,,,*48
$GPGSV,1,1,1,1,1,1,1,,,,,,,,,,,,*48
$GPGGA,000109,03018.1842,N,09743.9940,W,1,8,1.1,1.5,M,24.5,M,,0000*5f
$GPGSA,A,3,,,,,,,,,,,,,0.000,0.000,0.000,*1e
$GPGSV,1,1,1,1,1,1,1,,,,,,,,,,,,*48
$GPGSV,1,1,1,1,1,1,1,,,,,,,,,,,,*48
$GPGGA,000110,03018.1847,N,09743.9937,W,1,8,1.1,1.5,M,24.5,M,,0000*52
$GPGSA,A,3,,,,,,,,,,,,,0.000,0.000,0.000,*1e
$GPGSV,1,1,1,1,1,1,1,,,,,,,,,,,,*48
$GPGSV,1,1,1,1,1,1,1,,,,,,,,,,,,*48
$GPGGA,000111,03018.1852,N,09743.9934,W,1,8,1.1,1.5,M,24.5,M,,0000*54
$GPGSA,A,3,,,,,,,,,,,,,0.000,0.000,0.000,*1e
$GPGSV,1,1,1,1,1,1,1,,,,,,,,,,,,*48
$GPGSV,1,1,1,1,1,1,1,,,,,,,,,,,,*48
$GPGGA,000112,03018.1856,N,09743.9931,W,1,8,1.1,1.5,M,24.5,M,,0000*56
$GPGSA,A,3,,,,,,,,,,,,,0.000,0.000,0.000,*1e
$GPGSV,1,1,1,1,1,1,1,,,,,,,,,,,,*48
$GPGSV,1,1,1,1,1,1,1,,,,,,,,,,,,*48
$GPGGA,000113,03018.1861,N,09743.9928,W,1,8,1.1,1.5,M,24.5,M,,0000*5b
$GPGSA,A,3,,,,,,,,,,,,,0.000,0.000,0.000,*1e
$GPGSV,1,1,1,1,1,1,1,,,,,,,,,,,,*48
$GPGSV,1,1,1,1,1,1,1,,,,,,,,,,,,*48
$GPGGA,000114,03018.1865,N,09743.9925,W,1,8,1.1,1.5,M,24.5,M,,0000*55
$GPGSA,A,3,,,,,,,,,,,,,0.000,0.000,0.000,*1e
$GPGSV,1,1,1,1,1,1,1,,,,,,,,,,,,*48
$GPGSV,1,1,1,1,1,1,1,,,,,,,,,,,,*48
$GPGGA,000115,03018.1870,N,09743.9922,W,1,8,1.1,1.5,M,24.5,M,,0000*57
$GPGSA,A,3,,,,,,,,,,,,,0.000,0.000,0.000,*1e
$GPGSV,1,1,1,1,1,1,1,,,,,,,,,,,,*48
$GPGSV,1,1,1,1,1,1,1,,,,,,,,,,,,*48
$GPGGA,000116,03018.1874,N,09743.9919,W,1,8,1.1,1.5,M,24.5,M,,0000*58
$GPGSA,A,3,,,,,,,,,,,,,0.000,0.000,0.000,*1e
$GPGSV,1,1,1,1,1,1,1,,,,,,,,,,,,*48
$GPGSV,1,1,1,1,1,1,1,,,,,,,,,,,,*48
$GPGGA,000117,03018.1879,N,09743.9916,W,1,8,1.1,1.5,M,24.5,M,,0000*5b
$GPGSA,A,3,,,,,,,,,,,,,0.000,0.000,0.000,*1e
$GPGSV,1,1,1,1,1,1,1,,,,,,,,,,,,*48
$GPGSV,1,1,1,1,1,1,1,,,,,,,,,,,,*48
$GPGGA,000118,03018.1884,N,09743.9913,W,1,8,1.1,1.5,M,24.5,M,,0000*53
$GPGSA,A,3,,,,,,,,,,,,,0.000,0.000,0.000,*1e
$GPGSV,1,1,1,1,1,1,1,,,,,,,,,,,,*48
$GPGSV,1,1,1,1,1,1,1,,,,,,,,,,,,*48
$GPGGA,000119,03018.1888,N,09743.9910,W,1,8,1.1,1.5,M,24.5,M,,0000*5d
$GPGSA,A,3,,,,,,,,,,,,,0.000,0.000,0.000,*1e
$GPGSV,1,1,1,1,1,1,1,,,,,,,,,,,,*48
$GPGSV,1,1,1,1,1,1,1,,,,,,,,,,,,*48
$GPGGA,000120,03018.1893,N,09743.9907,W,1,8,1.1,1.5,M,24.5,M,,0000*5b
$GPGSA,A,3,,,,,,,,,,,,,0.000,0.000,0.000,*1e
$GPGSV,1,1,1,1,1,1,1,,,,,,,,,,,,*48
$GPGSV,1,1,1,1,1,1,1,,,,,,,,,,,,*48
$GPGGA,000121,03018.1898,N,09743.9904,W,1,8,1.1,1.5,M,24.5,M,,0000*52
$GPGSA,A,3,,,,,,,,,,,,,0.000,0.000,0.000,*1e
$GPGSV,1,1,1,1,1,1,1,,,,,,,,,,,,*48
$GPGSV,1,1,1,1,1,1,1,,,,,,,,,,,,*48
$GPGGA,000122,03018.1903,N,09743.9901,W,1,8,1.1,1.5,M,24.5,M,,0000*57
$GPGSA,A,3,,,,,,,,,,,,,0.000,0.000,0.000,*1e
$GPGSV,1,1,1,1,1,1,1,,,,,,,,,,,,*48
$GPGSV,1,1,1,1,1,1,1,,,,,,,,,,,,*48
$GPGGA,000123,03018.1907,N,09743.9898,W,1,8,1.1,1.5,M,24.5,M,,0000*53
$GPGSA,A,3,,,,,,,,,,,,,0.000,0.000,0.000,*1e
$GPGSV,1,1,1,1,1,1,1,,,,,,,,,,,,*48
$GPGSV,1,1,1,1,1,1,1,,,,,,,,,,,,*48
$GPGGA,000124,03018.1912,N,09743.9895,W,1,8,1.1,1.5,M,24.5,M,,0000*5d
$GPGSA,A,3,,,,,,,,,,,,,0.000,0.000,0.000,*1e
$GPGSV,1,1,1,1,1,1,1,,,,,,,,,,,,*48
$GPGSV,1,1,1,1,1,1,1,,,,,,,,,,,,*48
$GPGGA,000125,03018.1916,N,09743.9892,W,1,8,1.1,1.5,M,24.5,M,,0000*5f
$GPGSA,A,3,,,,,,,,,,,,,0.000,0.000,0.000,*1e
$GPGSV,1,1,1,1,1,1,1,,,,,,,,,,,,*48
$GPGSV,1,1,1,1,1,1,1,,,,,,,,,,,,*48
$GPGGA,000126,03018.1921,N,09743.9889,W,1,8,1.1,1.5,M,24.5,M,,0000*52
$GPGSA,A,3,,,,,,,,,,,,,0.000,0.000,0.000,*1e
$GPGSV,1,1,1,1,1,1,1,,,,,,,,,,,,*48
$GPGSV,1,1,1,1,1,1,1,,,,,,,,,,,,*48
$GPGGA,000127,03018.1925,N,09743.9886,W,1,8,1.1,1.5,M,24.5,M,,0000*58
$GPGSA,A,3,,,,,,,,,,,,,0.000,0.000,0.000,*1e
$GPGSV,1,1,1,1,1,1,1,,,,,,,,,,,,*48
$GPGSV,1,1,1,1,1,1,1,,,,,,,,,,,,*48
$GPGGA,000128,03018.1930,N,09743.9883,W,1,8,1.1,1.5,M,24.5,M,,0000*56
$GPGSA,A,3,,,,,,,,,,,,,0.000,0.000,0.000,*1e
$GPGSV,1,1,1,1,1,1,1,,,,,,,,,,,,*48
$GPGSV,1,1,1,1,1,1,1,,,,,,,,,,,,*48
$GPGGA,000129,03018.1935,N,09743.9880,W,1,8,1.1,1.5,M,24.5,M,,0000*51
$GPGSA,A,3,,,,,,,,,,,,,0.000,0.000,0.000,*1e
$GPGSV,1,1,1,1,1,1,1,,,,,,,,,,,,*48
$GPGSV,1,1,1,1,1,1,1,,,,,,,,,,,,*48
$GPGGA,000130,03018.1939,N,09743.9877,W,1,8,1.1,1.5,M,24.5,M,,0000*5d
$GPGSA,A,3,,,,,,,,,,,,,0.000,0.000,0.000,*1e
$GPGSV,1,1,1,1,1,1,1,,,,,,,,,,,,*48
$GPGSV,1,1,1,1,1,1,1,,,,,,,,,,,,*48
$GPGGA,000131,03018.1944,N,09743.9874,W,1,8,1.1,1.5,M,24.5,M,,0000*55
$GPGSA,A,3,,,,,,,,,,,,,0.000,0.000,0.000,*1e
$GPGSV,1,1,1,1,1,1,1,,,,,,,,,,,,*48
$GPGSV,1,1,1,1,1,1,1,,,,,,,,,,,,*48
$GPGGA,000132,03018.1949,N,09743.9871,W,1,8,1.1,1.5,M,24.5,M,,0000*5e
$GPGSA,A,3,,,,,,,,,,,,,0.000,0.000,0.000,*1e
$GPGSV,1,1,1,1,1,1,1,,,,,,,,,,,,*48
$GPGSV,1,1,1,1,1,1,1,,,,,,,,,,,,*48
$GPGGA,000133,03018.1953,N,09743.9869,W,1,8,1.1,1.5,M,24.5,M,,0000*5d
$GPGSA,A,3,,,,,,,,,,,,,0.000,0.000,0.000,*1e
$GPGSV,1,1,1,1,1,1,1,,,,,,,,,,,,*48
$GPGSV,1,1,1,1,1,1,1,,,,,,,,,,,,*48
$GPGGA,000134,03018.1958,N,09743.9866,W,1,8,1.1,1.5,M,24.5,M,,0000*5e
$GPGSA,A,3,,,,,,,,,,,,,0.000,0.000,0.000,*1e
$GPGSV,1,1,1,1,1,1,1,,,,,,,,,,,,*48
$GPGSV,1,1,1,1,1,1,1,,,,,,,,,,,,*48
$GPGGA,000135,03018.1963,N,09743.9863,W,1,8,1.1,1.5,M,24.5,M,,0000*52
$GPGSA,A,3,,,,,,,,,,,,,0.000,0.000,0.000,*1e
$GPGSV,1,1,1,1,1,1,1,,,,,,,,,,,,*48
$GPGSV,1,1,1,1,1,1,1,,,,,,,,,,,,*48
$GPGGA,000136,03018.1967,N,09743.9860,W,1,8,1.1,1.5,M,24.5,M,,0000*56
$GPGSA,A,3,,,,,,,,,,,,,0.000,0.000,0.000,*1e
$GPGSV,1,1,1,1,1,1,1,,,,,,,,,,,,*48
$GPGSV,1,1,1,1,1,1,1,,,,,,,,,,,,*48
$GPGGA,000137,03018.1972,N,09743.9857,W,1,8,1.1,1.5,M,24.5,M,,0000*57
$GPGSA,A,3,,,,,,,,,,,,,0.000,0.000,0.000,*1e
$GPGSV,1,1,1,1,1,1,1,,,,,,,,,,,,*48
$GPGSV,1,1,1,1,1,1,1,,,,,,,,,,,,*48
$GPGGA,000138,03018.1976,N,09743.9854,W,1,8,1.1,1.5,M,24.5,M,,0000*5f
$GPGSA,A,3,,,,,,,,,,,,,0.000,0.000,0.000,*1e
$GPGSV,1,1,1,1,1,1,1,,,,,,,,,,,,*48
$GPGSV,1,1,1,1,1,1,1,,,,,,,,,,,,*48
$GPGGA,000139,03018.1981,N,09743.9851,W,1,8,1.1,1.5,M,24.5,M,,0000*53
$GPGSA,A,3,,,,,,,,,,,,,0.000,0.000,0.000,*1e
$GPGSV,1,1,1,1,1,1,1,,,,,,,,,,,,*48
$GPGSV,1,1,1,1,1,1,1,,,,,,,,,,,,*48
$GPGGA,000140,03018.1985,N,09743.9848,W,1,8,1.1,1.5,M,24.5,M,,0000*51
$GPGSA,A,3,,,,,,,,,,,,,0.000,0.000,0.000,*1e
$GPGSV,1,1,1,1,1,1,1,,,,,,,,,,,,*48
$GPGSV,1,1,1,1,1,1,1,,,,,,,,,,,,*48
$GPGGA,000141,03018.1990,N,09743.9845,W,1,8,1.1,1.5,M,24.5,M,,0000*59
$GPGSA,A,3,,,,,,,,,,,,,0.000,0.000,0.000,*1e
$GPGSV,1,1,1,1,1,1,1,,,,,,,,,,,,*48
$GPGSV,1,1,1,1,1,1,1,,,,,,,,,,,,*48
$GPGGA,000142,03018.1995,N,09743.9842,W,1,8,1.1,1.5,M,24.5,M,,0000*58
$GPGSA,A,3,,,,,,,,,,,,,0.000,0.000,0.000,*1e
$GPGSV,1,1,1,1,1,1,1,,,,,,,,,,,,*48
$GPGSV,1,1,1,1,1,1,1,,,,,,,,,,,,*48
$GPGGA,000143,03018.2000,N,09743.9839,W,1,8,1.1,1.5,M,24.5,M,,0000*53
$GPGSA,A,3,,,,,,,,,,,,,0.000,0.000,0.000,*1e
$GPGSV,1,1,1,1,1,1,1,,,,,,,,,,,,*48
$GPGSV,1,1,1,1,1,1,1,,,,,,,,,,,,*48
$GPGGA,000144,03018.2004,N,09743.9836,W,1,8,1.1,1.5,M,24.5,M,,0000*5f
$GPGSA,A,3,,,,,,,,,,,,,0.000,0.000,0.000,*1e
$GPGSV,1,1,1,1,1,1,1,,,,,,,,,,,,*48
$GPGSV,1,1,1,1,1,1,1,,,,,,,,,,,,*48
$GPGGA,000145,03018.2009,N,09743.9834,W,1,8,1.1,1.5,M,24.5,M,,0000*51
$GPGSA,A,3,,,,,,,,,,,,,0.000,0.000,0.000,*1e
$GPGSV,1,1,1,1,1,1,1,,,,,,,,,,,,*48
$GPGSV,1,1,1,1,1,1,1,,,,,,,,,,,,*48
$GPGGA,000146,03018.2014,N,09743.9831,W,1,8,1.1,1.5,M,24.5,M,,0000*5b
$GPGSA,A,3,,,,,,,,,,,,,0.000,0.000,0.000,*1e
$GPGSV,1,1,1,1,1,1,1,,,,,,,,,,,,*48
$GPGSV,1,1,1,1,1,1,1,,,,,,,,,,,,*48
$GPGGA,000147,03018.2018,N,09743.9828,W,1,8,1.1,1.5,M,24.5,M,,0000*5e
$GPGSA,A,3,,,,,,,,,,,,,0.000,0.000,0.000,*1e
$GPGSV,1,1,1,1,1,1,1,,,,,,,,,,,,*48
$GPGSV,1,1,1,1,1,1,1,,,,,,,,,,,,*48
$GPGGA,000148,03018.2023,N,09743.9825,W,1,8,1.1,1.5,M,24.5,M,,0000*54
$GPGSA,A,3,,,,,,,,,,,,,0.000,0.000,0.000,*1e
$GPGSV,1,1,1,1,1,1,1,,,,,,,,,,,,*48
$GPGSV,1,1,1,1,1,1,1,,,,,,,,,,,,*48
$GPGGA,000149,03018.2027,N,09743.9822,W,1,8,1.1,1.5,M,24.5,M,,0000*56
$GPGSA,A,3,,,,,,,,,,,,,0.000,0.000,0.000,*1e
$GPGSV,1,1,1,1,1,1,1,,,,,,,,,,,,*48
$GPGSV,1,1,1,1,1,1,1,,,,,,,,,,,,*48
$GPGGA,000150,03018.2032,N,09743.9819,W,1,8,1.1,1.5,M,24.5,M,,0000*52
$GPGSA,A,3,,,,,,,,,,,,,0.000,0.000,0.000,*1e
$GPGSV,1,1,1,1,1,1,1,,,,,,,,,,,,*48
$GPGSV,1,1,1,1,1,1,1,,,,,,,,,,,,*48
$GPGGA,000151,03018.2036,N,09743.9816,W,1,8,1.1,1.5,M,24.5,M,,0000*58
$GPGSA,A,3,,,,,,,,,,,,,0.000,0.000,0.000,*1e
$GPGSV,1,1,1,1,1,1,1,,,,,,,,,,,,*48
$GPGSV,1,1,1,1,1,1,1,,,,,,,,,,,,*48
$GPGGA,000152,03018.2041,N,09743.9813,W,1,8,1.1,1.5,M,24.5,M,,0000*5e
$GPGSA,A,3,,,,,,,,,,,,,0.000,0.000,0.000,*1e
$GPGSV,1,1,1,1,1,1,1,,,,,,,,,,,,*48
$GPGSV,1,1,1,1,1,1,1,,,,,,,,,,,,*48
$GPGGA,000153,03018.2046,N,09743.9810,W,1,8,1.1,1.5,M,24.5,M,,0000*5b
$GPGSA,A,3,,,,,,,,,,,,,0.000,0.000,0.000,*1e
$GPGSV,1,1,1,1,1,1,1,,,,,,,,,,,,*48
$GPGSV,1,1,1,1,1,1,1,,,,,,,,,,,,*48
$GPGGA,000154,03018.2051,N,09743.9807,W,1,8,1.1,1.5,M,24.5,M,,0000*5c
$GPGSA,A,3,,,,,,,,,,,,,0.000,0.000,0.000,*1e
$GPGSV,1,1,1,1,1,1,1,,,,,,,,,,,,*48
$GPGSV,1,1,1,1,1,1,1,,,,,,,,,,,,*48
$GPGGA,000155,03018.2055,N,09743.9804,W,1,8,1.1,1.5,M,24.5,M,,0000*5a
$GPGSA,A,3,,,,,,,,,,,,,0.000,0.000,0.000,*1e
$GPGSV,1,1,1,1,1,1,1,,,,,,,,,,,,*48
$GPGSV,1,1,1,1,1,1,1,,,,,,,,,,,,*48
$GPGGA,000156,03018.2060,N,09743.9801,W,1,8,1.1,1.5,M,24.5,M,,0000*5a
$GPGSA,A,3,,,,,,,,,,,,,0.000,0.000,0.000,*1e
$GPGSV,1,1,1,1,1,1,1,,,,,,,,,,,,*48
$GPGSV,1,1,1,1,1,1,1,,,,,,,,,,,,*48
$GPGGA,000157,03018.2065,N,09743.9798,W,1,8,1.1,1.5,M,24.5,M,,0000*51
$GPGSA,A,3,,,,,,,,,,,,,0.000,0.000,0.000,*1e
$GPGSV,1,1,1,1,1,1,1,,,,,,,,,,,,*48
$GPGSV,1,1,1,1,1,1,1,,,,,,,,,,,,*48
$GPGGA,000158,03018.2069,N,09743.9795,W,1,8,1.1,1.5,M,24.5,M,,0000*5f
$GPGSA,A,3,,,,,,,,,,,,,0.000,0.000,0.000,*1e
$GPGSV,1,1,1,1,1,1,1,,,,,,,,,,,,*48
$GPGSV,1,1,1,1,1,1,1,,,,,,,,,,,,*48
$GPGGA,000159,03018.2074,N,09743.9792,W,1,8,1.1,1.5,M,24.5,M,,0000*55
$GPGSA,A,3,,,,,,,,,,,,,0.000,0.000,0.000,*1e
$GPGSV,1,1,1,1,1,1,1,,,,,,,,,,,,*48
$GPGSV,1,1,1,1,1,1,1,,,,,,,,,,,,*48
$GPGGA,000160,03018.2078,N,09743.9789,W,1,8,1.1,1.5,M,24.5,M,,0000*59
$GPGSA,A,3,,,,,,,,,,,,,0.000,0.000,0.000,*1e
$GPGSV,1,1,1,1,1,1,1,,,,,,,,,,,,*48
$GPGSV,1,1,1,1,1,1,1,,,,,,,,,,,,*48
$GPGGA,000161,03018.2083,N,09743.9786,W,1,8,1.1,1.5,M,24.5,M,,0000*53
$GPGSA,A,3,,,,,,,,,,,,,0.000,0.000,0.000,*1e
$GPGSV,1,1,1,1,1,1,1,,,,,,,,,,,,*48
$GPGSV,1,1,1,1,1,1,1,,,,,,,,,,,,*48
$GPGGA,000162,03018.2087,N,09743.9783,W,1,8,1.1,1.5,M,24.5,M,,0000*51
$GPGSA,A,3,,,,,,,,,,,,,0.000,0.000,0.000,*1e
$GPGSV,1,1,1,1,1,1,1,,,,,,,,,,,,*48
$GPGSV,1,1,1,1,1,1,1,,,,,,,,,,,,*48
$GPGGA,000163,03018.2092,N,09743.9780,W,1,8,1.1,1.5,M,24.5,M,,0000*57
$GPGSA,A,3,,,,,,,,,,,,,0.000,0.000,0.000,*1e
$GPGSV,1,1,1,1,1,1,1,,,,,,,,,,,,*48
$GPGSV,1,1,1,1,1,1,1,,,,,,,,,,,,*48
$GPGGA,000164,03018.2097,N,09743.9777,W,1,8,1.1,1.5,M,24.5,M,,0000*5d
$GPGSA,A,3,,,,,,,,,,,,,0.000,0.000,0.000,*1e
$GPGSV,1,1,1,1,1,1,1,,,,,,,,,,,,*48
$GPGSV,1,1,1,1,1,1,1,,,,,,,,,,,,*48
$GPGGA,000165,03018.2101,N,09743.9774,W,1,8,1.1,1.5,M,24.5,M,,0000*51
$GPGSA,A,3,,,,,,,,,,,,,0.000,0.000,0.000,*1e
$GPGSV,1,1,1,1,1,1,1,,,,,,,,,,,,*48
$GPGSV,1,1,1,1,1,1,1,,,,,,,,,,,,*48
$GPGGA,000166,03018.2106,N,09743.9771,W,1,8,1.1,1.5,M,24.5,M,,0000*50
$GPGSA,A,3,,,,,,,,,,,,,0.000,0.000,0.000,*1e
$GPGSV,1,1,1,1,1,1,1,,,,,,,,,,,,*48
$GPGSV,1,1,1,1,1,1,1,,,,,,,,,,,,*48
$GPGGA,000167,03018.2111,N,09743.9768,W,1,8,1.1,1.5,M,24.5,M,,0000*5f
$GPGSA,A,3,,,,,,,,,,,,,0.000,0.000,0.000,*1e
$GPGSV,1,1,1,1,1,1,1,,,,,,,,,,,,*48
$GPGSV,1,1,1,1,1,1,1,,,,,,,,,,,,*48
$GPGGA,000168,03018.2116,N,09743.9765,W,1,8,1.1,1.5,M,24.5,M,,0000*5a
$GPGSA,A,3,,,,,,,,,,,,,0.000,0.000,0.000,*1e
$GPGSV,1,1,1,1,1,1,1,,,,,,,,,,,,*48
$GPGSV,1,1,1,1,1,1,1,,,,,,,,,,,,*48
$GPGGA,000169,03018.2120,N,09743.9763,W,1,8,1.1,1.5,M,24.5,M,,0000*58
$GPGSA,A,3,,,,,,,,,,,,,0.000,0.000,0.000,*1e
$GPGSV,1,1,1,1,1,1,1,,,,,,,,,,,,*48
$GPGSV,1,1,1,1,1,1,1,,,,,,,,,,,,*48
$GPGGA,000170,03018.2125,N,09743.9760,W,1,8,1.1,1.5,M,24.5,M,,0000*56
$GPGSA,A,3,,,,,,,,,,,,,0.000,0.000,0.000,*1e
$GPGSV,1,1,1,1,1,1,1,,,,,,,,,,,,*48
$GPGSV,1,1,1,1,1,1,1,,,,,,,,,,,,*48
$GPGGA,000171,03018.2129,N,09743.9757,W,1,8,1.1,1.5,M,24.5,M,,0000*5f
$GPGSA,A,3,,,,,,,,,,,,,0.000,0.000,0.000,*1e
$GPGSV,1,1,1,1,1,1,1,,,,,,,,,,,,*48
$GPGSV,1,1,1,1,1,1,1,,,,,,,,,,,,*48
$GPGGA,000172,03018.2134,N,09743.9754,W,1,8,1.1,1.5,M,24.5,M,,0000*53
$GPGSA,A,3,,,,,,,,,,,,,0.000,0.000,0.000,*1e
$GPGSV,1,1,1,1,1,1,1,,,,,,,,,,,,*48
$GPGSV,1,1,1,1,1,1,1,,,,,,,,,,,,*48
$GPGGA,000173,03018.2138,N,09743.9751,W,1,8,1.1,1.5,M,24.5,M,,0000*5b
$GPGSA,A,3,,,,,,,,,,,,,0.000,0.000,0.000,*1e
$GPGSV,1,1,1,1,1,1,1,,,,,,,,,,,,*48
$GPGSV,1,1,1,1,1,1,1,,,,,,,,,,,,*48
$GPGGA,000174,03018.2143,N,09743.9748,W,1,8,1.1,1.5,M,24.5,M,,0000*58
$GPGSA,A,3,,,,,,,,,,,,,0.000,0.000,0.000,*1e
$GPGSV,1,1,1,1,1,1,1,,,,,,,,,,,,*48
$GPGSV,1,1,1,1,1,1,1,,,,,,,,,,,,*48
$GPGGA,000175,03018.2148,N,09743.9745,W,1,8,1.1,1.5,M,24.5,M,,0000*5f
$GPGSA,A,3,,,,,,,,,,,,,0.000,0.000,0.000,*1e
$GPGSV,1,1,1,1,1,1,1,,,,,,,,,,,,*48
$GPGSV,1,1,1,1,1,1,1,,,,,,,,,,,,*48
$GPGGA,000176,03018.2152,N,09743.9742,W,1,8,1.1,1.5,M,24.5,M,,0000*50
$GPGSA,A,3,,,,,,,,,,,,,0.000,0.000,0.000,*1e
$GPGSV,1,1,1,1,1,1,1,,,,,,,,,,,,*48
$GPGSV,1,1,1,1,1,1,1,,,,,,,,,,,,*48
$GPGGA,000177,03018.2157,N,09743.9739,W,1,8,1.1,1.5,M,24.5,M,,0000*58
$GPGSA,A,3,,,,,,,,,,,,,0.000,0.000,0.000,*1e
$GPGSV,1,1,1,1,1,1,1,,,,,,,,,,,,*48
$GPGSV,1,1,1,1,1,1,1,,,,,,,,,,,,*48
$GPGGA,000178,03018.2162,N,09743.9736,W,1,8,1.1,1.5,M,24.5,M,,0000*5e
$GPGSA,A,3,,,,,,,,,,,,,0.000,0.000,0.000,*1e
$GPGSV,1,1,1,1,1,1,1,,,,,,,,,,,,*48
$GPGSV,1,1,1,1,1,1,1,,,,,,,,,,,,*48
$GPGGA,000179,03018.2167,N,09743.9733,W,1,8,1.1,1.5,M,24.5,M,,0000*5f
$GPGSA,A,3,,,,,,,,,,,,,0.000,0.000,0.000,*1e
$GPGSV,1,1,1,1,1,1,1,,,,,,,,,,,,*48
$GPGSV,1,1,1,1,1,1,1,,,,,,,,,,,,*48
$GPGGA,000180,03018.2171,N,09743.9730,W,1,8,1.1,1.5,M,24.5,M,,0000*5d
$GPGSA,A,3,,,,,,,,,,,,,0.000,0.000,0.000,*1e
$GPGSV,1,1,1,1,1,1,1,,,,,,,,,,,,*48
$GPGSV,1,1,1,1,1,1,1,,,,,,,,,,,,*48
$GPGGA,000181,03018.2176,N,09743.9727,W,1,8,1.1,1.5,M,24.5,M,,0000*5d
$GPGSA,A,3,,,,,,,,,,,,,0.000,0.000,0.000,*1e
$GPGSV,1,1,1,1,1,1,1,,,,,,,,,,,,*48
$GPGSV,1,1,1,1,1,1,1,,,,,,,,,,,,*48
$GPGGA,000182,03018.2180,N,09743.9724,W,1,8,1.1,1.5,M,24.5,M,,0000*54
$GPGSA,A,3,,,,,,,,,,,,,0.000,0.000,0.000,*1e
$GPGSV,1,1,1,1,1,1,1,,,,,,,,,,,,*48
$GPGSV,1,1,1,1,1,1,1,,,,,,,,,,,,*48
$GPGGA,000183,03018.2185,N,09743.9721,W,1,8,1.1,1.5,M,24.5,M,,0000*55
$GPGSA,A,3,,,,,,,,,,,,,0.000,0.000,0.000,*1e
$GPGSV,1,1,1,1,1,1,1,,,,,,,,,,,,*48
$GPGSV,1,1,1,1,1,1,1,,,,,,,,,,,,*48
$GPGGA,000184,03018.2189,N,09743.9718,W,1,8,1.1,1.5,M,24.5,M,,0000*54
$GPGSA,A,3,,,,,,,,,,,,,0.000,0.000,0.000,*1e
$GPGSV,1,1,1,1,1,1,1,,,,,,,,,,,,*48
$GPGSV,1,1,1,1,1,1,1,,,,,,,,,,,,*48
$GPGGA,000185,03018.2194,N,09743.9715,W,1,8,1.1,1.5,M,24.5,M,,0000*54
$GPGSA,A,3,,,,,,,,,,,,,0.000,0.000,0.000,*1e
$GPGSV,1,1,1,1,1,1,1,,,,,,,,,,,,*48
$GPGSV,1,1,1,1,1,1,1,,,,,,,,,,,,*48
$GPGGA,000186,03018.2199,N,09743.9712,W,1,8,1.1,1.5,M,24.5,M,,0000*5d
$GPGSA,A,3,,,,,,,,,,,,,0.000,0.000,0.000,*1e
$GPGSV,1,1,1,1,1,1,1,,,,,,,,,,,,*48
$GPGSV,1,1,1,1,1,1,1,,,,,,,,,,,,*48
$GPGGA,000187,03018.2203,N,09743.9709,W,1,8,1.1,1.5,M,24.5,M,,0000*56
$GPGSA,A,3,,,,,,,,,,,,,0.000,0.000,0.000,*1e
$GPGSV,1,1,1,1,1,1,1,,,,,,,,,,,,*48
$GPGSV,1,1,1,1,1,1,1,,,,,,,,,,,,*48
$GPGGA,000188,03018.2208,N,09743.9706,W,1,8,1.1,1.5,M,24.5,M,,0000*5d
$GPGSA,A,3,,,,,,,,,,,,,0.000,0.000,0.000,*1e
$GPGSV,1,1,1,1,1,1,1,,,,,,,,,,,,*48
$GPGSV,1,1,1,1,1,1,1,,,,,,,,,,,,*48
$GPGGA,000189,03018.2213,N,09743.9703,W,1,8,1.1,1.5,M,24.5,M,,0000*53
$GPGSA,A,3,,,,,,,,,,,,,0.000,0.000,0.000,*1e
$GPGSV,1,1,1,1,1,1,1,,,,,,,,,,,,*48
$GPGSV,1,1,1,1,1,1,1,,,,,,,,,,,,*48
$GPGGA,000190,03018.2218,N,09743.9701,W,1,8,1.1,1.5,M,24.5,M,,0000*52
$GPGSA,A,3,,,,,,,,,,,,,0.000,0.000,0.000,*1e
$GPGSV,1,1,1,1,1,1,1,,,,,,,,,,,,*48
$GPGSV,1,1,1,1,1,1,1,,,,,,,,,,,,*48
$GPGGA,000191,03018.2222,N,09743.9698,W,1,8,1.1,1.5,M,24.5,M,,0000*5b
$GPGSA,A,3,,,,,,,,,,,,,0.000,0.000,0.000,*1e
$GPGSV,1,1,1,1,1,1,1,,,,,,,,,,,,*48
$GPGSV,1,1,1,1,1,1,1,,,,,,,,,,,,*48
$GPGGA,000192,03018.2227,N,09743.9695,W,1,8,1.1,1.5,M,24.5,M,,0000*50
$GPGSA,A,3,,,,,,,,,,,,,0.000,0.000,0.000,*1e
$GPGSV,1,1,1,1,1,1,1,,,,,,,,,,,,*48
$GPGSV,1,1,1,1,1,1,1,,,,,,,,,,,,*48
$GPGGA,000193,03018.2231,N,09743.9692,W,1,8,1.1,1.5,M,24.5,M,,0000*51
$GPGSA,A,3,,,,,,,,,,,,,0.000,0.000,0.000,*1e
$GPGSV,1,1,1,1,1,1,1,,,,,,,,,,,,*48
$GPGSV,1,1,1,1,1,1,1,,,,,,,,,,,,*48
$GPGGA,000194,03018.2236,N,09743.9689,W,1,8,1.1,1.5,M,24.5,M,,0000*5b
$GPGSA,A,3,,,,,,,,,,,,,0.000,0.000,0.000,*1e
$GPGSV,1,1,1,1,1,1,1,,,,,,,,,,,,*48
$GPGSV,1,1,1,1,1,1,1,,,,,,,,,,,,*48
$GPGGA,000195,03018.2240,N,09743.9686,W,1,8,1.1,1.5,M,24.5,M,,0000*54
$GPGSA,A,3,,,,,,,,,,,,,0.000,0.000,0.000,*1e
$GPGSV,1,1,1,1,1,1,1,,,,,,,,,,,,*48
$GPGSV,1,1,1,1,1,1,1,,,,,,,,,,,,*48
$GPGGA,000196,03018.2245,N,09743.9683,W,1,8,1.1,1.5,M,24.5,M,,0000*57
$GPGSA,A,3,,,,,,,,,,,,,0.000,0.000,0.000,*1e
$GPGSV,1,1,1,1,1,1,1,,,,,,,,,,,,*48
$GPGSV,1,1,1,1,1,1,1,,,,,,,,,,,,*48
$GPGGA,000197,03018.2250,N,09743.9680,W,1,8,1.1,1.5,M,24.5,M,,0000*51
$GPGSA,A,3,,,,,,,,,,,,,0.000,0.000,0.000,*1e
$GPGSV,1,1,1,1,1,1,1,,,,,,,,,,,,*48
$GPGSV,1,1,1,1,1,1,1,,,,,,,,,,,,*48
$GPGGA,000198,03018.2254,N,09743.9677,W,1,8,1.1,1.5,M,24.5,M,,0000*52
$GPGSA,A,3,,,,,,,,,,,,,0.000,0.000,0.000,*1e
$GPGSV,1,1,1,1,1,1,1,,,,,,,,,,,,*48
$GPGSV,1,1,1,1,1,1,1,,,,,,,,,,,,*48
$GPGGA,000199,03018.2259,N,09743.9674,W,1,8,1.1,1.5,M,24.5,M,,0000*5d
$GPGSA,A,3,,,,,,,,,,,,,0.000,0.000,0.000,*1e
$GPGSV,1,1,1,1,1,1,1,,,,,,,,,,,,*48
$GPGSV,1,1,1,1,1,1,1,,,,,,,,,,,,*48
$GPGGA,000200,03018.2264,N,09743.9671,W,1,8,1.1,1.5,M,24.5,M,,0000*55
$GPGSA,A,3,,,,,,,,,,,,,0.000,0.000,0.000,*1e
$GPGSV,1,1,1,1,1,1,1,,,,,,,,,,,,*48
$GPGSV,1,1,1,1,1,1,1,,,,,,,,,,,,*48
$GPGGA,000201,03018.2269,N,09743.9669,W,1,8,1.1,1.5,M,24.5,M,,0000*50
$GPGSA,A,3,,,,,,,,,,,,,0.000,0.000,0.000,*1e
$GPGSV,1,1,1,1,1,1,1,,,,,,,,,,,,*48
$GPGSV,1,1,1,1,1,1,1,,,,,,,,,,,,*48
$GPGGA,000202,03018.2273,N,09743.9666,W,1,8,1.1,1.5,M,24.5,M,,0000*57
$GPGSA,A,3,,,,,,,,,,,,,0.000,0.000,0.000,*1e
$GPGSV,1,1,1,1,1,1,1,,,,,,,,,,,,*48
$GPGSV,1,1,1,1,1,1,1,,,,,,,,,,,,*48
$GPGGA,000203,03018.2278,N,09743.9663,W,1,8,1.1,1.5,M,24.5,M,,0000*58
$GPGSA,A,3,,,,,,,,,,,,,0.000,0.000,0.000,*1e
$GPGSV,1,1,1,1,1,1,1,,,,,,,,,,,,*48
$GPGSV,1,1,1,1,1,1,1,,,,,,,,,,,,*48
$GPGGA,000204,03018.2282,N,09743.9660,W,1,8,1.1,1.5,M,24.5,M,,0000*59
$GPGSA,A,3,,,,,,,,,,,,,0.000,0.000,0.000,*1e
$GPGSV,1,1,1,1,1,1,1,,,,,,,,,,,,*48
$GPGSV,1,1,1,1,1,1,1,,,,,,,,,,,,*48
$GPGGA,000205,03018.2287,N,09743.9657,W,1,8,1.1,1.5,M,24.5,M,,0000*59
$GPGSA,A,3,,,,,,,,,,,,,0.000,0.000,0.000,*1e
$GPGSV,1,1,1,1,1,1,1,,,,,,,,,,,,*48
$GPGSV,1,1,1,1,1,1,1,,,,,,,,,,,,*48
$GPGGA,000206,03018.2291,N,09743.9654,W,1,8,1.1,1.5,M,24.5,M,,0000*5e
$GPGSA,A,3,,,,,,,,,,,,,0.000,0.000,0.000,*1e
$GPGSV,1,1,1,1,1,1,1,,,,,,,,,,,,*48
$GPGSV,1,1,1,1,1,1,1,,,,,,,,,,,,*48
$GPGGA,000207,03018.2296,N,09743.9651,W,1,8,1.1,1.5,M,24.5,M,,0000*5d
$GPGSA,A,3,,,,,,,,,,,,,0.000,0.000,0.000,*1e
$GPGSV,1,1,1,1,1,1,1,,,,,,,,,,,,*48
$GPGSV,1,1,1,1,1,1,1,,,,,,,,,,,,*48
$GPGGA,000208,03018.2301,N,09743.9648,W,1,8,1.1,1.5,M,24.5,M,,0000*55
$GPGSA,A,3,,,,,,,,,,,,,0.000,0.000,0.000,*1e
$GPGSV,1,1,1,1,1,1,1,,,,,,,,,,,,*48
$GPGSV,1,1,1,1,1,1,1,,,,,,,,,,,,*48
$GPGGA,000209,03018.2305,N,09743.9645,W,1,8,1.1,1.5,M,24.5,M,,0000*5d
$GPGSA,A,3,,,,,,,,,,,,,0.000,0.000,0.000,*1e
$GPGSV,1,1,1,1,1,1,1,,,,,,,,,,,,*48
$GPGSV,1,1,1,1,1,1,1,,,,,,,,,,,,*48
$GPGGA,000210,03018.2310,N,09743.9642,W,1,8,1.1,1.5,M,24.5,M,,0000*56
$GPGSA,A,3,,,,,,,,,,,,,0.000,0.000,0.000,*1e
$GPGSV,1,1,1,1,1,1,1,,,,,,,,,,,,*48
$GPGSV,1,1,1,1,1,1,1,,,,,,,,,,,,*48
$GPGGA,000211,03018.2315,N,09743.9639,W,1,8,1.1,1.5,M,24.5,M,,0000*5e
$GPGSA,A,3,,,,,,,,,,,,,0.000,0.000,0.000,*1e
$GPGSV,1,1,1,1,1,1,1,,,,,,,,,,,,*48
$GPGSV,1,1,1,1,1,1,1,,,,,,,,,,,,*48
$GPGGA,000212,03018.2320,N,09743.9636,W,1,8,1.1,1.5,M,24.5,M,,0000*54
$GPGSA,A,3,,,,,,,,,,,,,0.000,0.000,0.000,*1e
$GPGSV,1,1,1,1,1,1,1,,,,,,,,,,,,*48
$GPGSV,1,1,1,1,1,1,1,,,,,,,,,,,,*48
$GPGGA,000213,03018.2324,N,09743.9633,W,1,8,1.1,1.5,M,24.5,M,,0000*54
$GPGSA,A,3,,,,,,,,,,,,,0.000,0.000,0.000,*1e
$GPGSV,1,1,1,1,1,1,1,,,,,,,,,,,,*48
$GPGSV,1,1,1,1,1,1,1,,,,,,,,,,,,*48
$GPGGA,000214,03018.2329,N,09743.9630,W,1,8,1.1,1.5,M,24.5,M,,0000*5d
$GPGSA,A,3,,,,,,,,,,,,,0.000,0.000,0.000,*1e
$GPGSV,1,1,1,1,1,1,1,,,,,,,,,,,,*48
$GPGSV,1,1,1,1,1,1,1,,,,,,,,,,,,*48
$GPGGA,000215,03018.2333,N,09743.9627,W,1,8,1.1,1.5,M,24.5,M,,0000*51
$GPGSA,A,3,,,,,,,,,,,,,0.000,0.000,0.000,*1e
$GPGSV,1,1,1,1,1,1,1,,,,,,,,,,,,*48
$GPGSV,1,1,1,1,1,1,1,,,,,,,,,,,,*48
$GPGGA,000216,03018.2338,N,09743.9624,W,1,8,1.1,1.5,M,24.5,M,,0000*5a
$GPGSA,A,3,,,,,,,,,,,,,0.000,0.000,0.000,*1e
$GPGSV,1,1,1,1,1,1,1,,,,,,,,,,,,*48
$GPGSV,1,1,1,1,1,1,1,,,,,,,,,,,,*48
$GPGGA,000217,03018.2342,N,09743.9621,W,1,8,1.1,1.5,M,24.5,M,,0000*53
$GPGSA,A,3,,,,,,,,,,,,,0.000,0.000,0.000,*1e
$GPGSV,1,1,1,1,1,1,1,,,,,,,,,,,,*48
$GPGSV,1,1,1,1,1,1,1,,,,,,,,,,,,*48
$GPGGA,000218,03018.2347,N,09743.9618,W,1,8,1.1,1.5,M,24.5,M,,0000*53
$GPGSA,A,3,,,,,,,,,,,,,0.000,0.000,0.000,*1e
$GPGSV,1,1,1,1,1,1,1,,,,,,,,,,,,*48
$GPGSV,1,1,1,1,1,1,1,,,,,,,,,,,,*48
$GPGGA,000219,03018.2352,N,09743.9615,W,1,8,1.1,1.5,M,24.5,M,,0000*5b
$GPGSA,A,3,,,,,,,,,,,,,0.000,0.000,0.000,*1e
$GPGSV,1,1,1,1,1,1,1,,,,,,,,,,,,*48
$GPGSV,1,1,1,1,1,1,1,,,,,,,,,,,,*48
$GPGGA,000220,03018.2356,N,09743.9612,W,1,8,1.1,1.5,M,24.5,M,,0000*52
$GPGSA,A,3,,,,,,,,,,,,,0.000,0.000,0.000,*1e
$GPGSV,1,1,1,1,1,1,1,,,,,,,,,,,,*48
$GPGSV,1,1,1,1,1,1,1,,,,,,,,,,,,*48
$GPGGA,000221,03018.2361,N,09743.9609,W,1,8,1.1,1.5,M,24.5,M,,0000*5d
$GPGSA,A,3,,,,,,,,,,,,,0.000,0.000,0.000,*1e
$GPGSV,1,1,1,1,1,1,1,,,,,,,,,,,,*48
$GPGSV,1,1,1,1,1,1,1,,,,,,,,,,,,*48
$GPGGA,000222,03018.2366,N,09743.9607,W,1,8,1.1,1.5,M,24.5,M,,0000*57
$GPGSA,A,3,,,,,,,,,,,,,0.000,0.000,0.000,*1e
$GPGSV,1,1,1,1,1,1,1,,,,,,,,,,,,*48
$GPGSV,1,1,1,1,1,1,1,,,,,,,,,,,,*48
$GPGGA,000223,03018.2371,N,09743.9604,W,1,8,1.1,1.5,M,24.5,M,,0000*53
$GPGSA,A,3,,,,,,,,,,,,,0.000,0.000,0.000,*1e
$GPGSV,1,1,1,1,1,1,1,,,,,,,,,,,,*48
$GPGSV,1,1,1,1,1,1,1,,,,,,,,,,,,*48
$GPGGA,000224,03018.2375,N,09743.9601,W,1,8,1.1,1.5,M,24.5,M,,0000*55
$GPGSA,A,3,,,,,,,,,,,,,0.000,0.000,0.000,*1e
$GPGSV,1,1,1,1,1,1,1,,,,,,,,,,,,*48
$GPGSV,1,1,1,1,1,1,1,,,,,,,,,,,,*48
$GPGGA,000225,03018.2380,N,09743.9598,W,1,8,1.1,1.5,M,24.5,M,,0000*5d
$GPGSA,A,3,,,,,,,,,,,,,0.000,0.000,0.000,*1e
$GPGSV,1,1,1,1,1,1,1,,,,,,,,,,,,*48
$GPGSV,1,1,1,1,1,1,1,,,,,,,,,,,,*48
$GPGGA,000226,03018.2384,N,09743.9595,W,1,8,1.1,1.5,M,24.5,M,,0000*57
$GPGSA,A,3,,,,,,,,,,,,,0.000,0.000,0.000,*1e
$GPGSV,1,1,1,1,1,1,1,,,,,,,,,,,,*48
$GPGSV,1,1,1,1,1,1,1,,,,,,,,,,,,*48
$GPGGA,000227,03018.2389,N,09743.9592,W,1,8,1.1,1.5,M,24.5,M,,0000*5c
$GPGSA,A,3,,,,,,,,,,,,,0.000,0.000,0.000,*1e
$GPGSV,1,1,1,1,1,1,1,,,,,,,,,,,,*48
$GPGSV,1,1,1,1,1,1,1,,,,,,,,,,,,*48
$GPGGA,000228,03018.2393,N,09743.9589,W,1,8,1.1,1.5,M,24.5,M,,0000*52
$GPGSA,A,3,,,,,,,,,,,,,0.000,0.000,0.000,*1e
$GPGSV,1,1,1,1,1,1,1,,,,,,,,,,,,*48
$GPGSV,1,1,1,1,1,1,1,,,,,,,,,,,,*48
$GPGGA,000229,03018.2398,N,09743.9586,W,1,8,1.1,1.5,M,24.5,M,,0000*57
$GPGSA,A,3,,,,,,,,,,,,,0.000,0.000,0.000,*1e
$GPGSV,1,1,1,1,1,1,1,,,,,,,,,,,,*48
$GPGSV,1,1,1,1,1,1,1,,,,,,,,,,,,*48
$GPGGA,000230,03018.2403,N,09743.9583,W,1,8,1.1,1.5,M,24.5,M,,0000*5f
$GPGSA,A,3,,,,,,,,,,,,,0.000,0.000,0.000,*1e
$GPGSV,1,1,1,1,1,1,1,,,,,,,,,,,,*48
$GPGSV,1,1,1,1,1,1,1,,,,,,,,,,,,*48
$GPGGA,000231,03018.2407,N,09743.9580,W,1,8,1.1,1.5,M,24.5,M,,0000*59
$GPGSA,A,3,,,,,,,,,,,,,0.000,0.000,0.000,*1e
$GPGSV,1,1,1,1,1,1,1,,,,,,,,,,,,*48
$GPGSV,1,1,1,1,1,1,1,,,,,,,,,,,,*48
$GPGGA,000232,03018.2412,N,09743.9577,W,1,8,1.1,1.5,M,24.5,M,,0000*56
$GPGSA,A,3,,,,,,,,,,,,,0.000,0.000,0.000,*1e
$GPGSV,1,1,1,1,1,1,1,,,,,,,,,,,,*48
$GPGSV,1,1,1,1,1,1,1,,,,,,,,,,,,*48
$GPGGA,000233,03018.2417,N,09743.9574,W,1,8,1.1,1.5,M,24.5,M,,0000*51
$GPGSA,A,3,,,,,,,,,,,,,0.000,0.000,0.000,*1e
$GPGSV,1,1,1,1,1,1,1,,,,,,,,,,,,*48
$GPGSV,1,1,1,1,1,1,1,,,,,,,,,,,,*48
$GPGGA,000234,03018.2422,N,09743.9571,W,1,8,1.1,1.5,M,24.5,M,,0000*55
$GPGSA,A,3,,,,,,,,,,,,,0.000,0.000,0.000,*1e
$GPGSV,1,1,1,1,1,1,1,,,,,,,,,,,,*48
$GPGSV,1,1,1,1,1,1,1,,,,,,,,,,,,*48
$GPGGA,000235,03018.2426,N,09743.9568,W,1,8,1.1,1.5,M,24.5,M,,0000*58
$GPGSA,A,3,,,,,,,,,,,,,0.000,0.000,0.000,*1e
$GPGSV,1,1,1,1,1,1,1,,,,,,,,,,,,*48
$GPGSV,1,1,1,1,1,1,1,,,,,,,,,,,,*48
$GPGGA,000236,03018.2431,N,09743.9565,W,1,8,1.1,1.5,M,24.5,M,,0000*50
$GPGSA,A,3,,,,,,,,,,,,,0.000,0.000,0.000,*1e
$GPGSV,1,1,1,1,1,1,1,,,,,,,,,,,,*48
$GPGSV,1,1,1,1,1,1,1,,,,,,,,,,,,*48
$GPGGA,000237,03018.2435,N,09743.9562,W,1,8,1.1,1.5,M,24.5,M,,0000*52
$GPGSA,A,3,,,,,,,,,,,,,0.000,0.000,0.000,*1e
$GPGSV,1,1,1,1,1,1,1,,,,,,,,,,,,*48
$GPGSV,1,1,1,1,1,1,1,,,,,,,,,,,,*48
$GPGGA,000238,03018.2440,N,09743.9559,W,1,8,1.1,1.5,M,24.5,M,,0000*57
$GPGSA,A,3,,,,,,,,,,,,,0.000,0.000,0.000,*1e
$GPGSV,1,1,1,1,1,1,1,,,,,,,,,,,,*48
$GPGSV,1,1,1,1,1,1,1,,,,,,,,,,,,*48
$GPGGA,000239,03018.2444,N,09743.9556,W,1,8,1.1,1.5,M,24.5,M,,0000*5d
$GPGSA,A,3,,,,,,,,,,,,,0.000,0.000,0.000,*1e
$GPGSV,1,1,1,1,1,1,1,,,,,,,,,,,,*48
$GPGSV,1,1,1,1,1,1,1,,,,,,,,,,,,*48
$GPGGA,000240,03018.2449,N,09743.9553,W,1,8,1.1,1.5,M,24.5,M,,0000*5b
$GPGSA,A,3,,,,,,,,,,,,,0.000,0.000,0.000,*1e
$GPGSV,1,1,1,1,1,1,1,,,,,,,,,,,,*48
$GPGSV,1,1,1,1,1,1,1,,,,,,,,,,,,*48
$GPGGA,000241,03018.2454,N,09743.9550,W,1,8,1.1,1.5,M,24.5,M,,0000*55
$GPGSA,A,3,,,,,,,,,,,,,0.000,0.000,0.000,*1e
$GPGSV,1,1,1,1,1,1,1,,,,,,,,,,,,*48
$GPGSV,1,1,1,1,1,1,1,,,,,,,,,,,,*48
$GPGGA,000242,03018.2458,N,09743.9547,W,1,8,1.1,1.5,M,24.5,M,,0000*5c
$GPGSA,A,3,,,,,,,,,,,,,0.000,0.000,0.000,*1e
$GPGSV,1,1,1,1,1,1,1,,,,,,,,,,,,*48
$GPGSV,1,1,1,1,1,1,1,,,,,,,,,,,,*48
$GPGGA,000243,03018.2463,N,09743.9544,W,1,8,1.1,1.5,M,24.5,M,,0000*56
$GPGSA,A,3,,,,,,,,,,,,,0.000,0.000,0.000,*1e
$GPGSV,1,1,1,1,1,1,1,,,,,,,,,,,,*48
$GPGSV,1,1,1,1,1,1,1,,,,,,,,,,,,*48
$GPGGA,000244,03018.2468,N,09743.9542,W,1,8,1.1,1.5,M,24.5,M,,0000*5c
$GPGSA,A,3,,,,,,,,,,,,,0.000,0.000,0.000,*1e
$GPGSV,1,1,1,1,1,1,1,,,,,,,,,,,,*48
$GPGSV,1,1,1,1,1,1,1,,,,,,,,,,,,*48
$GPGGA,000245,03018.2472,N,09743.9539,W,1,8,1.1,1.5,M,24.5,M,,0000*5a
$GPGSA,A,3,,,,,,,,,,,,,0.000,0.000,0.000,*1e
$GPGSV,1,1,1,1,1,1,1,,,,,,,,,,,,*48
$GPGSV,1,1,1,1,1,1,1,,,,,,,,,,,,*48
$GPGGA,000246,03018.2477,N,09743.9536,W,1,8,1.1,1.5,M,24.5,M,,0000*53
$GPGSA,A,3,,,,,,,,,,,,,0.000,0.000,0.000,*1e
$GPGSV,1,1,1,1,1,1,1,,,,,,,,,,,,*48
$GPGSV,1,1,1,1,1,1,1,,,,,,,,,,,,*48
$GPGGA,000247,03018.2482,N,09743.9533,W,1,8,1.1,1.5,M,24.5,M,,0000*5d
$GPGSA,A,3,,,,,,,,,,,,,0.000,0.000,0.000,*1e
$GPGSV,1,1,1,1,1,1,1,,,,,,,,,,,,*48
$GPGSV,1,1,1,1,1,1,1,,,,,,,,,,,,*48
$GPGGA,000248,03018.2486,N,09743.9530,W,1,8,1.1,1.5,M,24.5,M,,0000*55
$GPGSA,A,3,,,,,,,,,,,,,0.000,0.000,0.000,*1e
$GPGSV,1,1,1,1,1,1,1,,,,,,,,,,,,*48
$GPGSV,1,1,1,1,1,1,1,,,,,,,,,,,,*48
$GPGGA,000249,03018.2491,N,09743.9527,W,1,8,1.1,1.5,M,24.5,M,,0000*54
$GPGSA,A,3,,,,,,,,,,,,,0.000,0.000,0.000,*1e
$GPGSV,1,1,1,1,1,1,1,,,,,,,,,,,,*48
$GPGSV,1,1,1,1,1,1,1,,,,,,,,,,,,*48
$GPGGA,000250,03018.2495,N,09743.9524,W,1,8,1.1,1.5,M,24.5,M,,0000*5b
$GPGSA,A,3,,,,,,,,,,,,,0.000,0.000,0.000,*1e
$GPGSV,1,1,1,1,1,1,1,,,,,,,,,,,,*48
$GPGSV,1,1,1,1,1,1,1,,,,,,,,,,,,*48
$GPGGA,000251,03018.2500,N,09743.9521,W,1,8,1.1,1.5,M,24.5,M,,0000*52
$GPGSA,A,3,,,,,,,,,,,,,0.000,0.000,0.000,*1e
$GPGSV,1,1,1,1,1,1,1,,,,,,,,,,,,*48
$GPGSV,1,1,1,1,1,1,1,,,,,,,,,,,,*48
$GPGGA,000252,03018.2505,N,09743.9518,W,1,8,1.1,1.5,M,24.5,M,,0000*5e
$GPGSA,A,3,,,,,,,,,,,,,0.000,0.000,0.000,*1e
$GPGSV,1,1,1,1,1,1,1,,,,,,,,,,,,*48
$GPGSV,1,1,1,1,1,1,1,,,,,,,,,,,,*48
$GPGGA,000253,03018.2509,N,09743.9515,W,1,8,1.1,1.5,M,24.5,M,,0000*5e
$GPGSA,A,3,,,,,,,,,,,,,0.000,0.000,0.000,*1e
$GPGSV,1,1,1,1,1,1,1,,,,,,,,,,,,*48
$GPGSV,1,1,1,1,1,1,1,,,,,,,,,,,,*48
$GPGGA,000254,03018.2514,N,09743.9512,W,1,8,1.1,1.5,M,24.5,M,,0000*52
$GPGSA,A,3,,,,,,,,,,,,,0.000,0.000,0.000,*1e
$GPGSV,1,1,1,1,1,1,1,,,,,,,,,,,,*48
$GPGSV,1,1,1,1,1,1,1,,,,,,,,,,,,*48
$GPGGA,000255,03018.2519,N,09743.9510,W,1,8,1.1,1.5,M,24.5,M,,0000*5c
$GPGSA,A,3,,,,,,,,,,,,,0.000,0.000,0.000,*1e
$GPGSV,1,1,1,1,1,1,1,,,,,,,,,,,,*48
$GPGSV,1,1,1,1,1,1,1,,,,,,,,,,,,*48
$GPGGA,000256,03018.2523,N,09743.9507,W,1,8,1.1,1.5,M,24.5,M,,0000*50
$GPGSA,A,3,,,,,,,,,,,,,0.000,0.000,0.000,*1e
$GPGSV,1,1,1,1,1,1,1,,,,,,,,,,,,*48
$GPGSV,1,1,1,1,1,1,1,,,,,,,,,,,,*48
$GPGGA,000257,03018.2528,N,09743.9504,W,1,8,1.1,1.5,M,24.5,M,,0000*59
$GPGSA,A,3,,,,,,,,,,,,,0.000,0.000,0.000,*1e
$GPGSV,1,1,1,1,1,1,1,,,,,,,,,,,,*48
$GPGSV,1,1,1,1,1,1,1,,,,,,,,,,,,*48
$GPGGA,000258,03018.2533,N,09743.9501,W,1,8,1.1,1.5,M,24.5,M,,0000*59
$GPGSA,A,3,,,,,,,,,,,,,0.000,0.000,0.000,*1e
$GPGSV,1,1,1,1,1,1,1,,,,,,,,,,,,*48
$GPGSV,1,1,1,1,1,1,1,,,,,,,,,,,,*48
$GPGGA,000259,03018.2537,N,09743.9498,W,1,8,1.1,1.5,M,24.5,M,,0000*5d
$GPGSA,A,3,,,,,,,,,,,,,0.000,0.000,0.000,*1e
$GPGSV,1,1,1,1,1,1,1,,,,,,,,,,,,*48
$GPGSV,1,1,1,1,1,1,1,,,,,,,,,,,,*48
$GPGGA,000260,03018.2542,N,09743.9495,W,1,8,1.1,1.5,M,24.5,M,,0000*58
$GPGSA,A,3,,,,,,,,,,,,,0.000,0.000,0.000,*1e
$GPGSV,1,1,1,1,1,1,1,,,,,,,,,,,,*48
$GPGSV,1,1,1,1,1,1,1,,,,,,,,,,,,*48
$GPGGA,000261,03018.2546,N,09743.9492,W,1,8,1.1,1.5,M,24.5,M,,0000*5a
$GPGSA,A,3,,,,,,,,,,,,,0.000,0.000,0.000,*1e
$GPGSV,1,1,1,1,1,1,1,,,,,,,,,,,,*48
$GPGSV,1,1,1,1,1,1,1,,,,,,,,,,,,*48
$GPGGA,000262,03018.2551,N,09743.9489,W,1,8,1.1,1.5,M,24.5,M,,0000*55
$GPGSA,A,3,,,,,,,,,,,,,0.000,0.000,0.000,*1e
$GPGSV,1,1,1,1,1,1,1,,,,,,,,,,,,*48
$GPGSV,1,1,1,1,1,1,1,,,,,,,,,,,,*48
$GPGGA,000263,03018.2556,N,09743.9486,W,1,8,1.1,1.5,M,24.5,M,,0000*5c
$GPGSA,A,3,,,,,,,,,,,,,0.000,0.000,0.000,*1e
$GPGSV,1,1,1,1,1,1,1,,,,,,,,,,,,*48
$GPGSV,1,1,1,1,1,1,1,,,,,,,,,,,,*48
$GPGGA,000264,03018.2560,N,09743.9483,W,1,8,1.1,1.5,M,24.5,M,,0000*5b
$GPGSA,A,3,,,,,,,,,,,,,0.000,0.000,0.000,*1e
$GPGSV,1,1,1,1,1,1,1,,,,,,,,,,,,*48
$GPGSV,1,1,1,1,1,1,1,,,,,,,,,,,,*48
$GPGGA,000265,03018.2565,N,09743.9480,W,1,8,1.1,1.5,M,24.5,M,,0000*5c
$GPGSA,A,3,,,,,,,,,,,,,0.000,0.000,0.000,*1e
$GPGSV,1,1,1,1,1,1,1,,,,,,,,,,,,*48
$GPGSV,1,1,1,1,1,1,1,,,,,,,,,,,,*48
$GPGGA,000266,03018.2570,N,09743.9477,W,1,8,1.1,1.5,M,24.5,M,,0000*53
$GPGSA,A,3,,,,,,,,,,,,,0.000,0.000,0.000,*1e
$GPGSV,1,1,1,1,1,1,1,,,,,,,,,,,,*48
$GPGSV,1,1,1,1,1,1,1,,,,,,,,,,,,*48
$GPGGA,000267,03018.2574,N,09743.9474,W,1,8,1.1,1.5,M,24.5,M,,0000*55
$GPGSA,A,3,,,,,,,,,,,,,0.000,0.000,0.000,*1e
$GPGSV,1,1,1,1,1,1,1,,,,,,,,,,,,*48
$GPGSV,1,1,1,1,1,1,1,,,,,,,,,,,,*48
$GPGGA,000268,03018.2579,N,09743.9471,W,1,8,1.1,1.5,M,24.5,M,,0000*52
$GPGSA,A,3,,,,,,,,,,,,,0.000,0.000,0.000,*1e
$GPGSV,1,1,1,1,1,1,1,,,,,,,,,,,,*48
$GPGSV,1,1,1,1,1,1,1,,,,,,,,,,,,*48
$GPGGA,000269,03018.2584,N,09743.9468,W,1,8,1.1,1.5,M,24.5,M,,0000*59
$GPGSA,A,3,,,,,,,,,,,,,0.000,0.000,0.000,*1e
$GPGSV,1,1,1,1,1,1,1,,,,,,,,,,,,*48
$GPGSV,1,1,1,1,1,1,1,,,,,,,,,,,,*48
$GPGGA,000270,03018.2588,N,09743.9465,W,1,8,1.1,1.5,M,24.5,M,,0000*50
$GPGSA,A,3,,,,,,,,,,,,,0.000,0.000,0.000,*1e
$GPGSV,1,1,1,1,1,1,1,,,,,,,,,,,,*48
$GPGSV,1,1,1,1,1,1,1,,,,,,,,,,,,*48
$GPGGA,000271,03018.2593,N,09743.9462,W,1,8,1.1,1.5,M,24.5,M,,0000*5c
$GPGSA,A,3,,,,,,,,,,,,,0.000,0.000,0.000,*1e
$GPGSV,1,1,1,1,1,1,1,,,,,,,,,,,,*48
$GPGSV,1,1,1,1,1,1,1,,,,,,,,,,,,*48
$GPGGA,000272,03018.2597,N,09743.9459,W,1,8,1.1,1.5,M,24.5,M,,0000*53
$GPGSA,A,3,,,,,,,,,,,,,0.000,0.000,0.000,*1e
$GPGSV,1,1,1,1,1,1,1,,,,,,,,,,,,*48
$GPGSV,1,1,1,1,1,1,1,,,,,,,,,,,,*48
$GPGGA,000273,03018.2602,N,09743.9456,W,1,8,1.1,1.5,M,24.5,M,,0000*52
$GPGSA,A,3,,,,,,,,,,,,,0.000,0.000,0.000,*1e
$GPGSV,1,1,1,1,1,1,1,,,,,,,,,,,,*48
$GPGSV,1,1,1,1,1,1,1,,,,,,,,,,,,*48
$GPGGA,000274,03018.2607,N,09743.9453,W,1,8,1.1,1.5,M,24.5,M,,0000*55
$GPGSA,A,3,,,,,,,,,,,,,0.000,0.000,0.000,*1e
$GPGSV,1,1,1,1,1,1,1,,,,,,,,,,,,*48
$GPGSV,1,1,1,1,1,1,1,,,,,,,,,,,,*48
$GPGGA,000275,03018.2611,N,09743.9450,W,1,8,1.1,1.5,M,24.5,M,,0000*50
$GPGSA,A,3,,,,,,,,,,,,,0.000,0.000,0.000,*1e
$GPGSV,1,1,1,1,1,1,1,,,,,,,,,,,,*48
$GPGSV,1,1,1,1,1,1,1,,,,,,,,,,,,*48
$GPGGA,000276,03018.2616,N,09743.9448,W,1,8,1.1,1.5,M,24.5,M,,0000*5d
$GPGSA,A,3,,,,,,,,,,,,,0.000,0.000,0.000,*1e
$GPGSV,1,1,1,1,1,1,1,,,,,,,,,,,,*48
$GPGSV,1,1,1,1,1,1,1,,,,,,,,,,,,*48
$GPGGA,000277,03018.2621,N,09743.9445,W,1,8,1.1,1.5,M,24.5,M,,0000*55
$GPGSA,A,3,,,,,,,,,,,,,0.000,0.000,0.000,*1e
$GPGSV,1,1,1,1,1,1,1,,,,,,,,,,,,*48
$GPGSV,1,1,1,1,1,1,1,,,,,,,,,,,,*48
$GPGGA,000278,03018.2625,N,09743.9442,W,1,8,1.1,1.5,M,24.5,M,,0000*59
$GPGSA,A,3,,,,,,,,,,,,,0.000,0.000,0.000,*1e
$GPGSV,1,1,1,1,1,1,1,,,,,,,,,,,,*48
$GPGSV,1,1,1,1,1,1,1,,,,,,,,,,,,*48
$GPGGA,000279,03018.2630,N,09743.9439,W,1,8,1.1,1.5,M,24.5,M,,0000*50
$GPGSA,A,3,,,,,,,,,,,,,0.000,0.000,0.000,*1e
$GPGSV,1,1,1,1,1,1,1,,,,,,,,,,,,*48
$GPGSV,1,1,1,1,1,1,1,,,,,,,,,,,,*48
$GPGGA,000280,03018.2635,N,09743.9436,W,1,8,1.1,1.5,M,24.5,M,,0000*5c
$GPGSA,A,3,,,,,,,,,,,,,0.000,0.000,0.000,*1e
$GPGSV,1,1,1,1,1,1,1,,,,,,,,,,,,*48
$GPGSV,1,1,1,1,1,1,1,,,,,,,,,,,,*48
$GPGGA,000281,03018.2639,N,09743.9433,W,1,8,1.1,1.5,M,24.5,M,,0000*54
$GPGSA,A,3,,,,,,,,,,,,,0.000,0.000,0.000,*1e
$GPGSV,1,1,1,1,1,1,1,,,,,,,,,,,,*48
$GPGSV,1,1,1,1,1,1,1,,,,,,,,,,,,*48
$GPGGA,000282,03018.2644,N,09743.9430,W,1,8,1.1,1.5,M,24.5,M,,0000*5e
$GPGSA,A,3,,,,,,,,,,,,,0.000,0.000,0.000,*1e
$GPGSV,1,1,1,1,1,1,1,,,,,,,,,,,,*48
$GPGSV,1,1,1,1,1,1,1,,,,,,,,,,,,*48
$GPGGA,000283,03018.2648,N,09743.9427,W,1,8,1.1,1.5,M,24.5,M,,0000*55
$GPGSA,A,3,,,,,,,,,,,,,0.000,0.000,0.000,*1e
$GPGSV,1,1,1,1,1,1,1,,,,,,,,,,,,*48
$GPGSV,1,1,1,1,1,1,1,,,,,,,,,,,,*48
$GPGGA,000284,03018.2653,N,09743.9424,W,1,8,1.1,1.5,M,24.5,M,,0000*5b
$GPGSA,A,3,,,,,,,,,,,,,0.000,0.000,0.000,*1e
$GPGSV,1,1,1,1,1,1,1,,,,,,,,,,,,*48
$GPGSV,1,1,1,1,1,1,1,,,,,,,,,,,,*48
$GPGGA,000285,03018.2657,N,09743.9421,W,1,8,1.1,1.5,M,24.5,M,,0000*5b
$GPGSA,A,3,,,,,,,,,,,,,0.000,0.000,0.000,*1e
$GPGSV,1,1,1,1,1,1,1,,,,,,,,,,,,*48
$GPGSV,1,1,1,1,1,1,1,,,,,,,,,,,,*48
$GPGGA,000286,03018.2662,N,09743.9418,W,1,8,1.1,1.5,M,24.5,M,,0000*54
$GPGSA,A,3,,,,,,,,,,,,,0.000,0.000,0.000,*1e
$GPGSV,1,1,1,1,1,1,1,,,,,,,,,,,,*48
$GPGSV,1,1,1,1,1,1,1,,,,,,,,,,,,*48
$GPGGA,000287,03018.2667,N,09743.9415,W,1,8,1.1,1.5,M,24.5,M,,0000*5d
$GPGSA,A,3,,,,,,,,,,,,,0.000,0.000,0.000,*1e
$GPGSV,1,1,1,1,1,1,1,,,,,,,,,,,,*48
$GPGSV,1,1,1,1,1,1,1,,,,,,,,,,,,*48
$GPGGA,000288,03018.2672,N,09743.9412,W,1,8,1.1,1.5,M,24.5,M,,0000*51
$GPGSA,A,3,,,,,,,,,,,,,0.000,0.000,0.000,*1e
$GPGSV,1,1,1,1,1,1,1,,,,,,,,,,,,*48
$GPGSV,1,1,1,1,1,1,1,,,,,,,,,,,,*48
$GPGGA,000289,03018.2676,N,09743.9409,W,1,8,1.1,1.5,M,24.5,M,,0000*5e
$GPGSA,A,3,,,,,,,,,,,,,0.000,0.000,0.000,*1e
$GPGSV,1,1,1,1,1,1,1,,,,,,,,,,,,*48
$GPGSV,1,1,1,1,1,1,1,,,,,,,,,,,,*48
$GPGGA,000290,03018.2681,N,09743.9406,W,1,8,1.1,1.5,M,24.5,M,,0000*51
$GPGSA,A,3,,,,,,,,,,,,,0.000,0.000,0.000,*1e
$GPGSV,1,1,1,1,1,1,1,,,,,,,,,,,,*48
$GPGSV,1,1,1,1,1,1,1,,,,,,,,,,,,*48
$GPGGA,000291,03018.2686,N,09743.9403,W,1,8,1.1,1.5,M,24.5,M,,0000*52
$GPGSA,A,3,,,,,,,,,,,,,0.000,0.000,0.000,*1e
$GPGSV,1,1,1,1,1,1,1,,,,,,,,,,,,*48
$GPGSV,1,1,1,1,1,1,1,,,,,,,,,,,,*48
$GPGGA,000292,03018.2690,N,09743.9400,W,1,8,1.1,1.5,M,24.5,M,,0000*55
$GPGSA,A,3,,,,,,,,,,,,,0.000,0.000,0.000,*1e
$GPGSV,1,1,1,1,1,1,1,,,,,,,,,,,,*48
$GPGSV,1,1,1,1,1,1,1,,,,,,,,,,,,*48
$GPGGA,000293,03018.2695,N,09743.9397,W,1,8,1.1,1.5,M,24.5,M,,0000*58
$GPGSA,A,3,,,,,,,,,,,,,0.000,0.000,0.000,*1e
$GPGSV,1,1,1,1,1,1,1,,,,,,,,,,,,*48
$GPGSV,1,1,1,1,1,1,1,,,,,,,,,,,,*48
$GPGGA,000294,03018.2699,N,09743.9394,W,1,8,1.1,1.5,M,24.5,M,,0000*50
$GPGSA,A,3,,,,,,,,,,,,,0.000,0.000,0.000,*1e
$GPGSV,1,1,1,1,1,1,1,,,,,,,,,,,,*48
$GPGSV,1,1,1,1,1,1,1,,,,,,,,,,,,*48
$GPGGA,000295,03018.2704,N,09743.9391,W,1,8,1.1,1.5,M,24.5,M,,0000*51
$GPGSA,A,3,,,,,,,,,,,,,0.000,0.000,0.000,*1e
$GPGSV,1,1,1,1,1,1,1,,,,,,,,,,,,*48
$GPGSV,1,1,1,1,1,1,1,,,,,,,,,,,,*48
$GPGGA,000296,03018.2708,N,09743.9388,W,1,8,1.1,1.5,M,24.5,M,,0000*56
$GPGSA,A,3,,,,,,,,,,,,,0.000,0.000,0.000,*1e
$GPGSV,1,1,1,1,1,1,1,,,,,,,,,,,,*48
$GPGSV,1,1,1,1,1,1,1,,,,,,,,,,,,*48
$GPGGA,000297,03018.2713,N,09743.9385,W,1,8,1.1,1.5,M,24.5,M,,0000*50
$GPGSA,A,3,,,,,,,,,,,,,0.000,0.000,0.000,*1e
$GPGSV,1,1,1,1,1,1,1,,,,,,,,,,,,*48
$GPGSV,1,1,1,1,1,1,1,,,,,,,,,,,,*48
$GPGGA,000298,03018.2718,N,09743.9383,W,1,8,1.1,1.5,M,24.5,M,,0000*52
$GPGSA,A,3,,,,,,,,,,,,,0.000,0.000,0.000,*1e
$GPGSV,1,1,1,1,1,1,1,,,,,,,,,,,,*48
$GPGSV,1,1,1,1,1,1,1,,,,,,,,,,,,*48
$GPGGA,000299,03018.2723,N,09743.9380,W,1,8,1.1,1.5,M,24.5,M,,0000*58
$GPGSA,A,3,,,,,,,,,,,,,0.000,0.000,0.000,*1e
$GPGSV,1,1,1,1,1,1,1,,,,,,,,,,,,*48
$GPGSV,1,1,1,1,1,1,1,,,,,,,,,,,,*48
$GPGGA,000300,03018.2727,N,09743.9377,W,1,8,1.1,1.5,M,24.5,M,,0000*55
$GPGSA,A,3,,,,,,,,,,,,,0.000,0.000,0.000,*1e
$GPGSV,1,1,1,1,1,1,1,,,,,,,,,,,,*48
$GPGSV,1,1,1,1,1,1,1,,,,,,,,,,,,*48
$GPGGA,000301,03018.2732,N,09743.9374,W,1,8,1.1,1.5,M,24.5,M,,0000*53
$GPGSA,A,3,,,,,,,,,,,,,0.000,0.000,0.000,*1e
$GPGSV,1,1,1,1,1,1,1,,,,,,,,,,,,*48
$GPGSV,1,1,1,1,1,1,1,,,,,,,,,,,,*48
$GPGGA,000302,03018.2737,N,09743.9371,W,1,8,1.1,1.5,M,24.5,M,,0000*50
$GPGSA,A,3,,,,,,,,,,,,,0.000,0.000,0.000,*1e
$GPGSV,1,1,1,1,1,1,1,,,,,,,,,,,,*48
$GPGSV,1,1,1,1,1,1,1,,,,,,,,,,,,*48
$GPGGA,000303,03018.2741,N,09743.9368,W,1,8,1.1,1.5,M,24.5,M,,0000*58
$GPGSA,A,3,,,,,,,,,,,,,0.000,0.000,0.000,*1e
$GPGSV,1,1,1,1,1,1,1,,,,,,,,,,,,*48
$GPGSV,1,1,1,1,1,1,1,,,,,,,,,,,,*48
$GPGGA,000304,03018.2746,N,09743.9365,W,1,8,1.1,1.5,M,24.5,M,,0000*55
$GPGSA,A,3,,,,,,,,,,,,,0.000,0.000,0.000,*1e
$GPGSV,1,1,1,1,1,1,1,,,,,,,,,,,,*48
$GPGSV,1,1,1,1,1,1,1,,,,,,,,,,,,*48
$GPGGA,000305,03018.2750,N,09743.9362,W,1,8,1.1,1.5,M,24.5,M,,0000*54
$GPGSA,A,3,,,,,,,,,,,,,0.000,0.000,0.000,*1e
$GPGSV,1,1,1,1,1,1,1,,,,,,,,,,,,*48
$GPGSV,1,1,1,1,1,1,1,,,,,,,,,,,,*48
$GPGGA,000306,03018.2755,N,09743.9359,W,1,8,1.1,1.5,M,24.5,M,,0000*5a
$GPGSA,A,3,,,,,,,,,,,,,0.000,0.000,0.000,*1e
$GPGSV,1,1,1,1,1,1,1,,,,,,,,,,,,*48
$GPGSV,1,1,1,1,1,1,1,,,,,,,,,,,,*48
$GPGGA,000307,03018.2759,N,09743.9356,W,1,8,1.1,1.5,M,24.5,M,,0000*58
$GPGSA,A,3,,,,,,,,,,,,,0.000,0.000,0.000,*1e
$GPGSV,1,1,1,1,1,1,1,,,,,,,,,,,,*48
$GPGSV,1,1,1,1,1,1,1,,,,,,,,,,,,*48
$GPGGA,000308,03018.2764,N,09743.9354,W,1,8,1.1,1.5,M,24.5,M,,0000*5b
$GPGSA,A,3,,,,,,,,,,,,,0.000,0.000,0.000,*1e
$GPGSV,1,1,1,1,1,1,1,,,,,,,,,,,,*48
$GPGSV,1,1,1,1,1,1,1,,,,,,,,,,,,*48
$GPGGA,000309,03018.2769,N,09743.9351,W,1,8,1.1,1.5,M,24.5,M,,0000*52
$GPGSA,A,3,,,,,,,,,,,,,0.000,0.000,0.000,*1e
$GPGSV,1,1,1,1,1,1,1,,,,,,,,,,,,*48
$GPGSV,1,1,1,1,1,1,1,,,,,,,,,,,,*48
$GPGGA,000310,03018.2773,N,09743.9348,W,1,8,1.1,1.5,M,24.5,M,,0000*59
$GPGSA,A,3,,,,,,,,,,,,,0.000,0.000,0.000,*1e
$GPGSV,1,1,1,1,1,1,1,,,,,,,,,,,,*48
$GPGSV,1,1,1,1,1,1,1,,,,,,,,,,,,*48
$GPGGA,000311,03018.2778,N,09743.9345,W,1,8,1.1,1.5,M,24.5,M,,0000*5e
$GPGSA,A,3,,,,,,,,,,,,,0.000,0.000,0.000,*1e
$GPGSV,1,1,1,1,1,1,1,,,,,,,,,,,,*48
$GPGSV,1,1,1,1,1,1,1,,,,,,,,,,,,*48
$GPGGA,000312,03018.2782,N,09743.9342,W,1,8,1.1,1.5,M,24.5,M,,0000*5f
$GPGSA,A,3,,,,,,,,,,,,,0.000,0.000,0.000,*1e
$GPGSV,1,1,1,1,1,1,1,,,,,,,,,,,,*48
$GPGSV,1,1,1,1,1,1,1,,,,,,,,,,,,*48
$GPGGA,000313,03018.2787,N,09743.9339,W,1,8,1.1,1.5,M,24.5,M,,0000*57
$GPGSA,A,3,,,,,,,,,,,,,0.000,0.000,0.000,*1e
$GPGSV,1,1,1,1,1,1,1,,,,,,,,,,,,*48
$GPGSV,1,1,1,1,1,1,1,,,,,,,,,,,,*48
$GPGGA,000314,03018.2791,N,09743.9336,W,1,8,1.1,1.5,M,24.5,M,,0000*58
$GPGSA,A,3,,,,,,,,,,,,,0.000,0.000,0.000,*1e
$GPGSV,1,1,1,1,1,1,1,,,,,,,,,,,,*48
$GPGSV,1,1,1,1,1,1,1,,,,,,,,,,,,*48
$GPGGA,000315,03018.2796,N,09743.9333,W,1,8,1.1,1.5,M,24.5,M,,0000*5b
$GPGSA,A,3,,,,,,,,,,,,,0.000,0.000,0.000,*1e
$GPGSV,1,1,1,1,1,1,1,,,,,,,,,,,,*48
$GPGSV,1,1,1,1,1,1,1,,,,,,,,,,,,*48
$GPGGA,000316,03018.2800,N,09743.9330,W,1,8,1.1,1.5,M,24.5,M,,0000*5b
$GPGSA,A,3,,,,,,,,,,,,,0.000,0.000,0.000,*1e
$GPGSV,1,1,1,1,1,1,1,,,,,,,,,,,,*48
$GPGSV,1,1,1,1,1,1,1,,,,,,,,,,,,*48
$GPGGA,000317,03018.2804,N,09743.9328,W,1,8,1.1,1.5,M,24.5,M,,0000*57
$GPGSA,A,3,,,,,,,,,,,,,0.000,0.000,0.000,*1e
$GPGSV,1,1,1,1,1,1,1,,,,,,,,,,,,*48
$GPGSV,1,1,1,1,1,1,1,,,,,,,,,,,,*48
$GPGGA,000318,03018.2809,N,09743.9325,W,1,8,1.1,1.5,M,24.5,M,,0000*58
$GPGSA,A,3,,,,,,,,,,,,,0.000,0.000,0.000,*1e
$GPGSV,1,1,1,1,1,1,1,,,,,,,,,,,,*48
$GPGSV,1,1,1,1,1,1,1,,,,,,,,,,,,*48
$GPGGA,000319,03018.2813,N,09743.9322,W,1,8,1.1,1.5,M,24.5,M,,0000*55
$GPGSA,A,3,,,,,,,,,,,,,0.000,0.000,0.000,*1e
$GPGSV,1,1,1,1,1,1,1,,,,,,,,,,,,*48
$GPGSV,1,1,1,1,1,1,1,,,,,,,,,,,,*48
$GPGGA,000320,03018.2818,N,09743.9319,W,1,8,1.1,1.5,M,24.5,M,,0000*5c
$GPGSA,A,3,,,,,,,,,,,,,0.000,0.000,0.000,*1e
$GPGSV,1,1,1,1,1,1,1,,,,,,,,,,,,*48
