$GPGGA,000000,03018.1483,N,09743.9075,W,1,8,1.1,200.0,M,24.5,M,,0000*5f
$GPGSA,A,3,,,,,,,,,,,,,0.000,0.000,0.000,*1e
$GPGSV,1,1,1,1,1,1,1,,,,,,,,,,,,*48
$GPGSV,1,1,1,1,1,1,1,,,,,,,,,,,,*48
$GPGGA,000001,03018.1476,N,09743.8970,W,1,8,1.1,200.0,M,24.5,M,,0000*59
$GPGSA,A,3,,,,,,,,,,,,,0.000,0.000,0.000,*1e
$GPGSV,1,1,1,1,1,1,1,,,,,,,,,,,,*48
$GPGSV,1,1,1,1,1,1,1,,,,,,,,,,,,*48
$GPGGA,000002,03018.1457,N,09743.8868,W,1,8,1.1,200.0,M,24.5,M,,0000*51
$GPGSA,A,3,,,,,,,,,,,,,0.000,0.000,0.000,*1e
$GPGSV,1,1,1,1,1,1,1,,,,,,,,,,,,*48
$GPGSV,1,1,1,1,1,1,1,,,,,,,,,,,,*48
$GPGGA,000003,03018.1426,N,09743.8770,W,1,8,1.1,200.0,M,24.5,M,,0000*50
$GPGSA,A,3,,,,,,,,,,,,,0.000,0.000,0.000,*1e
$GPGSV,1,1,1,1,1,1,1,,,,,,,,,,,,*48
$GPGSV,1,1,1,1,1,1,1,,,,,,,,,,,,*48
$GPGGA,000004,03018.1384,N,09743.8678,W,1,8,1.1,200.0,M,24.5,M,,0000*51
$GPGSA,A,3,,,,,,,,,,,,,0.000,0.000,0.000,*1e
$GPGSV,1,1,1,1,1,1,1,,,,,,,,,,,,*48
$GPGSV,1,1,1,1,1,1,1,,,,,,,,,,,,*48
$GPGGA,000005,03018.1330,N,09743.8593,W,1,8,1.1,200.0,M,24.5,M,,0000*59
$GPGSA,A,3,,,,,,,,,,,,,0.000,0.000,0.000,*1e
$GPGSV,1,1,1,1,1,1,1,,,,,,,,,,,,*48
$GPGSV,1,1,1,1,1,1,1,,,,,,,,,,,,*48
$GPGGA,000006,03018.1267,N,09743.8518,W,1,8,1.1,200.0,M,24.5,M,,0000*5a
$GPGSA,A,3,,,,,,,,,,,,,0.000,0.000,0.000,*1e
$GPGSV,1,1,1,1,1,1,1,,,,,,,,,,,,*48
$GPGSV,1,1,1,1,1,1,1,,,,,,,,,,,,*48
$GPGGA,000007,03018.1196,N,09743.8454,W,1,8,1.1,200.0,M,24.5,M,,0000*5f
$GPGSA,A,3,,,,,,,,,,,,,0.000,0.000,0.000,*1e
$GPGSV,1,1,1,1,1,1,1,,,,,,,,,,,,*48
$GPGSV,1,1,1,1,1,1,1,,,,,,,,,,,,*48
$GPGGA,000008,03018.1117,N,09743.8402,W,1,8,1.1,200.0,M,24.5,M,,0000*5a
$GPGSA,A,3,,,,,,,,,,,,,0.000,0.000,0.000,*1e
$GPGSV,1,1,1,1,1,1,1,,,,,,,,,,,,*48
$GPGSV,1,1,1,1,1,1,1,,,,,,,,,,,,*48
$GPGGA,000009,03018.1033,N,09743.8363,W,1,8,1.1,200.0,M,24.5,M,,0000*5c
$GPGSA,A,3,,,,,,,,,,,,,0.000,0.000,0.000,*1e
$GPGSV,1,1,1,1,1,1,1,,,,,,,,,,,,*48
$GPGSV,1,1,1,1,1,1,1,,,,,,,,,,,,*48
$GPGGA,000010,03018.0946,N,09743.8338,W,1,8,1.1,200.0,M,24.5,M,,0000*50
$GPGSA,A,3,,,,,,,,,,,,,0.000,0.000,0.000,*1e
$GPGSV,1,1,1,1,1,1,1,,,,,,,,,,,,*48
$GPGSV,1,1,1,1,1,1,1,,,,,,,,,,,,*48
$GPGGA,000011,03018.0856,N,09743.8326,W,1,8,1.1,200.0,M,24.5,M,,0000*5e
$GPGSA,A,3,,,,,,,,,,,,,0.000,0.000,0.000,*1e
$GPGSV,1,1,1,1,1,1,1,,,,,,,,,,,,*48
$GPGSV,1,1,1,1,1,1,1,,,,,,,,,,,,*48
$GPGGA,000012,03018.0765,N,09743.8331,W,1,8,1.1,200.0,M,24.5,M,,0000*54
$GPGSA,A,3,,,,,,,,,,,,,0.000,0.000,0.000,*1e
$GPGSV,1,1,1,1,1,1,1,,,,,,,,,,,,*48
$GPGSV,1,1,1,1,1,1,1,,,,,,,,,,,,*48
$GPGGA,000013,03018.0676,N,09743.8349,W,1,8,1.1,200.0,M,24.5,M,,0000*59
$GPGSA,A,3,,,,,,,,,,,,,0.000,0.000,0.000,*1e
$GPGSV,1,1,1,1,1,1,1,,,,,,,,,,,,*48
$GPGSV,1,1,1,1,1,1,1,,,,,,,,,,,,*48
$GPGGA,000014,03018.0589,N,09743.8381,W,1,8,1.1,200.0,M,24.5,M,,0000*59
$GPGSA,A,3,,,,,,,,,,,,,0.000,0.000,0.000,*1e
$GPGSV,1,1,1,1,1,1,1,,,,,,,,,,,,*48
$GPGSV,1,1,1,1,1,1,1,,,,,,,,,,,,*48
$GPGGA,000015,03018.0512,N,09743.8424,W,1,8,1.1,200.0,M,24.5,M,,0000*52
$GPGSA,A,3,,,,,,,,,,,,,0.000,0.000,0.000,*1e
$GPGSV,1,1,1,1,1,1,1,,,,,,,,,,,,*48
$GPGSV,1,1,1,1,1,1,1,,,,,,,,,,,,*48
$GPGGA,000016,03018.0442,N,09743.8479,W,1,8,1.1,200.0,M,24.5,M,,0000*5d
$GPGSA,A,3,,,,,,,,,,,,,0.000,0.000,0.000,*1e
$GPGSV,1,1,1,1,1,1,1,,,,,,,,,,,,*48
$GPGSV,1,1,1,1,1,1,1,,,,,,,,,,,,*48
$GPGGA,000017,03018.0379,N,09743.8546,W,1,8,1.1,200.0,M,24.5,M,,0000*5e
$GPGSA,A,3,,,,,,,,,,,,,0.000,0.000,0.000,*1e
$GPGSV,1,1,1,1,1,1,1,,,,,,,,,,,,*48
$GPGSV,1,1,1,1,1,1,1,,,,,,,,,,,,*48
$GPGGA,000018,03018.0326,N,09743.8623,W,1,8,1.1,200.0,M,24.5,M,,0000*5b
$GPGSA,A,3,,,,,,,,,,,,,0.000,0.000,0.000,*1e
$GPGSV,1,1,1,1,1,1,1,,,,,,,,,,,,*48
$GPGSV,1,1,1,1,1,1,1,,,,,,,,,,,,*48
$GPGGA,000019,03018.0283,N,09743.8709,W,1,8,1.1,200.0,M,24.5,M,,0000*5d
$GPGSA,A,3,,,,,,,,,,,,,0.000,0.000,0.000,*1e
$GPGSV,1,1,1,1,1,1,1,,,,,,,,,,,,*48
$GPGSV,1,1,1,1,1,1,1,,,,,,,,,,,,*48
$GPGGA,000020,03018.0250,N,09743.8801,W,1,8,1.1,200.0,M,24.5,M,,0000*5e
$GPGSA,A,3,,,,,,,,,,,,,0.000,0.000,0.000,*1e
$GPGSV,1,1,1,1,1,1,1,,,,,,,,,,,,*48
$GPGSV,1,1,1,1,1,1,1,,,,,,,,,,,,*48
$GPGGA,000021,03018.0230,N,09743.8898,W,1,8,1.1,200.0,M,24.5,M,,0000*59
$GPGSA,A,3,,,,,,,,,,,,,0.000,0.000,0.000,*1e
$GPGSV,1,1,1,1,1,1,1,,,,,,,,,,,,*48
$GPGSV,1,1,1,1,1,1,1,,,,,,,,,,,,*48
$GPGGA,000022,03018.0222,N,09743.8998,W,1,8,1.1,200.0,M,24.5,M,,0000*58
$GPGSA,A,3,,,,,,,,,,,,,0.000,0.000,0.000,*1e
$GPGSV,1,1,1,1,1,1,1,,,,,,,,,,,,*48
$GPGSV,1,1,1,1,1,1,1,,,,,,,,,,,,*48
$GPGGA,000023,03018.0227,N,09743.9100,W,1,8,1.1,200.0,M,24.5,M,,0000*54
$GPGSA,A,3,,,,,,,,,,,,,0.000,0.000,0.000,*1e
$GPGSV,1,1,1,1,1,1,1,,,,,,,,,,,,*48
$GPGSV,1,1,1,1,1,1,1,,,,,,,,,,,,*48
$GPGGA,000024,03018.0244,N,09743.9201,W,1,8,1.1,200.0,M,24.5,M,,0000*54
$GPGSA,A,3,,,,,,,,,,,,,0.000,0.000,0.000,*1e
$GPGSV,1,1,1,1,1,1,1,,,,,,,,,,,,*48
$GPGSV,1,1,1,1,1,1,1,,,,,,,,,,,,*48
$GPGGA,000025,03018.0274,N,09743.9298,W,1,8,1.1,200.0,M,24.5,M,,0000*56
$GPGSA,A,3,,,,,,,,,,,,,0.000,0.000,0.000,*1e
$GPGSV,1,1,1,1,1,1,1,,,,,,,,,,,,*48
$GPGSV,1,1,1,1,1,1,1,,,,,,,,,,,,*48
$GPGGA,000026,03018.0315,N,09743.9390,W,1,8,1.1,200.0,M,24.5,M,,0000*5a
$GPGSA,A,3,,,,,,,,,,,,,0.000,0.000,0.000,*1e
$GPGSV,1,1,1,1,1,1,1,,,,,,,,,,,,*48
$GPGSV,1,1,1,1,1,1,1,,,,,,,,,,,,*48
$GPGGA,000027,03018.0368,N,09743.9476,W,1,8,1.1,200.0,M,24.5,M,,0000*5e
$GPGSA,A,3,,,,,,,,,,,,,0.000,0.000,0.000,*1e
$GPGSV,1,1,1,1,1,1,1,,,,,,,,,,,,*48
$GPGSV,1,1,1,1,1,1,1,,,,,,,,,,,,*48
$GPGGA,000028,03018.0431,N,09743.9553,W,1,8,1.1,200.0,M,24.5,M,,0000*5c
$GPGSA,A,3,,,,,,,,,,,,,0.000,0.000,0.000,*1e
$GPGSV,1,1,1,1,1,1,1,,,,,,,,,,,,*48
$GPGSV,1,1,1,1,1,1,1,,,,,,,,,,,,*48
$GPGGA,000029,03018.0503,N,09743.9619,W,1,8,1.1,200.0,M,24.5,M,,0000*50
$GPGSA,A,3,,,,,,,,,,,,,0.000,0.000,0.000,*1e
$GPGSV,1,1,1,1,1,1,1,,,,,,,,,,,,*48
$GPGSV,1,1,1,1,1,1,1,,,,,,,,,,,,*48
$GPGGA,000030,03018.0583,N,09743.9675,W,1,8,1.1,200.0,M,24.5,M,,0000*5a
$GPGSA,A,3,,,,,,,,,,,,,0.000,0.000,0.000,*1e
$GPGSV,1,1,1,1,1,1,1,,,,,,,,,,,,*48
$GPGSV,1,1,1,1,1,1,1,,,,,,,,,,,,*48
$GPGGA,000031,03018.0668,N,09743.9718,W,1,8,1.1,200.0,M,24.5,M,,0000*57
$GPGSA,A,3,,,,,,,,,,,,,0.000,0.000,0.000,*1e
$GPGSV,1,1,1,1,1,1,1,,,,,,,,,,,,*48
$GPGSV,1,1,1,1,1,1,1,,,,,,,,,,,,*48
$GPGGA,000032,03018.0760,N,09743.9747,W,1,8,1.1,200.0,M,24.5,M,,0000*57
$GPGSA,A,3,,,,,,,,,,,,,0.000,0.000,0.000,*1e
$GPGSV,1,1,1,1,1,1,1,,,,,,,,,,,,*48
$GPGSV,1,1,1,1,1,1,1,,,,,,,,,,,,*48
$GPGGA,000033,03018.0853,N,09743.9762,W,1,8,1.1,200.0,M,24.5,M,,0000*5e
$GPGSA,A,3,,,,,,,,,,,,,0.000,0.000,0.000,*1e
$GPGSV,1,1,1,1,1,1,1,,,,,,,,,,,,*48
$GPGSV,1,1,1,1,1,1,1,,,,,,,,,,,,*48
$GPGGA,000034,03018.0949,N,09743.9763,W,1,8,1.1,200.0,M,24.5,M,,0000*52
$GPGSA,A,3,,,,,,,,,,,,,0.000,0.000,0.000,*1e
$GPGSV,1,1,1,1,1,1,1,,,,,,,,,,,,*48
$GPGSV,1,1,1,1,1,1,1,,,,,,,,,,,,*48
$GPGGA,000035,03018.1043,N,09743.9749,W,1,8,1.1,200.0,M,24.5,M,,0000*59
$GPGSA,A,3,,,,,,,,,,,,,0.000,0.000,0.000,*1e
$GPGSV,1,1,1,1,1,1,1,,,,,,,,,,,,*48
$GPGSV,1,1,1,1,1,1,1,,,,,,,,,,,,*48
$GPGGA,000036,03018.1136,N,09743.9721,W,1,8,1.1,200.0,M,24.5,M,,0000*57
$GPGSA,A,3,,,,,,,,,,,,,0.000,0.000,0.000,*1e
$GPGSV,1,1,1,1,1,1,1,,,,,,,,,,,,*48
$GPGSV,1,1,1,1,1,1,1,,,,,,,,,,,,*48
$GPGGA,000037,03018.1225,N,09743.9678,W,1,8,1.1,200.0,M,24.5,M,,0000*5a
$GPGSA,A,3,,,,,,,,,,,,,0.000,0.000,0.000,*1e
$GPGSV,1,1,1,1,1,1,1,,,,,,,,,,,,*48
$GPGSV,1,1,1,1,1,1,1,,,,,,,,,,,,*48
$GPGGA,000038,03018.1307,N,09743.9623,W,1,8,1.1,200.0,M,24.5,M,,0000*5a
$GPGSA,A,3,,,,,,,,,,,,,0.000,0.000,0.000,*1e
$GPGSV,1,1,1,1,1,1,1,,,,,,,,,,,,*48
$GPGSV,1,1,1,1,1,1,1,,,,,,,,,,,,*48
$GPGGA,000039,03018.1384,N,09743.9556,W,1,8,1.1,200.0,M,24.5,M,,0000*51
$GPGSA,A,3,,,,,,,,,,,,,0.000,0.000,0.000,*1e
$GPGSV,1,1,1,1,1,1,1,,,,,,,,,,,,*48
$GPGSV,1,1,1,1,1,1,1,,,,,,,,,,,,*48
$GPGGA,000040,03018.1451,N,09743.9478,W,1,8,1.1,200.0,M,24.5,M,,0000*5d
$GPGSA,A,3,,,,,,,,,,,,,0.000,0.000,0.000,*1e
$GPGSV,1,1,1,1,1,1,1,,,,,,,,,,,,*48
$GPGSV,1,1,1,1,1,1,1,,,,,,,,,,,,*48
$GPGGA,000041,03018.1509,N,09743.9390,W,1,8,1.1,200.0,M,24.5,M,,0000*51
$GPGSA,A,3,,,,,,,,,,,,,0.000,0.000,0.000,*1e
$GPGSV,1,1,1,1,1,1,1,,,,,,,,,,,,*48
$GPGSV,1,1,1,1,1,1,1,,,,,,,,,,,,*48
$GPGGA,000042,03018.1556,N,09743.9295,W,1,8,1.1,200.0,M,24.5,M,,0000*5c
$GPGSA,A,3,,,,,,,,,,,,,0.000,0.000,0.000,*1e
$GPGSV,1,1,1,1,1,1,1,,,,,,,,,,,,*48
$GPGSV,1,1,1,1,1,1,1,,,,,,,,,,,,*48
$GPGGA,000043,03018.1592,N,09743.9194,W,1,8,1.1,200.0,M,24.5,M,,0000*57
$GPGSA,A,3,,,,,,,,,,,,,0.000,0.000,0.000,*1e
$GPGSV,1,1,1,1,1,1,1,,,,,,,,,,,,*48
$GPGSV,1,1,1,1,1,1,1,,,,,,,,,,,,*48
$GPGGA,000044,03018.1615,N,09743.9089,W,1,8,1.1,200.0,M,24.5,M,,0000*51
$GPGSA,A,3,,,,,,,,,,,,,0.000,0.000,0.000,*1e
$GPGSV,1,1,1,1,1,1,1,,,,,,,,,,,,*48
$GPGSV,1,1,1,1,1,1,1,,,,,,,,,,,,*48
$GPGGA,000045,03018.1626,N,09743.8982,W,1,8,1.1,200.0,M,24.5,M,,0000*53
$GPGSA,A,3,,,,,,,,,,,,,0.000,0.000,0.000,*1e
$GPGSV,1,1,1,1,1,1,1,,,,,,,,,,,,*48
$GPGSV,1,1,1,1,1,1,1,,,,,,,,,,,,*48
$GPGGA,000046,03018.1624,N,09743.8874,W,1,8,1.1,200.0,M,24.5,M,,0000*5a
$GPGSA,A,3,,,,,,,,,,,,,0.000,0.000,0.000,*1e
$GPGSV,1,1,1,1,1,1,1,,,,,,,,,,,,*48
$GPGSV,1,1,1,1,1,1,1,,,,,,,,,,,,*48
$GPGGA,000047,03018.1610,N,09743.8769,W,1,8,1.1,200.0,M,24.5,M,,0000*5f
$GPGSA,A,3,,,,,,,,,,,,,0.000,0.000,0.000,*1e
$GPGSV,1,1,1,1,1,1,1,,,,,,,,,,,,*48
$GPGSV,1,1,1,1,1,1,1,,,,,,,,,,,,*48
$GPGGA,000048,03018.1584,N,09743.8668,W,1,8,1.1,200.0,M,24.5,M,,0000*5e
$GPGSA,A,3,,,,,,,,,,,,,0.000,0.000,0.000,*1e
$GPGSV,1,1,1,1,1,1,1,,,,,,,,,,,,*48
$GPGSV,1,1,1,1,1,1,1,,,,,,,,,,,,*48
$GPGGA,000049,03018.1546,N,09743.8573,W,1,8,1.1,200.0,M,24.5,M,,0000*58
$GPGSA,A,3,,,,,,,,,,,,,0.000,0.000,0.000,*1e
$GPGSV,1,1,1,1,1,1,1,,,,,,,,,,,,*48
$GPGSV,1,1,1,1,1,1,1,,,,,,,,,,,,*48
$GPGGA,000050,03018.1498,N,09743.8485,W,1,8,1.1,200.0,M,24.5,M,,0000*5a
$GPGSA,A,3,,,,,,,,,,,,,0.000,0.000,0.000,*1e
$GPGSV,1,1,1,1,1,1,1,,,,,,,,,,,,*48
$GPGSV,1,1,1,1,1,1,1,,,,,,,,,,,,*48
$GPGGA,000051,03018.1439,N,09743.8407,W,1,8,1.1,200.0,M,24.5,M,,0000*5a
$GPGSA,A,3,,,,,,,,,,,,,0.000,0.000,0.000,*1e
$GPGSV,1,1,1,1,1,1,1,,,,,,,,,,,,*48
$GPGSV,1,1,1,1,1,1,1,,,,,,,,,,,,*48
$GPGGA,000052,03018.1372,N,09743.8340,W,1,8,1.1,200.0,M,24.5,M,,0000*55
$GPGSA,A,3,,,,,,,,,,,,,0.000,0.000,0.000,*1e
$GPGSV,1,1,1,1,1,1,1,,,,,,,,,,,,*48
$GPGSV,1,1,1,1,1,1,1,,,,,,,,,,,,*48
$GPGGA,000053,03018.1298,N,09743.8285,W,1,8,1.1,200.0,M,24.5,M,,0000*59
$GPGSA,A,3,,,,,,,,,,,,,0.000,0.000,0.000,*1e
$GPGSV,1,1,1,1,1,1,1,,,,,,,,,,,,*48
$GPGSV,1,1,1,1,1,1,1,,,,,,,,,,,,*48
$GPGGA,000054,03018.1219,N,09743.8243,W,1,8,1.1,200.0,M,24.5,M,,0000*5d
$GPGSA,A,3,,,,,,,,,,,,,0.000,0.000,0.000,*1e
$GPGSV,1,1,1,1,1,1,1,,,,,,,,,,,,*48
$GPGSV,1,1,1,1,1,1,1,,,,,,,,,,,,*48
$GPGGA,000055,03018.1136,N,09743.8215,W,1,8,1.1,200.0,M,24.5,M,,0000*51
$GPGSA,A,3,,,,,,,,,,,,,0.000,0.000,0.000,*1e
$GPGSV,1,1,1,1,1,1,1,,,,,,,,,,,,*48
$GPGSV,1,1,1,1,1,1,1,,,,,,,,,,,,*48
$GPGGA,000056,03018.1050,N,09743.8200,W,1,8,1.1,200.0,M,24.5,M,,0000*57
$GPGSA,A,3,,,,,,,,,,,,,0.000,0.000,0.000,*1e
$GPGSV,1,1,1,1,1,1,1,,,,,,,,,,,,*48
$GPGSV,1,1,1,1,1,1,1,,,,,,,,,,,,*48
$GPGGA,000057,03018.0964,N,09743.8202,W,1,8,1.1,200.0,M,24.5,M,,0000*5b
$GPGSA,A,3,,,,,,,,,,,,,0.000,0.000,0.000,*1e
$GPGSV,1,1,1,1,1,1,1,,,,,,,,,,,,*48
$GPGSV,1,1,1,1,1,1,1,,,,,,,,,,,,*48
$GPGGA,000058,03018.0880,N,09743.8217,W,1,8,1.1,200.0,M,24.5,M,,0000*5b
$GPGSA,A,3,,,,,,,,,,,,,0.000,0.000,0.000,*1e
$GPGSV,1,1,1,1,1,1,1,,,,,,,,,,,,*48
$GPGSV,1,1,1,1,1,1,1,,,,,,,,,,,,*48
$GPGGA,000059,03018.0798,N,09743.8246,W,1,8,1.1,200.0,M,24.5,M,,0000*58
$GPGSA,A,3,,,,,,,,,,,,,0.000,0.000,0.000,*1e
$GPGSV,1,1,1,1,1,1,1,,,,,,,,,,,,*48
$GPGSV,1,1,1,1,1,1,1,,,,,,,,,,,,*48
$GPGGA,000060,03018.0721,N,09743.8289,W,1,8,1.1,200.0,M,24.5,M,,0000*53
$GPGSA,A,3,,,,,,,,,,,,,0.000,0.000,0.000,*1e
$GPGSV,1,1,1,1,1,1,1,,,,,,,,,,,,*48
$GPGSV,1,1,1,1,1,1,1,,,,,,,,,,,,*48
$GPGGA,000061,03018.0651,N,09743.8344,W,1,8,1.1,200.0,M,24.5,M,,0000*54
$GPGSA,A,3,,,,,,,,,,,,,0.000,0.000,0.000,*1e
$GPGSV,1,1,1,1,1,1,1,,,,,,,,,,,,*48
$GPGSV,1,1,1,1,1,1,1,,,,,,,,,,,,*48
$GPGGA,000062,03018.0588,N,09743.8411,W,1,8,1.1,200.0,M,24.5,M,,0000*57
$GPGSA,A,3,,,,,,,,,,,,,0.000,0.000,0.000,*1e
$GPGSV,1,1,1,1,1,1,1,,,,,,,,,,,,*48
$GPGSV,1,1,1,1,1,1,1,,,,,,,,,,,,*48
$GPGGA,000063,03018.0535,N,09743.8488,W,1,8,1.1,200.0,M,24.5,M,,0000*50
$GPGSA,A,3,,,,,,,,,,,,,0.000,0.000,0.000,*1e
$GPGSV,1,1,1,1,1,1,1,,,,,,,,,,,,*48
$GPGSV,1,1,1,1,1,1,1,,,,,,,,,,,,*48
$GPGGA,000064,03018.0491,N,09743.8574,W,1,8,1.1,200.0,M,24.5,M,,0000*5a
$GPGSA,A,3,,,,,,,,,,,,,0.000,0.000,0.000,*1e
$GPGSV,1,1,1,1,1,1,1,,,,,,,,,,,,*48
$GPGSV,1,1,1,1,1,1,1,,,,,,,,,,,,*48
$GPGGA,000065,03018.0459,N,09743.8666,W,1,8,1.1,200.0,M,24.5,M,,0000*5f
$GPGSA,A,3,,,,,,,,,,,,,0.000,0.000,0.000,*1e
$GPGSV,1,1,1,1,1,1,1,,,,,,,,,,,,*48
$GPGSV,1,1,1,1,1,1,1,,,,,,,,,,,,*48
$GPGGA,000066,03018.0439,N,09743.8763,W,1,8,1.1,200.0,M,24.5,M,,0000*5e
$GPGSA,A,3,,,,,,,,,,,,,0.000,0.000,0.000,*1e
$GPGSV,1,1,1,1,1,1,1,,,,,,,,,,,,*48
$GPGSV,1,1,1,1,1,1,1,,,,,,,,,,,,*48
$GPGGA,000067,03018.0431,N,09743.8863,W,1,8,1.1,200.0,M,24.5,M,,0000*58
$GPGSA,A,3,,,,,,,,,,,,,0.000,0.000,0.000,*1e
$GPGSV,1,1,1,1,1,1,1,,,,,,,,,,,,*48
$GPGSV,1,1,1,1,1,1,1,,,,,,,,,,,,*48
$GPGGA,000068,03018.0436,N,09743.8965,W,1,8,1.1,200.0,M,24.5,M,,0000*57
$GPGSA,A,3,,,,,,,,,,,,,0.000,0.000,0.000,*1e
$GPGSV,1,1,1,1,1,1,1,,,,,,,,,,,,*48
$GPGSV,1,1,1,1,1,1,1,,,,,,,,,,,,*48
$GPGGA,000069,03018.0453,N,09743.9066,W,1,8,1.1,200.0,M,24.5,M,,0000*5e
$GPGSA,A,3,,,,,,,,,,,,,0.000,0.000,0.000,*1e
$GPGSV,1,1,1,1,1,1,1,,,,,,,,,,,,*48
$GPGSV,1,1,1,1,1,1,1,,,,,,,,,,,,*48
$GPGGA,000070,03018.0482,N,09743.9163,W,1,8,1.1,200.0,M,24.5,M,,0000*5e
$GPGSA,A,3,,,,,,,,,,,,,0.000,0.000,0.000,*1e
$GPGSV,1,1,1,1,1,1,1,,,,,,,,,,,,*48
$GPGSV,1,1,1,1,1,1,1,,,,,,,,,,,,*48
$GPGGA,000071,03018.0524,N,09743.9255,W,1,8,1.1,200.0,M,24.5,M,,0000*54
$GPGSA,A,3,,,,,,,,,,,,,0.000,0.000,0.000,*1e
$GPGSV,1,1,1,1,1,1,1,,,,,,,,,,,,*48
$GPGSV,1,1,1,1,1,1,1,,,,,,,,,,,,*48
$GPGGA,000072,03018.0577,N,09743.9341,W,1,8,1.1,200.0,M,24.5,M,,0000*55
$GPGSA,A,3,,,,,,,,,,,,,0.000,0.000,0.000,*1e
$GPGSV,1,1,1,1,1,1,1,,,,,,,,,,,,*48
$GPGSV,1,1,1,1,1,1,1,,,,,,,,,,,,*48
$GPGGA,000073,03018.0640,N,09743.9418,W,1,8,1.1,200.0,M,24.5,M,,0000*58
$GPGSA,A,3,,,,,,,,,,,,,0.000,0.000,0.000,*1e
$GPGSV,1,1,1,1,1,1,1,,,,,,,,,,,,*48
$GPGSV,1,1,1,1,1,1,1,,,,,,,,,,,,*48
$GPGGA,000074,03018.0712,N,09743.9484,W,1,8,1.1,200.0,M,24.5,M,,0000*5c
$GPGSA,A,3,,,,,,,,,,,,,0.000,0.000,0.000,*1e
$GPGSV,1,1,1,1,1,1,1,,,,,,,,,,,,*48
$GPGSV,1,1,1,1,1,1,1,,,,,,,,,,,,*48
$GPGGA,000075,03018.0791,N,09743.9540,W,1,8,1.1,200.0,M,24.5,M,,0000*5f
$GPGSA,A,3,,,,,,,,,,,,,0.000,0.000,0.000,*1e
$GPGSV,1,1,1,1,1,1,1,,,,,,,,,,,,*48
$GPGSV,1,1,1,1,1,1,1,,,,,,,,,,,,*48
$GPGGA,000076,03018.0877,N,09743.9583,W,1,8,1.1,200.0,M,24.5,M,,0000*54
$GPGSA,A,3,,,,,,,,,,,,,0.000,0.000,0.000,*1e
$GPGSV,1,1,1,1,1,1,1,,,,,,,,,,,,*48
$GPGSV,1,1,1,1,1,1,1,,,,,,,,,,,,*48
$GPGGA,000077,03018.0968,N,09743.9612,W,1,8,1.1,200.0,M,24.5,M,,0000*51
$GPGSA,A,3,,,,,,,,,,,,,0.000,0.000,0.000,*1e
$GPGSV,1,1,1,1,1,1,1,,,,,,,,,,,,*48
$GPGSV,1,1,1,1,1,1,1,,,,,,,,,,,,*48
$GPGGA,000078,03018.1062,N,09743.9627,W,1,8,1.1,200.0,M,24.5,M,,0000*5a
$GPGSA,A,3,,,,,,,,,,,,,0.000,0.000,0.000,*1e
$GPGSV,1,1,1,1,1,1,1,,,,,,,,,,,,*48
$GPGSV,1,1,1,1,1,1,1,,,,,,,,,,,,*48
$GPGGA,000079,03018.1157,N,09743.9628,W,1,8,1.1,200.0,M,24.5,M,,0000*53
$GPGSA,A,3,,,,,,,,,,,,,0.000,0.000,0.000,*1e
$GPGSV,1,1,1,1,1,1,1,,,,,,,,,,,,*48
$GPGSV,1,1,1,1,1,1,1,,,,,,,,,,,,*48
$GPGGA,000080,03018.1252,N,09743.9614,W,1,8,1.1,200.0,M,24.5,M,,0000*5c
$GPGSA,A,3,,,,,,,,,,,,,0.000,0.000,0.000,*1e
$GPGSV,1,1,1,1,1,1,1,,,,,,,,,,,,*48
$GPGSV,1,1,1,1,1,1,1,,,,,,,,,,,,*48
$GPGGA,000081,03018.1345,N,09743.9586,W,1,8,1.1,200.0,M,24.5,M,,0000*52
$GPGSA,A,3,,,,,,,,,,,,,0.000,0.000,0.000,*1e
$GPGSV,1,1,1,1,1,1,1,,,,,,,,,,,,*48
$GPGSV,1,1,1,1,1,1,1,,,,,,,,,,,,*48
$GPGGA,000082,03018.1433,N,09743.9543,W,1,8,1.1,200.0,M,24.5,M,,0000*5e
$GPGSA,A,3,,,,,,,,,,,,,0.000,0.000,0.000,*1e
$GPGSV,1,1,1,1,1,1,1,,,,,,,,,,,,*48
$GPGSV,1,1,1,1,1,1,1,,,,,,,,,,,,*48
$GPGGA,000083,03018.1516,N,09743.9488,W,1,8,1.1,200.0,M,24.5,M,,0000*5f
$GPGSA,A,3,,,,,,,,,,,,,0.000,0.000,0.000,*1e
$GPGSV,1,1,1,1,1,1,1,,,,,,,,,,,,*48
$GPGSV,1,1,1,1,1,1,1,,,,,,,,,,,,*48
$GPGGA,000084,03018.1592,N,09743.9421,W,1,8,1.1,200.0,M,24.5,M,,0000*57
$GPGSA,A,3,,,,,,,,,,,,,0.000,0.000,0.000,*1e
$GPGSV,1,1,1,1,1,1,1,,,,,,,,,,,,*48
$GPGSV,1,1,1,1,1,1,1,,,,,,,,,,,,*48
$GPGGA,000085,03018.1660,N,09743.9343,W,1,8,1.1,200.0,M,24.5,M,,0000*5b
$GPGSA,A,3,,,,,,,,,,,,,0.000,0.000,0.000,*1e
$GPGSV,1,1,1,1,1,1,1,,,,,,,,,,,,*48
$GPGSV,1,1,1,1,1,1,1,,,,,,,,,,,,*48
$GPGGA,000086,03018.1718,N,09743.9255,W,1,8,1.1,200.0,M,24.5,M,,0000*50
$GPGSA,A,3,,,,,,,,,,,,,0.000,0.000,0.000,*1e
$GPGSV,1,1,1,1,1,1,1,,,,,,,,,,,,*48
$GPGSV,1,1,1,1,1,1,1,,,,,,,,,,,,*48
$GPGGA,000087,03018.1765,N,09743.9160,W,1,8,1.1,200.0,M,24.5,M,,0000*5e
$GPGSA,A,3,,,,,,,,,,,,,0.000,0.000,0.000,*1e
$GPGSV,1,1,1,1,1,1,1,,,,,,,,,,,,*48
$GPGSV,1,1,1,1,1,1,1,,,,,,,,,,,,*48
$GPGGA,000088,03018.1801,N,09743.9059,W,1,8,1.1,200.0,M,24.5,M,,0000*57
$GPGSA,A,3,,,,,,,,,,,,,0.000,0.000,0.000,*1e
$GPGSV,1,1,1,1,1,1,1,,,,,,,,,,,,*48
$GPGSV,1,1,1,1,1,1,1,,,,,,,,,,,,*48
$GPGGA,000089,03018.1824,N,09743.8954,W,1,8,1.1,200.0,M,24.5,M,,0000*54
$GPGSA,A,3,,,,,,,,,,,,,0.000,0.000,0.000,*1e
$GPGSV,1,1,1,1,1,1,1,,,,,,,,,,,,*48
$GPGSV,1,1,1,1,1,1,1,,,,,,,,,,,,*48
$GPGGA,000090,03018.1835,N,09743.8847,W,1,8,1.1,200.0,M,24.5,M,,0000*5f
$GPGSA,A,3,,,,,,,,,,,,,0.000,0.000,0.000,*1e
$GPGSV,1,1,1,1,1,1,1,,,,,,,,,,,,*48
$GPGSV,1,1,1,1,1,1,1,,,,,,,,,,,,*48
$GPGGA,000091,03018.1833,N,09743.8739,W,1,8,1.1,200.0,M,24.5,M,,0000*5e
$GPGSA,A,3,,,,,,,,,,,,,0.000,0.000,0.000,*1e
$GPGSV,1,1,1,1,1,1,1,,,,,,,,,,,,*48
$GPGSV,1,1,1,1,1,1,1,,,,,,,,,,,,*48
$GPGGA,000092,03018.1819,N,09743.8634,W,1,8,1.1,200.0,M,24.5,M,,0000*59
$GPGSA,A,3,,,,,,,,,,,,,0.000,0.000,0.000,*1e
$GPGSV,1,1,1,1,1,1,1,,,,,,,,,,,,*48
$GPGSV,1,1,1,1,1,1,1,,,,,,,,,,,,*48
$GPGGA,000093,03018.1793,N,09743.8533,W,1,8,1.1,200.0,M,24.5,M,,0000*51
$GPGSA,A,3,,,,,,,,,,,,,0.000,0.000,0.000,*1e
$GPGSV,1,1,1,1,1,1,1,,,,,,,,,,,,*48
$GPGSV,1,1,1,1,1,1,1,,,,,,,,,,,,*48
$GPGGA,000094,03018.1754,N,09743.8438,W,1,8,1.1,200.0,M,24.5,M,,0000*57
$GPGSA,A,3,,,,,,,,,,,,,0.000,0.000,0.000,*1e
$GPGSV,1,1,1,1,1,1,1,,,,,,,,,,,,*48
$GPGSV,1,1,1,1,1,1,1,,,,,,,,,,,,*48
$GPGGA,000095,03018.1706,N,09743.8350,W,1,8,1.1,200.0,M,24.5,M,,0000*58
$GPGSA,A,3,,,,,,,,,,,,,0.000,0.000,0.000,*1e
$GPGSV,1,1,1,1,1,1,1,,,,,,,,,,,,*48
$GPGSV,1,1,1,1,1,1,1,,,,,,,,,,,,*48
$GPGGA,000096,03018.1648,N,09743.8272,W,1,8,1.1,200.0,M,24.5,M,,0000*51
$GPGSA,A,3,,,,,,,,,,,,,0.000,0.000,0.000,*1e
$GPGSV,1,1,1,1,1,1,1,,,,,,,,,,,,*48
$GPGSV,1,1,1,1,1,1,1,,,,,,,,,,,,*48
$GPGGA,000097,03018.1581,N,09743.8205,W,1,8,1.1,200.0,M,24.5,M,,0000*56
$GPGSA,A,3,,,,,,,,,,,,,0.000,0.000,0.000,*1e
$GPGSV,1,1,1,1,1,1,1,,,,,,,,,,,,*48
$GPGSV,1,1,1,1,1,1,1,,,,,,,,,,,,*48
$GPGGA,000098,03018.1507,N,09743.8150,W,1,8,1.1,200.0,M,24.5,M,,0000*54
$GPGSA,A,3,,,,,,,,,,,,,0.000,0.000,0.000,*1e
$GPGSV,1,1,1,1,1,1,1,,,,,,,,,,,,*48
$GPGSV,1,1,1,1,1,1,1,,,,,,,,,,,,*48
$GPGGA,000099,03018.1428,N,09743.8108,W,1,8,1.1,200.0,M,24.5,M,,0000*54
$GPGSA,A,3,,,,,,,,,,,,,0.000,0.000,0.000,*1e
$GPGSV,1,1,1,1,1,1,1,,,,,,,,,,,,*48
$GPGSV,1,1,1,1,1,1,1,,,,,,,,,,,,*48
$GPGGA,000100,03018.1345,N,09743.8080,W,1,8,1.1,200.0,M,24.5,M,,0000*58
$GPGSA,A,3,,,,,,,,,,,,,0.000,0.000,0.000,*1e
$GPGSV,1,1,1,1,1,1,1,,,,,,,,,,,,*48
$GPGSV,1,1,1,1,1,1,1,,,,,,,,,,,,*48
$GPGGA,000101,03018.1259,N,09743.8065,W,1,8,1.1,200.0,M,24.5,M,,0000*5e
$GPGSA,A,3,,,,,,,,,,,,,0.000,0.000,0.000,*1e
$GPGSV,1,1,1,1,1,1,1,,,,,,,,,,,,*48
$GPGSV,1,1,1,1,1,1,1,,,,,,,,,,,,*48
$GPGGA,000102,03018.1173,N,09743.8067,W,1,8,1.1,200.0,M,24.5,M,,0000*54
$GPGSA,A,3,,,,,,,,,,,,,0.000,0.000,0.000,*1e
$GPGSV,1,1,1,1,1,1,1,,,,,,,,,,,,*48
$GPGSV,1,1,1,1,1,1,1,,,,,,,,,,,,*48
$GPGGA,000103,03018.1088,N,09743.8082,W,1,8,1.1,200.0,M,24.5,M,,0000*5b
$GPGSA,A,3,,,,,,,,,,,,,0.000,0.000,0.000,*1e
$GPGSV,1,1,1,1,1,1,1,,,,,,,,,,,,*48
$GPGSV,1,1,1,1,1,1,1,,,,,,,,,,,,*48
$GPGGA,000104,03018.1007,N,09743.8111,W,1,8,1.1,200.0,M,24.5,M,,0000*50
$GPGSA,A,3,,,,,,,,,,,,,0.000,0.000,0.000,*1e
$GPGSV,1,1,1,1,1,1,1,,,,,,,,,,,,*48
$GPGSV,1,1,1,1,1,1,1,,,,,,,,,,,,*48
$GPGGA,000105,03018.0930,N,09743.8154,W,1,8,1.1,200.0,M,24.5,M,,0000*5c
$GPGSA,A,3,,,,,,,,,,,,,0.000,0.000,0.000,*1e
$GPGSV,1,1,1,1,1,1,1,,,,,,,,,,,,*48
$GPGSV,1,1,1,1,1,1,1,,,,,,,,,,,,*48
$GPGGA,000106,03018.0860,N,09743.8209,W,1,8,1.1,200.0,M,24.5,M,,0000*50
$GPGSA,A,3,,,,,,,,,,,,,0.000,0.000,0.000,*1e
$GPGSV,1,1,1,1,1,1,1,,,,,,,,,,,,*48
$GPGSV,1,1,1,1,1,1,1,,,,,,,,,,,,*48
$GPGGA,000107,03018.0797,N,09743.8276,W,1,8,1.1,200.0,M,24.5,M,,0000*5e
$GPGSA,A,3,,,,,,,,,,,,,0.000,0.000,0.000,*1e
$GPGSV,1,1,1,1,1,1,1,,,,,,,,,,,,*48
$GPGSV,1,1,1,1,1,1,1,,,,,,,,,,,,*48
$GPGGA,000108,03018.0743,N,09743.8353,W,1,8,1.1,200.0,M,24.5,M,,0000*5e
$GPGSA,A,3,,,,,,,,,,,,,0.000,0.000,0.000,*1e
$GPGSV,1,1,1,1,1,1,1,,,,,,,,,,,,*48
$GPGSV,1,1,1,1,1,1,1,,,,,,,,,,,,*48
$GPGGA,000109,03018.0700,N,09743.8439,W,1,8,1.1,200.0,M,24.5,M,,0000*53
$GPGSA,A,3,,,,,,,,,,,,,0.000,0.000,0.000,*1e
$GPGSV,1,1,1,1,1,1,1,,,,,,,,,,,,*48
$GPGSV,1,1,1,1,1,1,1,,,,,,,,,,,,*48
$GPGGA,000110,03018.0668,N,09743.8531,W,1,8,1.1,200.0,M,24.5,M,,0000*5d
$GPGSA,A,3,,,,,,,,,,,,,0.000,0.000,0.000,*1e
$GPGSV,1,1,1,1,1,1,1,,,,,,,,,,,,*48
$GPGSV,1,1,1,1,1,1,1,,,,,,,,,,,,*48
$GPGGA,000111,03018.0647,N,09743.8628,W,1,8,1.1,200.0,M,24.5,M,,0000*5a
$GPGSA,A,3,,,,,,,,,,,,,0.000,0.000,0.000,*1e
$GPGSV,1,1,1,1,1,1,1,,,,,,,,,,,,*48
$GPGSV,1,1,1,1,1,1,1,,,,,,,,,,,,*48
$GPGGA,000112,03018.0640,N,09743.8728,W,1,8,1.1,200.0,M,24.5,M,,0000*5f
$GPGSA,A,3,,,,,,,,,,,,,0.000,0.000,0.000,*1e
$GPGSV,1,1,1,1,1,1,1,,,,,,,,,,,,*48
$GPGSV,1,1,1,1,1,1,1,,,,,,,,,,,,*48
$GPGGA,000113,03018.0644,N,09743.8830,W,1,8,1.1,200.0,M,24.5,M,,0000*5c
$GPGSA,A,3,,,,,,,,,,,,,0.000,0.000,0.000,*1e
$GPGSV,1,1,1,1,1,1,1,,,,,,,,,,,,*48
$GPGSV,1,1,1,1,1,1,1,,,,,,,,,,,,*48
$GPGGA,000114,03018.0661,N,09743.8931,W,1,8,1.1,200.0,M,24.5,M,,0000*5c
$GPGSA,A,3,,,,,,,,,,,,,0.000,0.000,0.000,*1e
$GPGSV,1,1,1,1,1,1,1,,,,,,,,,,,,*48
$GPGSV,1,1,1,1,1,1,1,,,,,,,,,,,,*48
$GPGGA,000115,03018.0691,N,09743.9028,W,1,8,1.1,200.0,M,24.5,M,,0000*52
$GPGSA,A,3,,,,,,,,,,,,,0.000,0.000,0.000,*1e
$GPGSV,1,1,1,1,1,1,1,,,,,,,,,,,,*48
$GPGSV,1,1,1,1,1,1,1,,,,,,,,,,,,*48
$GPGGA,000116,03018.0733,N,09743.9120,W,1,8,1.1,200.0,M,24.5,M,,0000*51
$GPGSA,A,3,,,,,,,,,,,,,0.000,0.000,0.000,*1e
$GPGSV,1,1,1,1,1,1,1,,,,,,,,,,,,*48
$GPGSV,1,1,1,1,1,1,1,,,,,,,,,,,,*48
$GPGGA,000117,03018.0785,N,09743.9206,W,1,8,1.1,200.0,M,24.5,M,,0000*5a
$GPGSA,A,3,,,,,,,,,,,,,0.000,0.000,0.000,*1e
$GPGSV,1,1,1,1,1,1,1,,,,,,,,,,,,*48
$GPGSV,1,1,1,1,1,1,1,,,,,,,,,,,,*48
$GPGGA,000118,03018.0848,N,09743.9283,W,1,8,1.1,200.0,M,24.5,M,,0000*56
$GPGSA,A,3,,,,,,,,,,,,,0.000,0.000,0.000,*1e
$GPGSV,1,1,1,1,1,1,1,,,,,,,,,,,,*48
$GPGSV,1,1,1,1,1,1,1,,,,,,,,,,,,*48
$GPGGA,000119,03018.0920,N,09743.9349,W,1,8,1.1,200.0,M,24.5,M,,0000*5f
$GPGSA,A,3,,,,,,,,,,,,,0.000,0.000,0.000,*1e
$GPGSV,1,1,1,1,1,1,1,,,,,,,,,,,,*48
$GPGSV,1,1,1,1,1,1,1,,,,,,,,,,,,*48
$GPGGA,000120,03018.1000,N,09743.9405,W,1,8,1.1,200.0,M,24.5,M,,0000*50
$GPGSA,A,3,,,,,,,,,,,,,0.000,0.000,0.000,*1e
$GPGSV,1,1,1,1,1,1,1,,,,,,,,,,,,*48
$GPGSV,1,1,1,1,1,1,1,,,,,,,,,,,,*48
$GPGGA,000121,03018.1086,N,09743.9448,W,1,8,1.1,200.0,M,24.5,M,,0000*56
$GPGSA,A,3,,,,,,,,,,,,,0.000,0.000,0.000,*1e
$GPGSV,1,1,1,1,1,1,1,,,,,,,,,,,,*48
$GPGSV,1,1,1,1,1,1,1,,,,,,,,,,,,*48
$GPGGA,000122,03018.1177,N,09743.9477,W,1,8,1.1,200.0,M,24.5,M,,0000*56
$GPGSA,A,3,,,,,,,,,,,,,0.000,0.000,0.000,*1e
$GPGSV,1,1,1,1,1,1,1,,,,,,,,,,,,*48
$GPGSV,1,1,1,1,1,1,1,,,,,,,,,,,,*48
$GPGGA,000123,03018.1271,N,09743.9492,W,1,8,1.1,200.0,M,24.5,M,,0000*59
$GPGSA,A,3,,,,,,,,,,,,,0.000,0.000,0.000,*1e
$GPGSV,1,1,1,1,1,1,1,,,,,,,,,,,,*48
$GPGSV,1,1,1,1,1,1,1,,,,,,,,,,,,*48
$GPGGA,000124,03018.1366,N,09743.9493,W,1,8,1.1,200.0,M,24.5,M,,0000*58
$GPGSA,A,3,,,,,,,,,,,,,0.000,0.000,0.000,*1e
$GPGSV,1,1,1,1,1,1,1,,,,,,,,,,,,*48
$GPGSV,1,1,1,1,1,1,1,,,,,,,,,,,,*48
$GPGGA,000125,03018.1460,N,09743.9479,W,1,8,1.1,200.0,M,24.5,M,,0000*5c
$GPGSA,A,3,,,,,,,,,,,,,0.000,0.000,0.000,*1e
$GPGSV,1,1,1,1,1,1,1,,,,,,,,,,,,*48
$GPGSV,1,1,1,1,1,1,1,,,,,,,,,,,,*48
$GPGGA,000126,03018.1553,N,09743.9451,W,1,8,1.1,200.0,M,24.5,M,,0000*54
$GPGSA,A,3,,,,,,,,,,,,,0.000,0.000,0.000,*1e
$GPGSV,1,1,1,1,1,1,1,,,,,,,,,,,,*48
$GPGSV,1,1,1,1,1,1,1,,,,,,,,,,,,*48
$GPGGA,000127,03018.1642,N,09743.9408,W,1,8,1.1,200.0,M,24.5,M,,0000*5a
$GPGSA,A,3,,,,,,,,,,,,,0.000,0.000,0.000,*1e
$GPGSV,1,1,1,1,1,1,1,,,,,,,,,,,,*48
$GPGSV,1,1,1,1,1,1,1,,,,,,,,,,,,*48
$GPGGA,000128,03018.1725,N,09743.9353,W,1,8,1.1,200.0,M,24.5,M,,0000*5c
$GPGSA,A,3,,,,,,,,,,,,,0.000,0.000,0.000,*1e
$GPGSV,1,1,1,1,1,1,1,,,,,,,,,,,,*48
$GPGSV,1,1,1,1,1,1,1,,,,,,,,,,,,*48
$GPGGA,000129,03018.1801,N,09743.9286,W,1,8,1.1,200.0,M,24.5,M,,0000*5d
$GPGSA,A,3,,,,,,,,,,,,,0.000,0.000,0.000,*1e
$GPGSV,1,1,1,1,1,1,1,,,,,,,,,,,,*48
$GPGSV,1,1,1,1,1,1,1,,,,,,,,,,,,*48
$GPGGA,000130,03018.1868,N,09743.9208,W,1,8,1.1,200.0,M,24.5,M,,0000*5c
$GPGSA,A,3,,,,,,,,,,,,,0.000,0.000,0.000,*1e
$GPGSV,1,1,1,1,1,1,1,,,,,,,,,,,,*48
$GPGSV,1,1,1,1,1,1,1,,,,,,,,,,,,*48
$GPGGA,000131,03018.1927,N,09743.9120,W,1,8,1.1,200.0,M,24.5,M,,0000*5e
$GPGSA,A,3,,,,,,,,,,,,,0.000,0.000,0.000,*1e
$GPGSV,1,1,1,1,1,1,1,,,,,,,,,,,,*48
$GPGSV,1,1,1,1,1,1,1,,,,,,,,,,,,*48
$GPGGA,000132,03018.1973,N,09743.9025,W,1,8,1.1,200.0,M,24.5,M,,0000*58
$GPGSA,A,3,,,,,,,,,,,,,0.000,0.000,0.000,*1e
$GPGSV,1,1,1,1,1,1,1,,,,,,,,,,,,*48
$GPGSV,1,1,1,1,1,1,1,,,,,,,,,,,,*48
$GPGGA,000133,03018.2009,N,09743.8924,W,1,8,1.1,200.0,M,24.5,M,,0000*57
$GPGSA,A,3,,,,,,,,,,,,,0.000,0.000,0.000,*1e
$GPGSV,1,1,1,1,1,1,1,,,,,,,,,,,,*48
$GPGSV,1,1,1,1,1,1,1,,,,,,,,,,,,*48
$GPGGA,000134,03018.2033,N,09743.8819,W,1,8,1.1,200.0,M,24.5,M,,0000*56
$GPGSA,A,3,,,,,,,,,,,,,0.000,0.000,0.000,*1e
$GPGSV,1,1,1,1,1,1,1,,,,,,,,,,,,*48
$GPGSV,1,1,1,1,1,1,1,,,,,,,,,,,,*48
$GPGGA,000135,03018.2044,N,09743.8712,W,1,8,1.1,200.0,M,24.5,M,,0000*53
$GPGSA,A,3,,,,,,,,,,,,,0.000,0.000,0.000,*1e
$GPGSV,1,1,1,1,1,1,1,,,,,,,,,,,,*48
$GPGSV,1,1,1,1,1,1,1,,,,,,,,,,,,*48
$GPGGA,000136,03018.2042,N,09743.8604,W,1,8,1.1,200.0,M,24.5,M,,0000*50
$GPGSA,A,3,,,,,,,,,,,,,0.000,0.000,0.000,*1e
$GPGSV,1,1,1,1,1,1,1,,,,,,,,,,,,*48
$GPGSV,1,1,1,1,1,1,1,,,,,,,,,,,,*48
$GPGGA,000137,03018.2028,N,09743.8499,W,1,8,1.1,200.0,M,24.5,M,,0000*5b
$GPGSA,A,3,,,,,,,,,,,,,0.000,0.000,0.000,*1e
$GPGSV,1,1,1,1,1,1,1,,,,,,,,,,,,*48
$GPGSV,1,1,1,1,1,1,1,,,,,,,,,,,,*48
$GPGGA,000138,03018.2002,N,09743.8398,W,1,8,1.1,200.0,M,24.5,M,,0000*5a
$GPGSA,A,3,,,,,,,,,,,,,0.000,0.000,0.000,*1e
$GPGSV,1,1,1,1,1,1,1,,,,,,,,,,,,*48
$GPGSV,1,1,1,1,1,1,1,,,,,,,,,,,,*48
$GPGGA,000139,03018.1963,N,09743.8303,W,1,8,1.1,200.0,M,24.5,M,,0000*54
$GPGSA,A,3,,,,,,,,,,,,,0.000,0.000,0.000,*1e
$GPGSV,1,1,1,1,1,1,1,,,,,,,,,,,,*48
$GPGSV,1,1,1,1,1,1,1,,,,,,,,,,,,*48
$GPGGA,000140,03018.1915,N,09743.8215,W,1,8,1.1,200.0,M,24.5,M,,0000*5d
$GPGSA,A,3,,,,,,,,,,,,,0.000,0.000,0.000,*1e
$GPGSV,1,1,1,1,1,1,1,,,,,,,,,,,,*48
$GPGSV,1,1,1,1,1,1,1,,,,,,,,,,,,*48
$GPGGA,000141,03018.1856,N,09743.8137,W,1,8,1.1,200.0,M,24.5,M,,0000*59
$GPGSA,A,3,,,,,,,,,,,,,0.000,0.000,0.000,*1e
$GPGSV,1,1,1,1,1,1,1,,,,,,,,,,,,*48
$GPGSV,1,1,1,1,1,1,1,,,,,,,,,,,,*48
$GPGGA,000142,03018.1790,N,09743.8070,W,1,8,1.1,200.0,M,24.5,M,,0000*5d
$GPGSA,A,3,,,,,,,,,,,,,0.000,0.000,0.000,*1e
$GPGSV,1,1,1,1,1,1,1,,,,,,,,,,,,*48
$GPGSV,1,1,1,1,1,1,1,,,,,,,,,,,,*48
$GPGGA,000143,03018.1716,N,09743.8015,W,1,8,1.1,200.0,M,24.5,M,,0000*51
$GPGSA,A,3,,,,,,,,,,,,,0.000,0.000,0.000,*1e
$GPGSV,1,1,1,1,1,1,1,,,,,,,,,,,,*48
$GPGSV,1,1,1,1,1,1,1,,,,,,,,,,,,*48
$GPGGA,000144,03018.1636,N,09743.7973,W,1,8,1.1,200.0,M,24.5,M,,0000*53
$GPGSA,A,3,,,,,,,,,,,,,0.000,0.000,0.000,*1e
$GPGSV,1,1,1,1,1,1,1,,,,,,,,,,,,*48
$GPGSV,1,1,1,1,1,1,1,,,,,,,,,,,,*48
$GPGGA,000145,03018.1553,N,09743.7945,W,1,8,1.1,200.0,M,24.5,M,,0000*57
$GPGSA,A,3,,,,,,,,,,,,,0.000,0.000,0.000,*1e
$GPGSV,1,1,1,1,1,1,1,,,,,,,,,,,,*48
$GPGSV,1,1,1,1,1,1,1,,,,,,,,,,,,*48
$GPGGA,000146,03018.1468,N,09743.7930,W,1,8,1.1,200.0,M,24.5,M,,0000*5f
$GPGSA,A,3,,,,,,,,,,,,,0.000,0.000,0.000,*1e
$GPGSV,1,1,1,1,1,1,1,,,,,,,,,,,,*48
$GPGSV,1,1,1,1,1,1,1,,,,,,,,,,,,*48
$GPGGA,000147,03018.1382,N,09743.7932,W,1,8,1.1,200.0,M,24.5,M,,0000*5f
$GPGSA,A,3,,,,,,,,,,,,,0.000,0.000,0.000,*1e
$GPGSV,1,1,1,1,1,1,1,,,,,,,,,,,,*48
$GPGSV,1,1,1,1,1,1,1,,,,,,,,,,,,*48
$GPGGA,000148,03018.1297,N,09743.7947,W,1,8,1.1,200.0,M,24.5,M,,0000*57
$GPGSA,A,3,,,,,,,,,,,,,0.000,0.000,0.000,*1e
$GPGSV,1,1,1,1,1,1,1,,,,,,,,,,,,*48
$GPGSV,1,1,1,1,1,1,1,,,,,,,,,,,,*48
$GPGGA,000149,03018.1216,N,09743.7976,W,1,8,1.1,200.0,M,24.5,M,,0000*5d
$GPGSA,A,3,,,,,,,,,,,,,0.000,0.000,0.000,*1e
$GPGSV,1,1,1,1,1,1,1,,,,,,,,,,,,*48
$GPGSV,1,1,1,1,1,1,1,,,,,,,,,,,,*48
$GPGGA,000150,03018.1139,N,09743.8019,W,1,8,1.1,200.0,M,24.5,M,,0000*54
$GPGSA,A,3,,,,,,,,,,,,,0.000,0.000,0.000,*1e
$GPGSV,1,1,1,1,1,1,1,,,,,,,,,,,,*48
$GPGSV,1,1,1,1,1,1,1,,,,,,,,,,,,*48
$GPGGA,000151,03018.1069,N,09743.8074,W,1,8,1.1,200.0,M,24.5,M,,0000*5a
$GPGSA,A,3,,,,,,,,,,,,,0.000,0.000,0.000,*1e
$GPGSV,1,1,1,1,1,1,1,,,,,,,,,,,,*48
$GPGSV,1,1,1,1,1,1,1,,,,,,,,,,,,*48
$GPGGA,000152,03018.1006,N,09743.8141,W,1,8,1.1,200.0,M,24.5,M,,0000*57
$GPGSA,A,3,,,,,,,,,,,,,0.000,0.000,0.000,*1e
$GPGSV,1,1,1,1,1,1,1,,,,,,,,,,,,*48
$GPGSV,1,1,1,1,1,1,1,,,,,,,,,,,,*48
$GPGGA,000153,03018.0952,N,09743.8218,W,1,8,1.1,200.0,M,24.5,M,,0000*50
$GPGSA,A,3,,,,,,,,,,,,,0.000,0.000,0.000,*1e
$GPGSV,1,1,1,1,1,1,1,,,,,,,,,,,,*48
$GPGSV,1,1,1,1,1,1,1,,,,,,,,,,,,*48
$GPGGA,000154,03018.0909,N,09743.8304,W,1,8,1.1,200.0,M,24.5,M,,0000*55
$GPGSA,A,3,,,,,,,,,,,,,0.000,0.000,0.000,*1e
$GPGSV,1,1,1,1,1,1,1,,,,,,,,,,,,*48
$GPGSV,1,1,1,1,1,1,1,,,,,,,,,,,,*48
$GPGGA,000155,03018.0877,N,09743.8396,W,1,8,1.1,200.0,M,24.5,M,,0000*57
$GPGSA,A,3,,,,,,,,,,,,,0.000,0.000,0.000,*1e
$GPGSV,1,1,1,1,1,1,1,,,,,,,,,,,,*48
$GPGSV,1,1,1,1,1,1,1,,,,,,,,,,,,*48
$GPGGA,000156,03018.0856,N,09743.8493,W,1,8,1.1,200.0,M,24.5,M,,0000*55
$GPGSA,A,3,,,,,,,,,,,,,0.000,0.000,0.000,*1e
$GPGSV,1,1,1,1,1,1,1,,,,,,,,,,,,*48
$GPGSV,1,1,1,1,1,1,1,,,,,,,,,,,,*48
$GPGGA,000157,03018.0848,N,09743.8593,W,1,8,1.1,200.0,M,24.5,M,,0000*5a
$GPGSA,A,3,,,,,,,,,,,,,0.000,0.000,0.000,*1e
$GPGSV,1,1,1,1,1,1,1,,,,,,,,,,,,*48
$GPGSV,1,1,1,1,1,1,1,,,,,,,,,,,,*48
$GPGGA,000158,03018.0853,N,09743.8695,W,1,8,1.1,200.0,M,24.5,M,,0000*5a
$GPGSA,A,3,,,,,,,,,,,,,0.000,0.000,0.000,*1e
$GPGSV,1,1,1,1,1,1,1,,,,,,,,,,,,*48
$GPGSV,1,1,1,1,1,1,1,,,,,,,,,,,,*48
$GPGGA,000159,03018.0870,N,09743.8796,W,1,8,1.1,200.0,M,24.5,M,,0000*58
$GPGSA,A,3,,,,,,,,,,,,,0.000,0.000,0.000,*1e
$GPGSV,1,1,1,1,1,1,1,,,,,,,,,,,,*48
$GPGSV,1,1,1,1,1,1,1,,,,,,,,,,,,*48
$GPGGA,000160,03018.0900,N,09743.8893,W,1,8,1.1,200.0,M,24.5,M,,0000*5e
$GPGSA,A,3,,,,,,,,,,,,,0.000,0.000,0.000,*1e
$GPGSV,1,1,1,1,1,1,1,,,,,,,,,,,,*48
$GPGSV,1,1,1,1,1,1,1,,,,,,,,,,,,*48
$GPGGA,000161,03018.0941,N,09743.8985,W,1,8,1.1,200.0,M,24.5,M,,0000*5c
$GPGSA,A,3,,,,,,,,,,,,,0.000,0.000,0.000,*1e
$GPGSV,1,1,1,1,1,1,1,,,,,,,,,,,,*48
$GPGSV,1,1,1,1,1,1,1,,,,,,,,,,,,*48
$GPGGA,000162,03018.0994,N,09743.9071,W,1,8,1.1,200.0,M,24.5,M,,0000*54
$GPGSA,A,3,,,,,,,,,,,,,0.000,0.000,0.000,*1e
$GPGSV,1,1,1,1,1,1,1,,,,,,,,,,,,*48
$GPGSV,1,1,1,1,1,1,1,,,,,,,,,,,,*48
$GPGGA,000163,03018.1057,N,09743.9148,W,1,8,1.1,200.0,M,24.5,M,,0000*59
$GPGSA,A,3,,,,,,,,,,,,,0.000,0.000,0.000,*1e
$GPGSV,1,1,1,1,1,1,1,,,,,,,,,,,,*48
$GPGSV,1,1,1,1,1,1,1,,,,,,,,,,,,*48
$GPGGA,000164,03018.1129,N,09743.9214,W,1,8,1.1,200.0,M,24.5,M,,0000*5c
$GPGSA,A,3,,,,,,,,,,,,,0.000,0.000,0.000,*1e
$GPGSV,1,1,1,1,1,1,1,,,,,,,,,,,,*48
$GPGSV,1,1,1,1,1,1,1,,,,,,,,,,,,*48
$GPGGA,000165,03018.1208,N,09743.9270,W,1,8,1.1,200.0,M,24.5,M,,0000*5f
$GPGSA,A,3,,,,,,,,,,,,,0.000,0.000,0.000,*1e
$GPGSV,1,1,1,1,1,1,1,,,,,,,,,,,,*48
$GPGSV,1,1,1,1,1,1,1,,,,,,,,,,,,*48
$GPGGA,000166,03018.1295,N,09743.9313,W,1,8,1.1,200.0,M,24.5,M,,0000*5c
$GPGSA,A,3,,,,,,,,,,,,,0.000,0.000,0.000,*1e
$GPGSV,1,1,1,1,1,1,1,,,,,,,,,,,,*48
$GPGSV,1,1,1,1,1,1,1,,,,,,,,,,,,*48
$GPGGA,000167,03018.1385,N,09743.9342,W,1,8,1.1,200.0,M,24.5,M,,0000*59
$GPGSA,A,3,,,,,,,,,,,,,0.000,0.000,0.000,*1e
$GPGSV,1,1,1,1,1,1,1,,,,,,,,,,,,*48
$GPGSV,1,1,1,1,1,1,1,,,,,,,,,,,,*48
$GPGGA,000168,03018.1480,N,09743.9357,W,1,8,1.1,200.0,M,24.5,M,,0000*50
$GPGSA,A,3,,,,,,,,,,,,,0.000,0.000,0.000,*1e
$GPGSV,1,1,1,1,1,1,1,,,,,,,,,,,,*48
$GPGSV,1,1,1,1,1,1,1,,,,,,,,,,,,*48
$GPGGA,000169,03018.1575,N,09743.9358,W,1,8,1.1,200.0,M,24.5,M,,0000*55
$GPGSA,A,3,,,,,,,,,,,,,0.000,0.000,0.000,*1e
$GPGSV,1,1,1,1,1,1,1,,,,,,,,,,,,*48
$GPGSV,1,1,1,1,1,1,1,,,,,,,,,,,,*48
$GPGGA,000170,03018.1670,N,09743.9344,W,1,8,1.1,200.0,M,24.5,M,,0000*56
$GPGSA,A,3,,,,,,,,,,,,,0.000,0.000,0.000,*1e
$GPGSV,1,1,1,1,1,1,1,,,,,,,,,,,,*48
$GPGSV,1,1,1,1,1,1,1,,,,,,,,,,,,*48
$GPGGA,000171,03018.1762,N,09743.9316,W,1,8,1.1,200.0,M,24.5,M,,0000*52
$GPGSA,A,3,,,,,,,,,,,,,0.000,0.000,0.000,*1e
$GPGSV,1,1,1,1,1,1,1,,,,,,,,,,,,*48
$GPGSV,1,1,1,1,1,1,1,,,,,,,,,,,,*48
$GPGGA,000172,03018.1851,N,09743.9274,W,1,8,1.1,200.0,M,24.5,M,,0000*5b
$GPGSA,A,3,,,,,,,,,,,,,0.000,0.000,0.000,*1e
$GPGSV,1,1,1,1,1,1,1,,,,,,,,,,,,*48
$GPGSV,1,1,1,1,1,1,1,,,,,,,,,,,,*48
$GPGGA,000173,03018.1934,N,09743.9219,W,1,8,1.1,200.0,M,24.5,M,,0000*53
$GPGSA,A,3,,,,,,,,,,,,,0.000,0.000,0.000,*1e
$GPGSV,1,1,1,1,1,1,1,,,,,,,,,,,,*48
$GPGSV,1,1,1,1,1,1,1,,,,,,,,,,,,*48
$GPGGA,000174,03018.2010,N,09743.9151,W,1,8,1.1,200.0,M,24.5,M,,0000*57
$GPGSA,A,3,,,,,,,,,,,,,0.000,0.000,0.000,*1e
$GPGSV,1,1,1,1,1,1,1,,,,,,,,,,,,*48
$GPGSV,1,1,1,1,1,1,1,,,,,,,,,,,,*48
$GPGGA,000175,03018.2078,N,09743.9073,W,1,8,1.1,200.0,M,24.5,M,,0000*59
$GPGSA,A,3,,,,,,,,,,,,,0.000,0.000,0.000,*1e
$GPGSV,1,1,1,1,1,1,1,,,,,,,,,,,,*48
$GPGSV,1,1,1,1,1,1,1,,,,,,,,,,,,*48
$GPGGA,000176,03018.2135,N,09743.8986,W,1,8,1.1,200.0,M,24.5,M,,0000*50
$GPGSA,A,3,,,,,,,,,,,,,0.000,0.000,0.000,*1e
$GPGSV,1,1,1,1,1,1,1,,,,,,,,,,,,*48
$GPGSV,1,1,1,1,1,1,1,,,,,,,,,,,,*48
$GPGGA,000177,03018.2183,N,09743.8890,W,1,8,1.1,200.0,M,24.5,M,,0000*5a
$GPGSA,A,3,,,,,,,,,,,,,0.000,0.000,0.000,*1e
$GPGSV,1,1,1,1,1,1,1,,,,,,,,,,,,*48
$GPGSV,1,1,1,1,1,1,1,,,,,,,,,,,,*48
$GPGGA,000178,03018.2218,N,09743.8790,W,1,8,1.1,200.0,M,24.5,M,,0000*5b
$GPGSA,A,3,,,,,,,,,,,,,0.000,0.000,0.000,*1e
$GPGSV,1,1,1,1,1,1,1,,,,,,,,,,,,*48
$GPGSV,1,1,1,1,1,1,1,,,,,,,,,,,,*48
$GPGGA,000179,03018.2242,N,09743.8684,W,1,8,1.1,200.0,M,24.5,M,,0000*51
$GPGSA,A,3,,,,,,,,,,,,,0.000,0.000,0.000,*1e
$GPGSV,1,1,1,1,1,1,1,,,,,,,,,,,,*48
$GPGSV,1,1,1,1,1,1,1,,,,,,,,,,,,*48
$GPGGA,000180,03018.2253,N,09743.8577,W,1,8,1.1,200.0,M,24.5,M,,0000*58
$GPGSA,A,3,,,,,,,,,,,,,0.000,0.000,0.000,*1e
$GPGSV,1,1,1,1,1,1,1,,,,,,,,,,,,*48
$GPGSV,1,1,1,1,1,1,1,,,,,,,,,,,,*48
$GPGGA,000181,03018.2251,N,09743.8470,W,1,8,1.1,200.0,M,24.5,M,,0000*5d
$GPGSA,A,3,,,,,,,,,,,,,0.000,0.000,0.000,*1e
$GPGSV,1,1,1,1,1,1,1,,,,,,,,,,,,*48
$GPGSV,1,1,1,1,1,1,1,,,,,,,,,,,,*48
$GPGGA,000182,03018.2237,N,09743.8365,W,1,8,1.1,200.0,M,24.5,M,,0000*5d
$GPGSA,A,3,,,,,,,,,,,,,0.000,0.000,0.000,*1e
$GPGSV,1,1,1,1,1,1,1,,,,,,,,,,,,*48
$GPGSV,1,1,1,1,1,1,1,,,,,,,,,,,,*48
$GPGGA,000183,03018.2210,N,09743.8264,W,1,8,1.1,200.0,M,24.5,M,,0000*59
$GPGSA,A,3,,,,,,,,,,,,,0.000,0.000,0.000,*1e
$GPGSV,1,1,1,1,1,1,1,,,,,,,,,,,,*48
$GPGSV,1,1,1,1,1,1,1,,,,,,,,,,,,*48
$GPGGA,000184,03018.2173,N,09743.8169,W,1,8,1.1,200.0,M,24.5,M,,0000*56
$GPGSA,A,3,,,,,,,,,,,,,0.000,0.000,0.000,*1e
$GPGSV,1,1,1,1,1,1,1,,,,,,,,,,,,*48
$GPGSV,1,1,1,1,1,1,1,,,,,,,,,,,,*48
$GPGGA,000185,03018.2124,N,09743.8081,W,1,8,1.1,200.0,M,24.5,M,,0000*52
$GPGSA,A,3,,,,,,,,,,,,,0.000,0.000,0.000,*1e
$GPGSV,1,1,1,1,1,1,1,,,,,,,,,,,,*48
$GPGSV,1,1,1,1,1,1,1,,,,,,,,,,,,*48
$GPGGA,000186,03018.2066,N,09743.8003,W,1,8,1.1,200.0,M,24.5,M,,0000*5c
$GPGSA,A,3,,,,,,,,,,,,,0.000,0.000,0.000,*1e
$GPGSV,1,1,1,1,1,1,1,,,,,,,,,,,,*48
$GPGSV,1,1,1,1,1,1,1,,,,,,,,,,,,*48
$GPGGA,000187,03018.1999,N,09743.7936,W,1,8,1.1,200.0,M,24.5,M,,0000*57
$GPGSA,A,3,,,,,,,,,,,,,0.000,0.000,0.000,*1e
$GPGSV,1,1,1,1,1,1,1,,,,,,,,,,,,*48
$GPGSV,1,1,1,1,1,1,1,,,,,,,,,,,,*48
$GPGGA,000188,03018.1925,N,09743.7881,W,1,8,1.1,200.0,M,24.5,M,,0000*52
$GPGSA,A,3,,,,,,,,,,,,,0.000,0.000,0.000,*1e
$GPGSV,1,1,1,1,1,1,1,,,,,,,,,,,,*48
$GPGSV,1,1,1,1,1,1,1,,,,,,,,,,,,*48
$GPGGA,000189,03018.1846,N,09743.7839,W,1,8,1.1,200.0,M,24.5,M,,0000*54
$GPGSA,A,3,,,,,,,,,,,,,0.000,0.000,0.000,*1e
$GPGSV,1,1,1,1,1,1,1,,,,,,,,,,,,*48
$GPGSV,1,1,1,1,1,1,1,,,,,,,,,,,,*48
$GPGGA,000190,03018.1763,N,09743.7810,W,1,8,1.1,200.0,M,24.5,M,,0000*5f
$GPGSA,A,3,,,,,,,,,,,,,0.000,0.000,0.000,*1e
$GPGSV,1,1,1,1,1,1,1,,,,,,,,,,,,*48
$GPGSV,1,1,1,1,1,1,1,,,,,,,,,,,,*48
$GPGGA,000191,03018.1677,N,09743.7797,W,1,8,1.1,200.0,M,24.5,M,,0000*5a
$GPGSA,A,3,,,,,,,,,,,,,0.000,0.000,0.000,*1e
$GPGSV,1,1,1,1,1,1,1,,,,,,,,,,,,*48
$GPGSV,1,1,1,1,1,1,1,,,,,,,,,,,,*48
$GPGGA,000192,03018.1591,N,09743.7797,W,1,8,1.1,200.0,M,24.5,M,,0000*52
$GPGSA,A,3,,,,,,,,,,,,,0.000,0.000,0.000,*1e
$GPGSV,1,1,1,1,1,1,1,,,,,,,,,,,,*48
$GPGSV,1,1,1,1,1,1,1,,,,,,,,,,,,*48
$GPGGA,000193,03018.1507,N,09743.7812,W,1,8,1.1,200.0,M,24.5,M,,0000*5e
$GPGSA,A,3,,,,,,,,,,,,,0.000,0.000,0.000,*1e
$GPGSV,1,1,1,1,1,1,1,,,,,,,,,,,,*48
$GPGSV,1,1,1,1,1,1,1,,,,,,,,,,,,*48
$GPGGA,000194,03018.1425,N,09743.7842,W,1,8,1.1,200.0,M,24.5,M,,0000*5d
$GPGSA,A,3,,,,,,,,,,,,,0.000,0.000,0.000,*1e
$GPGSV,1,1,1,1,1,1,1,,,,,,,,,,,,*48
$GPGSV,1,1,1,1,1,1,1,,,,,,,,,,,,*48
$GPGGA,000195,03018.1348,N,09743.7885,W,1,8,1.1,200.0,M,24.5,M,,0000*5b
$GPGSA,A,3,,,,,,,,,,,,,0.000,0.000,0.000,*1e
$GPGSV,1,1,1,1,1,1,1,,,,,,,,,,,,*48
$GPGSV,1,1,1,1,1,1,1,,,,,,,,,,,,*48
$GPGGA,000196,03018.1278,N,09743.7940,W,1,8,1.1,200.0,M,24.5,M,,0000*52
$GPGSA,A,3,,,,,,,,,,,,,0.000,0.000,0.000,*1e
$GPGSV,1,1,1,1,1,1,1,,,,,,,,,,,,*48
$GPGSV,1,1,1,1,1,1,1,,,,,,,,,,,,*48
$GPGGA,000197,03018.1215,N,09743.8007,W,1,8,1.1,200.0,M,24.5,M,,0000*5d
$GPGSA,A,3,,,,,,,,,,,,,0.000,0.000,0.000,*1e
$GPGSV,1,1,1,1,1,1,1,,,,,,,,,,,,*48
$GPGSV,1,1,1,1,1,1,1,,,,,,,,,,,,*48
$GPGGA,000198,03018.1162,N,09743.8084,W,1,8,1.1,200.0,M,24.5,M,,0000*5a
$GPGSA,A,3,,,,,,,,,,,,,0.000,0.000,0.000,*1e
$GPGSV,1,1,1,1,1,1,1,,,,,,,,,,,,*48
$GPGSV,1,1,1,1,1,1,1,,,,,,,,,,,,*48
$GPGGA,000199,03018.1118,N,09743.8170,W,1,8,1.1,200.0,M,24.5,M,,0000*5c
$GPGSA,A,3,,,,,,,,,,,,,0.000,0.000,0.000,*1e
$GPGSV,1,1,1,1,1,1,1,,,,,,,,,,,,*48
$GPGSV,1,1,1,1,1,1,1,,,,,,,,,,,,*48
$GPGGA,000200,03018.1086,N,09743.8262,W,1,8,1.1,200.0,M,24.5,M,,0000*59
$GPGSA,A,3,,,,,,,,,,,,,0.000,0.000,0.000,*1e
$GPGSV,1,1,1,1,1,1,1,,,,,,,,,,,,*48
$GPGSV,1,1,1,1,1,1,1,,,,,,,,,,,,*48
$GPGGA,000201,03018.1066,N,09743.8359,W,1,8,1.1,200.0,M,24.5,M,,0000*5f
$GPGSA,A,3,,,,,,,,,,,,,0.000,0.000,0.000,*1e
$GPGSV,1,1,1,1,1,1,1,,,,,,,,,,,,*48
$GPGSV,1,1,1,1,1,1,1,,,,,,,,,,,,*48
$GPGGA,000202,03018.1058,N,09743.8460,W,1,8,1.1,200.0,M,24.5,M,,0000*5c
$GPGSA,A,3,,,,,,,,,,,,,0.000,0.000,0.000,*1e
$GPGSV,1,1,1,1,1,1,1,,,,,,,,,,,,*48
$GPGSV,1,1,1,1,1,1,1,,,,,,,,,,,,*48
$GPGGA,000203,03018.1063,N,09743.8562,W,1,8,1.1,200.0,M,24.5,M,,0000*56
$GPGSA,A,3,,,,,,,,,,,,,0.000,0.000,0.000,*1e
$GPGSV,1,1,1,1,1,1,1,,,,,,,,,,,,*48
$GPGSV,1,1,1,1,1,1,1,,,,,,,,,,,,*48
$GPGGA,000204,03018.1080,N,09743.8662,W,1,8,1.1,200.0,M,24.5,M,,0000*5f
$GPGSA,A,3,,,,,,,,,,,,,0.000,0.000,0.000,*1e
$GPGSV,1,1,1,1,1,1,1,,,,,,,,,,,,*48
$GPGSV,1,1,1,1,1,1,1,,,,,,,,,,,,*48
$GPGGA,000205,03018.1109,N,09743.8759,W,1,8,1.1,200.0,M,24.5,M,,0000*57
$GPGSA,A,3,,,,,,,,,,,,,0.000,0.000,0.000,*1e
$GPGSV,1,1,1,1,1,1,1,,,,,,,,,,,,*48
$GPGSV,1,1,1,1,1,1,1,,,,,,,,,,,,*48
$GPGGA,000206,03018.1151,N,09743.8851,W,1,8,1.1,200.0,M,24.5,M,,0000*5e
$GPGSA,A,3,,,,,,,,,,,,,0.000,0.000,0.000,*1e
$GPGSV,1,1,1,1,1,1,1,,,,,,,,,,,,*48
$GPGSV,1,1,1,1,1,1,1,,,,,,,,,,,,*48
$GPGGA,000207,03018.1204,N,09743.8937,W,1,8,1.1,200.0,M,24.5,M,,0000*5d
$GPGSA,A,3,,,,,,,,,,,,,0.000,0.000,0.000,*1e
$GPGSV,1,1,1,1,1,1,1,,,,,,,,,,,,*48
$GPGSV,1,1,1,1,1,1,1,,,,,,,,,,,,*48
$GPGGA,000208,03018.1267,N,09743.9014,W,1,8,1.1,200.0,M,24.5,M,,0000*5e
$GPGSA,A,3,,,,,,,,,,,,,0.000,0.000,0.000,*1e
$GPGSV,1,1,1,1,1,1,1,,,,,,,,,,,,*48
$GPGSV,1,1,1,1,1,1,1,,,,,,,,,,,,*48
$GPGGA,000209,03018.1339,N,09743.9081,W,1,8,1.1,200.0,M,24.5,M,,0000*59
$GPGSA,A,3,,,,,,,,,,,,,0.000,0.000,0.000,*1e
$GPGSV,1,1,1,1,1,1,1,,,,,,,,,,,,*48
$GPGSV,1,1,1,1,1,1,1,,,,,,,,,,,,*48
$GPGGA,000210,03018.1418,N,09743.9136,W,1,8,1.1,200.0,M,24.5,M,,0000*58
$GPGSA,A,3,,,,,,,,,,,,,0.000,0.000,0.000,*1e
$GPGSV,1,1,1,1,1,1,1,,,,,,,,,,,,*48
$GPGSV,1,1,1,1,1,1,1,,,,,,,,,,,,*48
$GPGGA,000211,03018.1505,N,09743.9180,W,1,8,1.1,200.0,M,24.5,M,,0000*59
$GPGSA,A,3,,,,,,,,,,,,,0.000,0.000,0.000,*1e
$GPGSV,1,1,1,1,1,1,1,,,,,,,,,,,,*48
$GPGSV,1,1,1,1,1,1,1,,,,,,,,,,,,*48
$GPGGA,000212,03018.1595,N,09743.9208,W,1,8,1.1,200.0,M,24.5,M,,0000*50
$GPGSA,A,3,,,,,,,,,,,,,0.000,0.000,0.000,*1e
$GPGSV,1,1,1,1,1,1,1,,,,,,,,,,,,*48
$GPGSV,1,1,1,1,1,1,1,,,,,,,,,,,,*48
$GPGGA,000213,03018.1690,N,09743.9224,W,1,8,1.1,200.0,M,24.5,M,,0000*59
$GPGSA,A,3,,,,,,,,,,,,,0.000,0.000,0.000,*1e
$GPGSV,1,1,1,1,1,1,1,,,,,,,,,,,,*48
$GPGSV,1,1,1,1,1,1,1,,,,,,,,,,,,*48
$GPGGA,000214,03018.1784,N,09743.9225,W,1,8,1.1,200.0,M,24.5,M,,0000*5b
$GPGSA,A,3,,,,,,,,,,,,,0.000,0.000,0.000,*1e
$GPGSV,1,1,1,1,1,1,1,,,,,,,,,,,,*48
$GPGSV,1,1,1,1,1,1,1,,,,,,,,,,,,*48
$GPGGA,000215,03018.1879,N,09743.9211,W,1,8,1.1,200.0,M,24.5,M,,0000*50
$GPGSA,A,3,,,,,,,,,,,,,0.000,0.000,0.000,*1e
$GPGSV,1,1,1,1,1,1,1,,,,,,,,,,,,*48
$GPGSV,1,1,1,1,1,1,1,,,,,,,,,,,,*48
$GPGGA,000216,03018.1972,N,09743.9183,W,1,8,1.1,200.0,M,24.5,M,,0000*51
$GPGSA,A,3,,,,,,,,,,,,,0.000,0.000,0.000,*1e
$GPGSV,1,1,1,1,1,1,1,,,,,,,,,,,,*48
$GPGSV,1,1,1,1,1,1,1,,,,,,,,,,,,*48
$GPGGA,000217,03018.2060,N,09743.9140,W,1,8,1.1,200.0,M,24.5,M,,0000*56
$GPGSA,A,3,,,,,,,,,,,,,0.000,0.000,0.000,*1e
$GPGSV,1,1,1,1,1,1,1,,,,,,,,,,,,*48
$GPGSV,1,1,1,1,1,1,1,,,,,,,,,,,,*48
$GPGGA,000218,03018.2144,N,09743.9085,W,1,8,1.1,200.0,M,24.5,M,,0000*56
$GPGSA,A,3,,,,,,,,,,,,,0.000,0.000,0.000,*1e
$GPGSV,1,1,1,1,1,1,1,,,,,,,,,,,,*48
$GPGSV,1,1,1,1,1,1,1,,,,,,,,,,,,*48
$GPGGA,000219,03018.2220,N,09743.9018,W,1,8,1.1,200.0,M,24.5,M,,0000*52
$GPGSA,A,3,,,,,,,,,,,,,0.000,0.000,0.000,*1e
$GPGSV,1,1,1,1,1,1,1,,,,,,,,,,,,*48
$GPGSV,1,1,1,1,1,1,1,,,,,,,,,,,,*48
$GPGGA,000220,03018.2287,N,09743.8940,W,1,8,1.1,200.0,M,24.5,M,,0000*50
$GPGSA,A,3,,,,,,,,,,,,,0.000,0.000,0.000,*1e
$GPGSV,1,1,1,1,1,1,1,,,,,,,,,,,,*48
$GPGSV,1,1,1,1,1,1,1,,,,,,,,,,,,*48
$GPGGA,000221,03018.2345,N,09743.8852,W,1,8,1.1,200.0,M,24.5,M,,0000*5c
$GPGSA,A,3,,,,,,,,,,,,,0.000,0.000,0.000,*1e
$GPGSV,1,1,1,1,1,1,1,,,,,,,,,,,,*48
$GPGSV,1,1,1,1,1,1,1,,,,,,,,,,,,*48
$GPGGA,000222,03018.2392,N,09743.8757,W,1,8,1.1,200.0,M,24.5,M,,0000*5f
$GPGSA,A,3,,,,,,,,,,,,,0.000,0.000,0.000,*1e
$GPGSV,1,1,1,1,1,1,1,,,,,,,,,,,,*48
$GPGSV,1,1,1,1,1,1,1,,,,,,,,,,,,*48
$GPGGA,000223,03018.2428,N,09743.8656,W,1,8,1.1,200.0,M,24.5,M,,0000*58
$GPGSA,A,3,,,,,,,,,,,,,0.000,0.000,0.000,*1e
$GPGSV,1,1,1,1,1,1,1,,,,,,,,,,,,*48
$GPGSV,1,1,1,1,1,1,1,,,,,,,,,,,,*48
$GPGGA,000224,03018.2452,N,09743.8551,W,1,8,1.1,200.0,M,24.5,M,,0000*56
$GPGSA,A,3,,,,,,,,,,,,,0.000,0.000,0.000,*1e
$GPGSV,1,1,1,1,1,1,1,,,,,,,,,,,,*48
$GPGSV,1,1,1,1,1,1,1,,,,,,,,,,,,*48
$GPGGA,000225,03018.2462,N,09743.8444,W,1,8,1.1,200.0,M,24.5,M,,0000*51
$GPGSA,A,3,,,,,,,,,,,,,0.000,0.000,0.000,*1e
$GPGSV,1,1,1,1,1,1,1,,,,,,,,,,,,*48
$GPGSV,1,1,1,1,1,1,1,,,,,,,,,,,,*48
$GPGGA,000226,03018.2461,N,09743.8337,W,1,8,1.1,200.0,M,24.5,M,,0000*52
$GPGSA,A,3,,,,,,,,,,,,,0.000,0.000,0.000,*1e
$GPGSV,1,1,1,1,1,1,1,,,,,,,,,,,,*48
$GPGSV,1,1,1,1,1,1,1,,,,,,,,,,,,*48
$GPGGA,000227,03018.2447,N,09743.8232,W,1,8,1.1,200.0,M,24.5,M,,0000*53
$GPGSA,A,3,,,,,,,,,,,,,0.000,0.000,0.000,*1e
$GPGSV,1,1,1,1,1,1,1,,,,,,,,,,,,*48
$GPGSV,1,1,1,1,1,1,1,,,,,,,,,,,,*48
$GPGGA,000228,03018.2420,N,09743.8130,W,1,8,1.1,200.0,M,24.5,M,,0000*5c
$GPGSA,A,3,,,,,,,,,,,,,0.000,0.000,0.000,*1e
$GPGSV,1,1,1,1,1,1,1,,,,,,,,,,,,*48
$GPGSV,1,1,1,1,1,1,1,,,,,,,,,,,,*48
$GPGGA,000229,03018.2383,N,09743.8035,W,1,8,1.1,200.0,M,24.5,M,,0000*57
$GPGSA,A,3,,,,,,,,,,,,,0.000,0.000,0.000,*1e
$GPGSV,1,1,1,1,1,1,1,,,,,,,,,,,,*48
$GPGSV,1,1,1,1,1,1,1,,,,,,,,,,,,*48
$GPGGA,000230,03018.2334,N,09743.7948,W,1,8,1.1,200.0,M,24.5,M,,0000*5f
$GPGSA,A,3,,,,,,,,,,,,,0.000,0.000,0.000,*1e
$GPGSV,1,1,1,1,1,1,1,,,,,,,,,,,,*48
$GPGSV,1,1,1,1,1,1,1,,,,,,,,,,,,*48
$GPGGA,000231,03018.2275,N,09743.7870,W,1,8,1.1,200.0,M,24.5,M,,0000*50
$GPGSA,A,3,,,,,,,,,,,,,0.000,0.000,0.000,*1e
$GPGSV,1,1,1,1,1,1,1,,,,,,,,,,,,*48
$GPGSV,1,1,1,1,1,1,1,,,,,,,,,,,,*48
$GPGGA,000232,03018.2209,N,09743.7803,W,1,8,1.1,200.0,M,24.5,M,,0000*5c
$GPGSA,A,3,,,,,,,,,,,,,0.000,0.000,0.000,*1e
$GPGSV,1,1,1,1,1,1,1,,,,,,,,,,,,*48
$GPGSV,1,1,1,1,1,1,1,,,,,,,,,,,,*48
$GPGGA,000233,03018.2135,N,09743.7747,W,1,8,1.1,200.0,M,24.5,M,,0000*5e
$GPGSA,A,3,,,,,,,,,,,,,0.000,0.000,0.000,*1e
$GPGSV,1,1,1,1,1,1,1,,,,,,,,,,,,*48
$GPGSV,1,1,1,1,1,1,1,,,,,,,,,,,,*48
$GPGGA,000234,03018.2056,N,09743.7705,W,1,8,1.1,200.0,M,24.5,M,,0000*5b
$GPGSA,A,3,,,,,,,,,,,,,0.000,0.000,0.000,*1e
$GPGSV,1,1,1,1,1,1,1,,,,,,,,,,,,*48
$GPGSV,1,1,1,1,1,1,1,,,,,,,,,,,,*48
$GPGGA,000235,03018.1972,N,09743.7677,W,1,8,1.1,200.0,M,24.5,M,,0000*52
$GPGSA,A,3,,,,,,,,,,,,,0.000,0.000,0.000,*1e
$GPGSV,1,1,1,1,1,1,1,,,,,,,,,,,,*48
$GPGSV,1,1,1,1,1,1,1,,,,,,,,,,,,*48
$GPGGA,000236,03018.1887,N,09743.7663,W,1,8,1.1,200.0,M,24.5,M,,0000*5f
$GPGSA,A,3,,,,,,,,,,,,,0.000,0.000,0.000,*1e
$GPGSV,1,1,1,1,1,1,1,,,,,,,,,,,,*48
$GPGSV,1,1,1,1,1,1,1,,,,,,,,,,,,*48
$GPGGA,000237,03018.1801,N,09743.7664,W,1,8,1.1,200.0,M,24.5,M,,0000*57
$GPGSA,A,3,,,,,,,,,,,,,0.000,0.000,0.000,*1e
$GPGSV,1,1,1,1,1,1,1,,,,,,,,,,,,*48
$GPGSV,1,1,1,1,1,1,1,,,,,,,,,,,,*48
$GPGGA,000238,03018.1717,N,09743.7679,W,1,8,1.1,200.0,M,24.5,M,,0000*5c
$GPGSA,A,3,,,,,,,,,,,,,0.000,0.000,0.000,*1e
$GPGSV,1,1,1,1,1,1,1,,,,,,,,,,,,*48
$GPGSV,1,1,1,1,1,1,1,,,,,,,,,,,,*48
$GPGGA,000239,03018.1635,N,09743.7708,W,1,8,1.1,200.0,M,24.5,M,,0000*5b
$GPGSA,A,3,,,,,,,,,,,,,0.000,0.000,0.000,*1e
$GPGSV,1,1,1,1,1,1,1,,,,,,,,,,,,*48
$GPGSV,1,1,1,1,1,1,1,,,,,,,,,,,,*48
$GPGGA,000240,03018.1558,N,09743.7751,W,1,8,1.1,200.0,M,24.5,M,,0000*51
$GPGSA,A,3,,,,,,,,,,,,,0.000,0.000,0.000,*1e
$GPGSV,1,1,1,1,1,1,1,,,,,,,,,,,,*48
$GPGSV,1,1,1,1,1,1,1,,,,,,,,,,,,*48
$GPGGA,000241,03018.1487,N,09743.7807,W,1,8,1.1,200.0,M,24.5,M,,0000*5f
$GPGSA,A,3,,,,,,,,,,,,,0.000,0.000,0.000,*1e
$GPGSV,1,1,1,1,1,1,1,,,,,,,,,,,,*48
$GPGSV,1,1,1,1,1,1,1,,,,,,,,,,,,*48
$GPGGA,000242,03018.1425,N,09743.7873,W,1,8,1.1,200.0,M,24.5,M,,0000*57
$GPGSA,A,3,,,,,,,,,,,,,0.000,0.000,0.000,*1e
$GPGSV,1,1,1,1,1,1,1,,,,,,,,,,,,*48
$GPGSV,1,1,1,1,1,1,1,,,,,,,,,,,,*48
$GPGGA,000243,03018.1372,N,09743.7951,W,1,8,1.1,200.0,M,24.5,M,,0000*52
$GPGSA,A,3,,,,,,,,,,,,,0.000,0.000,0.000,*1e
$GPGSV,1,1,1,1,1,1,1,,,,,,,,,,,,*48
$GPGSV,1,1,1,1,1,1,1,,,,,,,,,,,,*48
$GPGGA,000244,03018.1328,N,09743.8036,W,1,8,1.1,200.0,M,24.5,M,,0000*5d
$GPGSA,A,3,,,,,,,,,,,,,0.000,0.000,0.000,*1e
$GPGSV,1,1,1,1,1,1,1,,,,,,,,,,,,*48
$GPGSV,1,1,1,1,1,1,1,,,,,,,,,,,,*48
$GPGGA,000245,03018.1296,N,09743.8128,W,1,8,1.1,200.0,M,24.5,M,,0000*56
$GPGSA,A,3,,,,,,,,,,,,,0.000,0.000,0.000,*1e
$GPGSV,1,1,1,1,1,1,1,,,,,,,,,,,,*48
$GPGSV,1,1,1,1,1,1,1,,,,,,,,,,,,*48
$GPGGA,000246,03018.1276,N,09743.8226,W,1,8,1.1,200.0,M,24.5,M,,0000*56
$GPGSA,A,3,,,,,,,,,,,,,0.000,0.000,0.000,*1e
$GPGSV,1,1,1,1,1,1,1,,,,,,,,,,,,*48
$GPGSV,1,1,1,1,1,1,1,,,,,,,,,,,,*48
$GPGGA,000247,03018.1268,N,09743.8326,W,1,8,1.1,200.0,M,24.5,M,,0000*59
$GPGSA,A,3,,,,,,,,,,,,,0.000,0.000,0.000,*1e
$GPGSV,1,1,1,1,1,1,1,,,,,,,,,,,,*48
$GPGSV,1,1,1,1,1,1,1,,,,,,,,,,,,*48
$GPGGA,000248,03018.1273,N,09743.8428,W,1,8,1.1,200.0,M,24.5,M,,0000*55
$GPGSA,A,3,,,,,,,,,,,,,0.000,0.000,0.000,*1e
$GPGSV,1,1,1,1,1,1,1,,,,,,,,,,,,*48
$GPGSV,1,1,1,1,1,1,1,,,,,,,,,,,,*48
$GPGGA,000249,03018.1289,N,09743.8529,W,1,8,1.1,200.0,M,24.5,M,,0000*51
$GPGSA,A,3,,,,,,,,,,,,,0.000,0.000,0.000,*1e
$GPGSV,1,1,1,1,1,1,1,,,,,,,,,,,,*48
$GPGSV,1,1,1,1,1,1,1,,,,,,,,,,,,*48
$GPGGA,000250,03018.1319,N,09743.8626,W,1,8,1.1,200.0,M,24.5,M,,0000*5d
$GPGSA,A,3,,,,,,,,,,,,,0.000,0.000,0.000,*1e
$GPGSV,1,1,1,1,1,1,1,,,,,,,,,,,,*48
$GPGSV,1,1,1,1,1,1,1,,,,,,,,,,,,*48
$GPGGA,000251,03018.1361,N,09743.8718,W,1,8,1.1,200.0,M,24.5,M,,0000*5f
$GPGSA,A,3,,,,,,,,,,,,,0.000,0.000,0.000,*1e
$GPGSV,1,1,1,1,1,1,1,,,,,,,,,,,,*48
$GPGSV,1,1,1,1,1,1,1,,,,,,,,,,,,*48
$GPGGA,000252,03018.1414,N,09743.8804,W,1,8,1.1,200.0,M,24.5,M,,0000*5b
$GPGSA,A,3,,,,,,,,,,,,,0.000,0.000,0.000,*1e
$GPGSV,1,1,1,1,1,1,1,,,,,,,,,,,,*48
$GPGSV,1,1,1,1,1,1,1,,,,,,,,,,,,*48
$GPGGA,000253,03018.1477,N,09743.8881,W,1,8,1.1,200.0,M,24.5,M,,0000*52
$GPGSA,A,3,,,,,,,,,,,,,0.000,0.000,0.000,*1e
$GPGSV,1,1,1,1,1,1,1,,,,,,,,,,,,*48
$GPGSV,1,1,1,1,1,1,1,,,,,,,,,,,,*48
$GPGGA,000254,03018.1549,N,09743.8948,W,1,8,1.1,200.0,M,24.5,M,,0000*5d
$GPGSA,A,3,,,,,,,,,,,,,0.000,0.000,0.000,*1e
$GPGSV,1,1,1,1,1,1,1,,,,,,,,,,,,*48
$GPGSV,1,1,1,1,1,1,1,,,,,,,,,,,,*48
$GPGGA,000255,03018.1628,N,09743.9003,W,1,8,1.1,200.0,M,24.5,M,,0000*5f
$GPGSA,A,3,,,,,,,,,,,,,0.000,0.000,0.000,*1e
$GPGSV,1,1,1,1,1,1,1,,,,,,,,,,,,*48
$GPGSV,1,1,1,1,1,1,1,,,,,,,,,,,,*48
$GPGGA,000256,03018.1714,N,09743.9046,W,1,8,1.1,200.0,M,24.5,M,,0000*53
$GPGSA,A,3,,,,,,,,,,,,,0.000,0.000,0.000,*1e
$GPGSV,1,1,1,1,1,1,1,,,,,,,,,,,,*48
$GPGSV,1,1,1,1,1,1,1,,,,,,,,,,,,*48
$GPGGA,000257,03018.1805,N,09743.9075,W,1,8,1.1,200.0,M,24.5,M,,0000*5d
$GPGSA,A,3,,,,,,,,,,,,,0.000,0.000,0.000,*1e
$GPGSV,1,1,1,1,1,1,1,,,,,,,,,,,,*48
$GPGSV,1,1,1,1,1,1,1,,,,,,,,,,,,*48
$GPGGA,000258,03018.1899,N,09743.9090,W,1,8,1.1,200.0,M,24.5,M,,0000*5c
$GPGSA,A,3,,,,,,,,,,,,,0.000,0.000,0.000,*1e
$GPGSV,1,1,1,1,1,1,1,,,,,,,,,,,,*48
$GPGSV,1,1,1,1,1,1,1,,,,,,,,,,,,*48
$GPGGA,000259,03018.1994,N,09743.9091,W,1,8,1.1,200.0,M,24.5,M,,0000*50
$GPGSA,A,3,,,,,,,,,,,,,0.000,0.000,0.000,*1e
$GPGSV,1,1,1,1,1,1,1,,,,,,,,,,,,*48
$GPGSV,1,1,1,1,1,1,1,,,,,,,,,,,,*48
$GPGGA,000260,03018.2089,N,09743.9077,W,1,8,1.1,200.0,M,24.5,M,,0000*54
$GPGSA,A,3,,,,,,,,,,,,,0.000,0.000,0.000,*1e
$GPGSV,1,1,1,1,1,1,1,,,,,,,,,,,,*48
$GPGSV,1,1,1,1,1,1,1,,,,,,,,,,,,*48
$GPGGA,000261,03018.2182,N,09743.9049,W,1,8,1.1,200.0,M,24.5,M,,0000*52
$GPGSA,A,3,,,,,,,,,,,,,0.000,0.000,0.000,*1e
$GPGSV,1,1,1,1,1,1,1,,,,,,,,,,,,*48
$GPGSV,1,1,1,1,1,1,1,,,,,,,,,,,,*48
$GPGGA,000262,03018.2270,N,09743.9007,W,1,8,1.1,200.0,M,24.5,M,,0000*55
$GPGSA,A,3,,,,,,,,,,,,,0.000,0.000,0.000,*1e
$GPGSV,1,1,1,1,1,1,1,,,,,,,,,,,,*48
$GPGSV,1,1,1,1,1,1,1,,,,,,,,,,,,*48
$GPGGA,000263,03018.2353,N,09743.8952,W,1,8,1.1,200.0,M,24.5,M,,0000*5c
$GPGSA,A,3,,,,,,,,,,,,,0.000,0.000,0.000,*1e
$GPGSV,1,1,1,1,1,1,1,,,,,,,,,,,,*48
$GPGSV,1,1,1,1,1,1,1,,,,,,,,,,,,*48
$GPGGA,000264,03018.2429,N,09743.8884,W,1,8,1.1,200.0,M,24.5,M,,0000*5b
$GPGSA,A,3,,,,,,,,,,,,,0.000,0.000,0.000,*1e
$GPGSV,1,1,1,1,1,1,1,,,,,,,,,,,,*48
$GPGSV,1,1,1,1,1,1,1,,,,,,,,,,,,*48
$GPGGA,000265,03018.2497,N,09743.8806,W,1,8,1.1,200.0,M,24.5,M,,0000*55
$GPGSA,A,3,,,,,,,,,,,,,0.000,0.000,0.000,*1e
$GPGSV,1,1,1,1,1,1,1,,,,,,,,,,,,*48
$GPGSV,1,1,1,1,1,1,1,,,,,,,,,,,,*48
$GPGGA,000266,03018.2555,N,09743.8719,W,1,8,1.1,200.0,M,24.5,M,,0000*58
$GPGSA,A,3,,,,,,,,,,,,,0.000,0.000,0.000,*1e
$GPGSV,1,1,1,1,1,1,1,,,,,,,,,,,,*48
$GPGSV,1,1,1,1,1,1,1,,,,,,,,,,,,*48
$GPGGA,000267,03018.2602,N,09743.8623,W,1,8,1.1,200.0,M,24.5,M,,0000*50
$GPGSA,A,3,,,,,,,,,,,,,0.000,0.000,0.000,*1e
$GPGSV,1,1,1,1,1,1,1,,,,,,,,,,,,*48
$GPGSV,1,1,1,1,1,1,1,,,,,,,,,,,,*48
$GPGGA,000268,03018.2638,N,09743.8523,W,1,8,1.1,200.0,M,24.5,M,,0000*55
$GPGSA,A,3,,,,,,,,,,,,,0.000,0.000,0.000,*1e
$GPGSV,1,1,1,1,1,1,1,,,,,,,,,,,,*48
$GPGSV,1,1,1,1,1,1,1,,,,,,,,,,,,*48
$GPGGA,000269,03018.2662,N,09743.8418,W,1,8,1.1,200.0,M,24.5,M,,0000*52
$GPGSA,A,3,,,,,,,,,,,,,0.000,0.000,0.000,*1e
$GPGSV,1,1,1,1,1,1,1,,,,,,,,,,,,*48
$GPGSV,1,1,1,1,1,1,1,,,,,,,,,,,,*48
$GPGGA,000270,03018.2672,N,09743.8310,W,1,8,1.1,200.0,M,24.5,M,,0000*54
$GPGSA,A,3,,,,,,,,,,,,,0.000,0.000,0.000,*1e
$GPGSV,1,1,1,1,1,1,1,,,,,,,,,,,,*48
$GPGSV,1,1,1,1,1,1,1,,,,,,,,,,,,*48
$GPGGA,000271,03018.2671,N,09743.8203,W,1,8,1.1,200.0,M,24.5,M,,0000*55
$GPGSA,A,3,,,,,,,,,,,,,0.000,0.000,0.000,*1e
$GPGSV,1,1,1,1,1,1,1,,,,,,,,,,,,*48
$GPGSV,1,1,1,1,1,1,1,,,,,,,,,,,,*48
$GPGGA,000272,03018.2656,N,09743.8098,W,1,8,1.1,200.0,M,24.5,M,,0000*53
$GPGSA,A,3,,,,,,,,,,,,,0.000,0.000,0.000,*1e
$GPGSV,1,1,1,1,1,1,1,,,,,,,,,,,,*48
$GPGSV,1,1,1,1,1,1,1,,,,,,,,,,,,*48
$GPGGA,000273,03018.2630,N,09743.7997,W,1,8,1.1,200.0,M,24.5,M,,0000*5b
$GPGSA,A,3,,,,,,,,,,,,,0.000,0.000,0.000,*1e
$GPGSV,1,1,1,1,1,1,1,,,,,,,,,,,,*48
$GPGSV,1,1,1,1,1,1,1,,,,,,,,,,,,*48
$GPGGA,000274,03018.2592,N,09743.7902,W,1,8,1.1,200.0,M,24.5,M,,0000*5b
$GPGSA,A,3,,,,,,,,,,,,,0.000,0.000,0.000,*1e
$GPGSV,1,1,1,1,1,1,1,,,,,,,,,,,,*48
$GPGSV,1,1,1,1,1,1,1,,,,,,,,,,,,*48
$GPGGA,000275,03018.2543,N,09743.7815,W,1,8,1.1,200.0,M,24.5,M,,0000*51
$GPGSA,A,3,,,,,,,,,,,,,0.000,0.000,0.000,*1e
$GPGSV,1,1,1,1,1,1,1,,,,,,,,,,,,*48
$GPGSV,1,1,1,1,1,1,1,,,,,,,,,,,,*48
$GPGGA,000276,03018.2485,N,09743.7737,W,1,8,1.1,200.0,M,24.5,M,,0000*56
$GPGSA,A,3,,,,,,,,,,,,,0.000,0.000,0.000,*1e
$GPGSV,1,1,1,1,1,1,1,,,,,,,,,,,,*48
$GPGSV,1,1,1,1,1,1,1,,,,,,,,,,,,*48
$GPGGA,000277,03018.2419,N,09743.7669,W,1,8,1.1,200.0,M,24.5,M,,0000*58
$GPGSA,A,3,,,,,,,,,,,,,0.000,0.000,0.000,*1e
$GPGSV,1,1,1,1,1,1,1,,,,,,,,,,,,*48
$GPGSV,1,1,1,1,1,1,1,,,,,,,,,,,,*48
$GPGGA,000278,03018.2345,N,09743.7614,W,1,8,1.1,200.0,M,24.5,M,,0000*53
$GPGSA,A,3,,,,,,,,,,,,,0.000,0.000,0.000,*1e
$GPGSV,1,1,1,1,1,1,1,,,,,,,,,,,,*48
$GPGSV,1,1,1,1,1,1,1,,,,,,,,,,,,*48
$GPGGA,000279,03018.2266,N,09743.7572,W,1,8,1.1,200.0,M,24.5,M,,0000*51
$GPGSA,A,3,,,,,,,,,,,,,0.000,0.000,0.000,*1e
$GPGSV,1,1,1,1,1,1,1,,,,,,,,,,,,*48
$GPGSV,1,1,1,1,1,1,1,,,,,,,,,,,,*48
$GPGGA,000280,03018.2182,N,09743.7543,W,1,8,1.1,200.0,M,24.5,M,,0000*5c
$GPGSA,A,3,,,,,,,,,,,,,0.000,0.000,0.000,*1e
$GPGSV,1,1,1,1,1,1,1,,,,,,,,,,,,*48
$GPGSV,1,1,1,1,1,1,1,,,,,,,,,,,,*48
$GPGGA,000281,03018.2096,N,09743.7530,W,1,8,1.1,200.0,M,24.5,M,,0000*5d
$GPGSA,A,3,,,,,,,,,,,,,0.000,0.000,0.000,*1e
$GPGSV,1,1,1,1,1,1,1,,,,,,,,,,,,*48
$GPGSV,1,1,1,1,1,1,1,,,,,,,,,,,,*48
$GPGGA,000282,03018.2011,N,09743.7531,W,1,8,1.1,200.0,M,24.5,M,,0000*50
$GPGSA,A,3,,,,,,,,,,,,,0.000,0.000,0.000,*1e
$GPGSV,1,1,1,1,1,1,1,,,,,,,,,,,,*48
$GPGSV,1,1,1,1,1,1,1,,,,,,,,,,,,*48
$GPGGA,000283,03018.1926,N,09743.7546,W,1,8,1.1,200.0,M,24.5,M,,0000*5f
$GPGSA,A,3,,,,,,,,,,,,,0.000,0.000,0.000,*1e
$GPGSV,1,1,1,1,1,1,1,,,,,,,,,,,,*48
$GPGSV,1,1,1,1,1,1,1,,,,,,,,,,,,*48
$GPGGA,000284,03018.1844,N,09743.7575,W,1,8,1.1,200.0,M,24.5,M,,0000*5d
$GPGSA,A,3,,,,,,,,,,,,,0.000,0.000,0.000,*1e
$GPGSV,1,1,1,1,1,1,1,,,,,,,,,,,,*48
$GPGSV,1,1,1,1,1,1,1,,,,,,,,,,,,*48
$GPGGA,000285,03018.1768,N,09743.7618,W,1,8,1.1,200.0,M,24.5,M,,0000*55
$GPGSA,A,3,,,,,,,,,,,,,0.000,0.000,0.000,*1e
$GPGSV,1,1,1,1,1,1,1,,,,,,,,,,,,*48
$GPGSV,1,1,1,1,1,1,1,,,,,,,,,,,,*48
$GPGGA,000286,03018.1697,N,09743.7673,W,1,8,1.1,200.0,M,24.5,M,,0000*5a
$GPGSA,A,3,,,,,,,,,,,,,0.000,0.000,0.000,*1e
$GPGSV,1,1,1,1,1,1,1,,,,,,,,,,,,*48
$GPGSV,1,1,1,1,1,1,1,,,,,,,,,,,,*48
$GPGGA,000287,03018.1635,N,09743.7740,W,1,8,1.1,200.0,M,24.5,M,,0000*52
$GPGSA,A,3,,,,,,,,,,,,,0.000,0.000,0.000,*1e
$GPGSV,1,1,1,1,1,1,1,,,,,,,,,,,,*48
$GPGSV,1,1,1,1,1,1,1,,,,,,,,,,,,*48
$GPGGA,000288,03018.1581,N,09743.7817,W,1,8,1.1,200.0,M,24.5,M,,0000*5c
$GPGSA,A,3,,,,,,,,,,,,,0.000,0.000,0.000,*1e
$GPGSV,1,1,1,1,1,1,1,,,,,,,,,,,,*48
$GPGSV,1,1,1,1,1,1,1,,,,,,,,,,,,*48
$GPGGA,000289,03018.1538,N,09743.7903,W,1,8,1.1,200.0,M,24.5,M,,0000*5b
$GPGSA,A,3,,,,,,,,,,,,,0.000,0.000,0.000,*1e
$GPGSV,1,1,1,1,1,1,1,,,,,,,,,,,,*48
$GPGSV,1,1,1,1,1,1,1,,,,,,,,,,,,*48
$GPGGA,000290,03018.1505,N,09743.7995,W,1,8,1.1,200.0,M,24.5,M,,0000*52
$GPGSA,A,3,,,,,,,,,,,,,0.000,0.000,0.000,*1e
$GPGSV,1,1,1,1,1,1,1,,,,,,,,,,,,*48
$GPGSV,1,1,1,1,1,1,1,,,,,,,,,,,,*48
$GPGGA,000291,03018.1486,N,09743.8093,W,1,8,1.1,200.0,M,24.5,M,,0000*59
$GPGSA,A,3,,,,,,,,,,,,,0.000,0.000,0.000,*1e
$GPGSV,1,1,1,1,1,1,1,,,,,,,,,,,,*48
$GPGSV,1,1,1,1,1,1,1,,,,,,,,,,,,*48
$GPGGA,000292,03018.1477,N,09743.8193,W,1,8,1.1,200.0,M,24.5,M,,0000*55
$GPGSA,A,3,,,,,,,,,,,,,0.000,0.000,0.000,*1e
$GPGSV,1,1,1,1,1,1,1,,,,,,,,,,,,*48
$GPGSV,1,1,1,1,1,1,1,,,,,,,,,,,,*48
$GPGGA,000293,03018.1482,N,09743.8295,W,1,8,1.1,200.0,M,24.5,M,,0000*5b
$GPGSA,A,3,,,,,,,,,,,,,0.000,0.000,0.000,*1e
$GPGSV,1,1,1,1,1,1,1,,,,,,,,,,,,*48
$GPGSV,1,1,1,1,1,1,1,,,,,,,,,,,,*48
$GPGGA,000294,03018.1499,N,09743.8395,W,1,8,1.1,200.0,M,24.5,M,,0000*57
$GPGSA,A,3,,,,,,,,,,,,,0.000,0.000,0.000,*1e
$GPGSV,1,1,1,1,1,1,1,,,,,,,,,,,,*48
$GPGSV,1,1,1,1,1,1,1,,,,,,,,,,,,*48
$GPGGA,000295,03018.1529,N,09743.8493,W,1,8,1.1,200.0,M,24.5,M,,0000*5d
$GPGSA,A,3,,,,,,,,,,,,,0.000,0.000,0.000,*1e
$GPGSV,1,1,1,1,1,1,1,,,,,,,,,,,,*48
$GPGSV,1,1,1,1,1,1,1,,,,,,,,,,,,*48
$GPGGA,000296,03018.1571,N,09743.8585,W,1,8,1.1,200.0,M,24.5,M,,0000*55
$GPGSA,A,3,,,,,,,,,,,,,0.000,0.000,0.000,*1e
$GPGSV,1,1,1,1,1,1,1,,,,,,,,,,,,*48
$GPGSV,1,1,1,1,1,1,1,,,,,,,,,,,,*48
$GPGGA,000297,03018.1623,N,09743.8671,W,1,8,1.1,200.0,M,24.5,M,,0000*58
$GPGSA,A,3,,,,,,,,,,,,,0.000,0.000,0.000,*1e
$GPGSV,1,1,1,1,1,1,1,,,,,,,,,,,,*48
$GPGSV,1,1,1,1,1,1,1,,,,,,,,,,,,*48
$GPGGA,000298,03018.1686,N,09743.8748,W,1,8,1.1,200.0,M,24.5,M,,0000*53
$GPGSA,A,3,,,,,,,,,,,,,0.000,0.000,0.000,*1e
$GPGSV,1,1,1,1,1,1,1,,,,,,,,,,,,*48
$GPGSV,1,1,1,1,1,1,1,,,,,,,,,,,,*48
$GPGGA,000299,03018.1758,N,09743.8814,W,1,8,1.1,200.0,M,24.5,M,,0000*56
$GPGSA,A,3,,,,,,,,,,,,,0.000,0.000,0.000,*1e
$GPGSV,1,1,1,1,1,1,1,,,,,,,,,,,,*48
$GPGSV,1,1,1,1,1,1,1,,,,,,,,,,,,*48
$GPGGA,000300,03018.1838,N,09743.8870,W,1,8,1.1,200.0,M,24.5,M,,0000*5c
$GPGSA,A,3,,,,,,,,,,,,,0.000,0.000,0.000,*1e
$GPGSV,1,1,1,1,1,1,1,,,,,,,,,,,,*48
$GPGSV,1,1,1,1,1,1,1,,,,,,,,,,,,*48
$GPGGA,000301,03018.1924,N,09743.8913,W,1,8,1.1,200.0,M,24.5,M,,0000*55
$GPGSA,A,3,,,,,,,,,,,,,0.000,0.000,0.000,*1e
$GPGSV,1,1,1,1,1,1,1,,,,,,,,,,,,*48
$GPGSV,1,1,1,1,1,1,1,,,,,,,,,,,,*48
$GPGGA,000302,03018.2015,N,09743.8942,W,1,8,1.1,200.0,M,24.5,M,,0000*5a
$GPGSA,A,3,,,,,,,,,,,,,0.000,0.000,0.000,*1e
$GPGSV,1,1,1,1,1,1,1,,,,,,,,,,,,*48
$GPGSV,1,1,1,1,1,1,1,,,,,,,,,,,,*48
$GPGGA,000303,03018.2109,N,09743.8957,W,1,8,1.1,200.0,M,24.5,M,,0000*53
$GPGSA,A,3,,,,,,,,,,,,,0.000,0.000,0.000,*1e
$GPGSV,1,1,1,1,1,1,1,,,,,,,,,,,,*48
$GPGSV,1,1,1,1,1,1,1,,,,,,,,,,,,*48
$GPGGA,000304,03018.2204,N,09743.8958,W,1,8,1.1,200.0,M,24.5,M,,0000*55
$GPGSA,A,3,,,,,,,,,,,,,0.000,0.000,0.000,*1e
$GPGSV,1,1,1,1,1,1,1,,,,,,,,,,,,*48
$GPGSV,1,1,1,1,1,1,1,,,,,,,,,,,,*48
$GPGGA,000305,03018.2299,N,09743.8944,W,1,8,1.1,200.0,M,24.5,M,,0000*5d
$GPGSA,A,3,,,,,,,,,,,,,0.000,0.000,0.000,*1e
$GPGSV,1,1,1,1,1,1,1,,,,,,,,,,,,*48
$GPGSV,1,1,1,1,1,1,1,,,,,,,,,,,,*48
$GPGGA,000306,03018.2392,N,09743.8916,W,1,8,1.1,200.0,M,24.5,M,,0000*53
$GPGSA,A,3,,,,,,,,,,,,,0.000,0.000,0.000,*1e
$GPGSV,1,1,1,1,1,1,1,,,,,,,,,,,,*48
$GPGSV,1,1,1,1,1,1,1,,,,,,,,,,,,*48
$GPGGA,000307,03018.2480,N,09743.8874,W,1,8,1.1,200.0,M,24.5,M,,0000*53
$GPGSA,A,3,,,,,,,,,,,,,0.000,0.000,0.000,*1e
$GPGSV,1,1,1,1,1,1,1,,,,,,,,,,,,*48
$GPGSV,1,1,1,1,1,1,1,,,,,,,,,,,,*48
$GPGGA,000308,03018.2563,N,09743.8818,W,1,8,1.1,200.0,M,24.5,M,,0000*5a
$GPGSA,A,3,,,,,,,,,,,,,0.000,0.000,0.000,*1e
$GPGSV,1,1,1,1,1,1,1,,,,,,,,,,,,*48
$GPGSV,1,1,1,1,1,1,1,,,,,,,,,,,,*48
$GPGGA,000309,03018.2639,N,09743.8751,W,1,8,1.1,200.0,M,24.5,M,,0000*55
$GPGSA,A,3,,,,,,,,,,,,,0.000,0.000,0.000,*1e
$GPGSV,1,1,1,1,1,1,1,,,,,,,,,,,,*48
$GPGSV,1,1,1,1,1,1,1,,,,,,,,,,,,*48
$GPGGA,000310,03018.2707,N,09743.8673,W,1,8,1.1,200.0,M,24.5,M,,0000*50
$GPGSA,A,3,,,,,,,,,,,,,0.000,0.000,0.000,*1e
$GPGSV,1,1,1,1,1,1,1,,,,,,,,,,,,*48
$GPGSV,1,1,1,1,1,1,1,,,,,,,,,,,,*48
$GPGGA,000311,03018.2765,N,09743.8586,W,1,8,1.1,200.0,M,24.5,M,,0000*5c
$GPGSA,A,3,,,,,,,,,,,,,0.000,0.000,0.000,*1e
$GPGSV,1,1,1,1,1,1,1,,,,,,,,,,,,*48
$GPGSV,1,1,1,1,1,1,1,,,,,,,,,,,,*48
$GPGGA,000312,03018.2812,N,09743.8490,W,1,8,1.1,200.0,M,24.5,M,,0000*56
$GPGSA,A,3,,,,,,,,,,,,,0.000,0.000,0.000,*1e
$GPGSV,1,1,1,1,1,1,1,,,,,,,,,,,,*48
$GPGSV,1,1,1,1,1,1,1,,,,,,,,,,,,*48
$GPGGA,000313,03018.2847,N,09743.8389,W,1,8,1.1,200.0,M,24.5,M,,0000*58
$GPGSA,A,3,,,,,,,,,,,,,0.000,0.000,0.000,*1e
$GPGSV,1,1,1,1,1,1,1,,,,,,,,,,,,*48
$GPGSV,1,1,1,1,1,1,1,,,,,,,,,,,,*48
$GPGGA,000314,03018.2870,N,09743.8284,W,1,8,1.1,200.0,M,24.5,M,,0000*57
$GPGSA,A,3,,,,,,,,,,,,,0.000,0.000,0.000,*1e
$GPGSV,1,1,1,1,1,1,1,,,,,,,,,,,,*48
$GPGSV,1,1,1,1,1,1,1,,,,,,,,,,,,*48
$GPGGA,000315,03018.2881,N,09743.8177,W,1,8,1.1,200.0,M,24.5,M,,0000*57
$GPGSA,A,3,,,,,,,,,,,,,0.000,0.000,0.000,*1e
$GPGSV,1,1,1,1,1,1,1,,,,,,,,,,,,*48
$GPGSV,1,1,1,1,1,1,1,,,,,,,,,,,,*48
$GPGGA,000316,03018.2879,N,09743.8070,W,1,8,1.1,200.0,M,24.5,M,,0000*55
$GPGSA,A,3,,,,,,,,,,,,,0.000,0.000,0.000,*1e
$GPGSV,1,1,1,1,1,1,1,,,,,,,,,,,,*48
$GPGSV,1,1,1,1,1,1,1,,,,,,,,,,,,*48
$GPGGA,000317,03018.2865,N,09743.7965,W,1,8,1.1,200.0,M,24.5,M,,0000*5b
