$GPGGA,000000,03018.1105,N,09743.9627,W,1,8,1.1,1.5,M,24.5,M,,0000*53
$GPGSA,A,3,,,,,,,,,,,,,0.000,0.000,0.000,*1e
$GPGSV,1,1,1,1,1,1,1,,,,,,,,,,,,*48
$GPGSV,1,1,1,1,1,1,1,,,,,,,,,,,,*48
$GPGGA,000001,03018.1105,N,09743.9627,W,1,8,1.1,1.5,M,24.5,M,,0000*52
$GPGSA,A,3,,,,,,,,,,,,,0.000,0.000,0.000,*1e
$GPGSV,1,1,1,1,1,1,1,,,,,,,,,,,,*48
$GPGSV,1,1,1,1,1,1,1,,,,,,,,,,,,*48
$GPGGA,000002,03018.1105,N,09743.9627,W,1,8,1.1,1.5,M,24.5,M,,0000*51
$GPGSA,A,3,,,,,,,,,,,,,0.000,0.000,0.000,*1e
$GPGSV,1,1,1,1,1,1,1,,,,,,,,,,,,*48
$GPGSV,1,1,1,1,1,1,1,,,,,,,,,,,,*48
$GPGGA,000003,03018.1105,N,09743.9627,W,1,8,1.1,1.5,M,24.5,M,,0000*50
$GPGSA,A,3,,,,,,,,,,,,,0.000,0.000,0.000,*1e
$GPGSV,1,1,1,1,1,1,1,,,,,,,,,,,,*48
$GPGSV,1,1,1,1,1,1,1,,,,,,,,,,,,*48
$GPGGA,000004,03018.1105,N,09743.9627,W,1,8,1.1,1.5,M,24.5,M,,0000*57
$GPGSA,A,3,,,,,,,,,,,,,0.000,0.000,0.000,*1e
$GPGSV,1,1,1,1,1,1,1,,,,,,,,,,,,*48
$GPGSV,1,1,1,1,1,1,1,,,,,,,,,,,,*48
$GPGGA,000005,03018.1105,N,09743.9627,W,1,8,1.1,1.5,M,24.5,M,,0000*56
$GPGSA,A,3,,,,,,,,,,,,,0.000,0.000,0.000,*1e
$GPGSV,1,1,1,1,1,1,1,,,,,,,,,,,,*48
$GPGSV,1,1,1,1,1,1,1,,,,,,,,,,,,*48
$GPGGA,000006,03018.1105,N,09743.9627,W,1,8,1.1,1.5,M,24.5,M,,0000*55
$GPGSA,A,3,,,,,,,,,,,,,0.000,0.000,0.000,*1e
$GPGSV,1,1,1,1,1,1,1,,,,,,,,,,,,*48
$GPGSV,1,1,1,1,1,1,1,,,,,,,,,,,,*48
$GPGGA,000007,03018.1105,N,09743.9627,W,1,8,1.1,1.5,M,24.5,M,,0000*54
$GPGSA,A,3,,,,,,,,,,,,,0.000,0.000,0.000,*1e
$GPGSV,1,1,1,1,1,1,1,,,,,,,,,,,,*48
$GPGSV,1,1,1,1,1,1,1,,,,,,,,,,,,*48
$GPGGA,000008,03018.1105,N,09743.9627,W,1,8,1.1,1.5,M,24.5,M,,0000*5b
$GPGSA,A,3,,,,,,,,,,,,,0.000,0.000,0.000,*1e
$GPGSV,1,1,1,1,1,1,1,,,,,,,,,,,,*48
$GPGSV,1,1,1,1,1,1,1,,,,,,,,,,,,*48
$GPGGA,000009,03018.1105,N,09743.9627,W,1,8,1.1,1.5,M,24.5,M,,0000*5a
$GPGSA,A,3,,,,,,,,,,,,,0.000,0.000,0.000,*1e
$GPGSV,1,1,1,1,1,1,1,,,,,,,,,,,,*48
$GPGSV,1,1,1,1,1,1,1,,,,,,,,,,,,*48
$GPGGA,000010,03018.1105,N,09743.9627,W,1,8,1.1,1.5,M,24.5,M,,0000*52
$GPGSA,A,3,,,,,,,,,,,,,0.000,0.000,0.000,*1e
$GPGSV,1,1,1,1,1,1,1,,,,,,,,,,,,*48
$GPGSV,1,1,1,1,1,1,1,,,,,,,,,,,,*48
$GPGGA,000011,03018.1105,N,09743.9627,W,1,8,1.1,1.5,M,24.5,M,,0000*53
$GPGSA,A,3,,,,,,,,,,,,,0.000,0.000,0.000,*1e
$GPGSV,1,1,1,1,1,1,1,,,,,,,,,,,,*48
$GPGSV,1,1,1,1,1,1,1,,,,,,,,,,,,*48
$GPGGA,000012,03018.1105,N,09743.9627,W,1,8,1.1,1.5,M,24.5,M,,0000*50
$GPGSA,A,3,,,,,,,,,,,,,0.000,0.000,0.000,*1e
$GPGSV,1,1,1,1,1,1,1,,,,,,,,,,,,*48
$GPGSV,1,1,1,1,1,1,1,,,,,,,,,,,,*48
$GPGGA,000013,03018.1105,N,09743.9627,W,1,8,1.1,1.5,M,24.5,M,,0000*51
$GPGSA,A,3,,,,,,,,,,,,,0.000,0.000,0.000,*1e
$GPGSV,1,1,1,1,1,1,1,,,,,,,,,,,,*48
$GPGSV,1,1,1,1,1,1,1,,,,,,,,,,,,*48
$GPGGA,000014,03018.1105,N,09743.9627,W,1,8,1.1,1.5,M,24.5,M,,0000*56
$GPGSA,A,3,,,,,,,,,,,,,0.000,0.000,0.000,*1e
$GPGSV,1,1,1,1,1,1,1,,,,,,,,,,,,*48
$GPGSV,1,1,1,1,1,1,1,,,,,,,,,,,,*48
$GPGGA,000015,03018.1109,N,09743.9624,W,1,8,1.1,1.5,M,24.5,M,,0000*58
$GPGSA,A,3,,,,,,,,,,,,,0.000,0.000,0.000,*1e
$GPGSV,1,1,1,1,1,1,1,,,,,,,,,,,,*48
$GPGSV,1,1,1,1,1,1,1,,,,,,,,,,,,*48
$GPGGA,000016,03018.1114,N,09743.9621,W,1,8,1.1,1.5,M,24.5,M,,0000*52
$GPGSA,A,3,,,,,,,,,,,,,0.000,0.000,0.000,*1e
$GPGSV,1,1,1,1,1,1,1,,,,,,,,,,,,*48
$GPGSV,1,1,1,1,1,1,1,,,,,,,,,,,,*48
$GPGGA,000017,03018.1119,N,09743.9618,W,1,8,1.1,1.5,M,24.5,M,,0000*54
$GPGSA,A,3,,,,,,,,,,,,,0.000,0.000,0.000,*1e
$GPGSV,1,1,1,1,1,1,1,,,,,,,,,,,,*48
$GPGSV,1,1,1,1,1,1,1,,,,,,,,,,,,*48
$GPGGA,000018,03018.1124,N,09743.9616,W,1,8,1.1,1.5,M,24.5,M,,0000*5b
$GPGSA,A,3,,,,,,,,,,,,,0.000,0.000,0.000,*1e
$GPGSV,1,1,1,1,1,1,1,,,,,,,,,,,,*48
$GPGSV,1,1,1,1,1,1,1,,,,,,,,,,,,*48
$GPGGA,000019,03018.1129,N,09743.9613,W,1,8,1.1,1.5,M,24.5,M,,0000*52
$GPGSA,A,3,,,,,,,,,,,,,0.000,0.000,0.000,*1e
$GPGSV,1,1,1,1,1,1,1,,,,,,,,,,,,*48
$GPGSV,1,1,1,1,1,1,1,,,,,,,,,,,,*48
$GPGGA,000020,03018.1133,N,09743.9610,W,1,8,1.1,1.5,M,24.5,M,,0000*50
$GPGSA,A,3,,,,,,,,,,,,,0.000,0.000,0.000,*1e
$GPGSV,1,1,1,1,1,1,1,,,,,,,,,,,,*48
$GPGSV,1,1,1,1,1,1,1,,,,,,,,,,,,*48
$GPGGA,000021,03018.1138,N,09743.9607,W,1,8,1.1,1.5,M,24.5,M,,0000*5c
$GPGSA,A,3,,,,,,,,,,,,,0.000,0.000,0.000,*1e
$GPGSV,1,1,1,1,1,1,1,,,,,,,,,,,,*48
$GPGSV,1,1,1,1,1,1,1,,,,,,,,,,,,*48
$GPGGA,000022,03018.1142,N,09743.9604,W,1,8,1.1,1.5,M,24.5,M,,0000*51
$GPGSA,A,3,,,,,,,,,,,,,0.000,0.000,0.000,*1e
$GPGSV,1,1,1,1,1,1,1,,,,,,,,,,,,*48
$GPGSV,1,1,1,1,1,1,1,,,,,,,,,,,,*48
$GPGGA,000023,03018.1147,N,09743.9601,W,1,8,1.1,1.5,M,24.5,M,,0000*50
$GPGSA,A,3,,,,,,,,,,,,,0.000,0.000,0.000,*1e
$GPGSV,1,1,1,1,1,1,1,,,,,,,,,,,,*48
$GPGSV,1,1,1,1,1,1,1,,,,,,,,,,,,*48
$GPGGA,000024,03018.1152,N,09743.9598,W,1,8,1.1,1.5,M,24.5,M,,0000*50
$GPGSA,A,3,,,,,,,,,,,,,0.000,0.000,0.000,*1e
$GPGSV,1,1,1,1,1,1,1,,,,,,,,,,,,*48
$GPGSV,1,1,1,1,1,1,1,,,,,,,,,,,,*48
$GPGGA,000025,03018.1157,N,09743.9595,W,1,8,1.1,1.5,M,24.5,M,,0000*59
$GPGSA,A,3,,,,,,,,,,,,,0.000,0.000,0.000,*1e
$GPGSV,1,1,1,1,1,1,1,,,,,,,,,,,,*48
$GPGSV,1,1,1,1,1,1,1,,,,,,,,,,,,*48
$GPGGA,000026,03018.1162,N,09743.9592,W,1,8,1.1,1.5,M,24.5,M,,0000*5b
$GPGSA,A,3,,,,,,,,,,,,,0.000,0.000,0.000,*1e
$GPGSV,1,1,1,1,1,1,1,,,,,,,,,,,,*48
$GPGSV,1,1,1,1,1,1,1,,,,,,,,,,,,*48
$GPGGA,000027,03018.1166,N,09743.9589,W,1,8,1.1,1.5,M,24.5,M,,0000*54
$GPGSA,A,3,,,,,,,,,,,,,0.000,0.000,0.000,*1e
$GPGSV,1,1,1,1,1,1,1,,,,,,,,,,,,*48
$GPGSV,1,1,1,1,1,1,1,,,,,,,,,,,,*48
$GPGGA,000028,03018.1171,N,09743.9586,W,1,8,1.1,1.5,M,24.5,M,,0000*52
$GPGSA,A,3,,,,,,,,,,,,,0.000,0.000,0.000,*1e
$GPGSV,1,1,1,1,1,1,1,,,,,,,,,,,,*48
$GPGSV,1,1,1,1,1,1,1,,,,,,,,,,,,*48
$GPGGA,000029,03018.1175,N,09743.9583,W,1,8,1.1,1.5,M,24.5,M,,0000*52
$GPGSA,A,3,,,,,,,,,,,,,0.000,0.000,0.000,*1e
$GPGSV,1,1,1,1,1,1,1,,,,,,,,,,,,*48
$GPGSV,1,1,1,1,1,1,1,,,,,,,,,,,,*48
$GPGGA,000030,03018.1180,N,09743.9580,W,1,8,1.1,1.5,M,24.5,M,,0000*53
$GPGSA,A,3,,,,,,,,,,,,,0.000,0.000,0.000,*1e
$GPGSV,1,1,1,1,1,1,1,,,,,,,,,,,,*48
$GPGSV,1,1,1,1,1,1,1,,,,,,,,,,,,*48
$GPGGA,000031,03018.1185,N,09743.9577,W,1,8,1.1,1.5,M,24.5,M,,0000*5f
$GPGSA,A,3,,,,,,,,,,,,,0.000,0.000,0.000,*1e
$GPGSV,1,1,1,1,1,1,1,,,,,,,,,,,,*48
$GPGSV,1,1,1,1,1,1,1,,,,,,,,,,,,*48
$GPGGA,000032,03018.1190,N,09743.9574,W,1,8,1.1,1.5,M,24.5,M,,0000*5b
$GPGSA,A,3,,,,,,,,,,,,,0.000,0.000,0.000,*1e
$GPGSV,1,1,1,1,1,1,1,,,,,,,,,,,,*48
$GPGSV,1,1,1,1,1,1,1,,,,,,,,,,,,*48
$GPGGA,000033,03018.1195,N,09743.9571,W,1,8,1.1,1.5,M,24.5,M,,0000*5a
$GPGSA,A,3,,,,,,,,,,,,,0.000,0.000,0.000,*1e
$GPGSV,1,1,1,1,1,1,1,,,,,,,,,,,,*48
$GPGSV,1,1,1,1,1,1,1,,,,,,,,,,,,*48
$GPGGA,000034,03018.1199,N,09743.9568,W,1,8,1.1,1.5,M,24.5,M,,0000*59
$GPGSA,A,3,,,,,,,,,,,,,0.000,0.000,0.000,*1e
$GPGSV,1,1,1,1,1,1,1,,,,,,,,,,,,*48
$GPGSV,1,1,1,1,1,1,1,,,,,,,,,,,,*48
$GPGGA,000035,03018.1204,N,09743.9565,W,1,8,1.1,1.5,M,24.5,M,,0000*52
$GPGSA,A,3,,,,,,,,,,,,,0.000,0.000,0.000,*1e
$GPGSV,1,1,1,1,1,1,1,,,,,,,,,,,,*48
$GPGSV,1,1,1,1,1,1,1,,,,,,,,,,,,*48
$GPGGA,000036,03018.1208,N,09743.9563,W,1,8,1.1,1.5,M,24.5,M,,0000*5b
$GPGSA,A,3,,,,,,,,,,,,,0.000,0.000,0.000,*1e
$GPGSV,1,1,1,1,1,1,1,,,,,,,,,,,,*48
$GPGSV,1,1,1,1,1,1,1,,,,,,,,,,,,*48
$GPGGA,000037,03018.1213,N,09743.9560,W,1,8,1.1,1.5,M,24.5,M,,0000*53
$GPGSA,A,3,,,,,,,,,,,,,0.000,0.000,0.000,*1e
$GPGSV,1,1,1,1,1,1,1,,,,,,,,,,,,*48
$GPGSV,1,1,1,1,1,1,1,,,,,,,,,,,,*48
$GPGGA,000038,03018.1218,N,09743.9557,W,1,8,1.1,1.5,M,24.5,M,,0000*53
$GPGSA,A,3,,,,,,,,,,,,,0.000,0.000,0.000,*1e
$GPGSV,1,1,1,1,1,1,1,,,,,,,,,,,,*48
$GPGSV,1,1,1,1,1,1,1,,,,,,,,,,,,*48
$GPGGA,000039,03018.1223,N,09743.9554,W,1,8,1.1,1.5,M,24.5,M,,0000*59
$GPGSA,A,3,,,,,,,,,,,,,0.000,0.000,0.000,*1e
$GPGSV,1,1,1,1,1,1,1,,,,,,,,,,,,*48
$GPGSV,1,1,1,1,1,1,1,,,,,,,,,,,,*48
$GPGGA,000040,03018.1227,N,09743.9551,W,1,8,1.1,1.5,M,24.5,M,,0000*56
$GPGSA,A,3,,,,,,,,,,,,,0.000,0.000,0.000,*1e
$GPGSV,1,1,1,1,1,1,1,,,,,,,,,,,,*48
$GPGSV,1,1,1,1,1,1,1,,,,,,,,,,,,*48
$GPGGA,000041,03018.1232,N,09743.9548,W,1,8,1.1,1.5,M,24.5,M,,0000*5b
$GPGSA,A,3,,,,,,,,,,,,,0.000,0.000,0.000,*1e
$GPGSV,1,1,1,1,1,1,1,,,,,,,,,,,,*48
$GPGSV,1,1,1,1,1,1,1,,,,,,,,,,,,*48
$GPGGA,000042,03018.1237,N,09743.9545,W,1,8,1.1,1.5,M,24.5,M,,0000*50
$GPGSA,A,3,,,,,,,,,,,,,0.000,0.000,0.000,*1e
$GPGSV,1,1,1,1,1,1,1,,,,,,,,,,,,*48
$GPGSV,1,1,1,1,1,1,1,,,,,,,,,,,,*48
$GPGGA,000043,03018.1241,N,09743.9542,W,1,8,1.1,1.5,M,24.5,M,,0000*57
$GPGSA,A,3,,,,,,,,,,,,,0.000,0.000,0.000,*1e
$GPGSV,1,1,1,1,1,1,1,,,,,,,,,,,,*48
$GPGSV,1,1,1,1,1,1,1,,,,,,,,,,,,*48
$GPGGA,000044,03018.1246,N,09743.9539,W,1,8,1.1,1.5,M,24.5,M,,0000*5b
$GPGSA,A,3,,,,,,,,,,,,,0.000,0.000,0.000,*1e
$GPGSV,1,1,1,1,1,1,1,,,,,,,,,,,,*48
$GPGSV,1,1,1,1,1,1,1,,,,,,,,,,,,*48
$GPGGA,000045,03018.1251,N,09743.9536,W,1,8,1.1,1.5,M,24.5,M,,0000*53
$GPGSA,A,3,,,,,,,,,,,,,0.000,0.000,0.000,*1e
$GPGSV,1,1,1,1,1,1,1,,,,,,,,,,,,*48
$GPGSV,1,1,1,1,1,1,1,,,,,,,,,,,,*48
$GPGGA,000046,03018.1255,N,09743.9534,W,1,8,1.1,1.5,M,24.5,M,,0000*56
$GPGSA,A,3,,,,,,,,,,,,,0.000,0.000,0.000,*1e
$GPGSV,1,1,1,1,1,1,1,,,,,,,,,,,,*48
$GPGSV,1,1,1,1,1,1,1,,,,,,,,,,,,*48
$GPGGA,000047,03018.1260,N,09743.9531,W,1,8,1.1,1.5,M,24.5,M,,0000*54
$GPGSA,A,3,,,,,,,,,,,,,0.000,0.000,0.000,*1e
$GPGSV,1,1,1,1,1,1,1,,,,,,,,,,,,*48
$GPGSV,1,1,1,1,1,1,1,,,,,,,,,,,,*48
$GPGGA,000048,03018.1265,N,09743.9528,W,1,8,1.1,1.5,M,24.5,M,,0000*56
$GPGSA,A,3,,,,,,,,,,,,,0.000,0.000,0.000,*1e
$GPGSV,1,1,1,1,1,1,1,,,,,,,,,,,,*48
$GPGSV,1,1,1,1,1,1,1,,,,,,,,,,,,*48
$GPGGA,000049,03018.1270,N,09743.9525,W,1,8,1.1,1.5,M,24.5,M,,0000*5e
$GPGSA,A,3,,,,,,,,,,,,,0.000,0.000,0.000,*1e
$GPGSV,1,1,1,1,1,1,1,,,,,,,,,,,,*48
$GPGSV,1,1,1,1,1,1,1,,,,,,,,,,,,*48
$GPGGA,000050,03018.1274,N,09743.9522,W,1,8,1.1,1.5,M,24.5,M,,0000*55
$GPGSA,A,3,,,,,,,,,,,,,0.000,0.000,0.000,*1e
$GPGSV,1,1,1,1,1,1,1,,,,,,,,,,,,*48
$GPGSV,1,1,1,1,1,1,1,,,,,,,,,,,,*48
$GPGGA,000051,03018.1279,N,09743.9519,W,1,8,1.1,1.5,M,24.5,M,,0000*51
$GPGSA,A,3,,,,,,,,,,,,,0.000,0.000,0.000,*1e
$GPGSV,1,1,1,1,1,1,1,,,,,,,,,,,,*48
$GPGSV,1,1,1,1,1,1,1,,,,,,,,,,,,*48
$GPGGA,000052,03018.1284,N,09743.9516,W,1,8,1.1,1.5,M,24.5,M,,0000*5f
$GPGSA,A,3,,,,,,,,,,,,,0.000,0.000,0.000,*1e
$GPGSV,1,1,1,1,1,1,1,,,,,,,,,,,,*48
$GPGSV,1,1,1,1,1,1,1,,,,,,,,,,,,*48
$GPGGA,000053,03018.1288,N,09743.9513,W,1,8,1.1,1.5,M,24.5,M,,0000*57
$GPGSA,A,3,,,,,,,,,,,,,0.000,0.000,0.000,*1e
$GPGSV,1,1,1,1,1,1,1,,,,,,,,,,,,*48
$GPGSV,1,1,1,1,1,1,1,,,,,,,,,,,,*48
$GPGGA,000054,03018.1293,N,09743.9510,W,1,8,1.1,1.5,M,24.5,M,,0000*59
$GPGSA,A,3,,,,,,,,,,,,,0.000,0.000,0.000,*1e
$GPGSV,1,1,1,1,1,1,1,,,,,,,,,,,,*48
$GPGSV,1,1,1,1,1,1,1,,,,,,,,,,,,*48
$GPGGA,000055,03018.1298,N,09743.9507,W,1,8,1.1,1.5,M,24.5,M,,0000*55
$GPGSA,A,3,,,,,,,,,,,,,0.000,0.000,0.000,*1e
$GPGSV,1,1,1,1,1,1,1,,,,,,,,,,,,*48
$GPGSV,1,1,1,1,1,1,1,,,,,,,,,,,,*48
$GPGGA,000056,03018.1303,N,09743.9504,W,1,8,1.1,1.5,M,24.5,M,,0000*56
$GPGSA,A,3,,,,,,,,,,,,,0.000,0.000,0.000,*1e
$GPGSV,1,1,1,1,1,1,1,,,,,,,,,,,,*48
$GPGSV,1,1,1,1,1,1,1,,,,,,,,,,,,*48
$GPGGA,000057,03018.1307,N,09743.9501,W,1,8,1.1,1.5,M,24.5,M,,0000*56
$GPGSA,A,3,,,,,,,,,,,,,0.000,0.000,0.000,*1e
$GPGSV,1,1,1,1,1,1,1,,,,,,,,,,,,*48
$GPGSV,1,1,1,1,1,1,1,,,,,,,,,,,,*48
$GPGGA,000058,03018.1312,N,09743.9498,W,1,8,1.1,1.5,M,24.5,M,,0000*5c
$GPGSA,A,3,,,,,,,,,,,,,0.000,0.000,0.000,*1e
$GPGSV,1,1,1,1,1,1,1,,,,,,,,,,,,*48
$GPGSV,1,1,1,1,1,1,1,,,,,,,,,,,,*48
$GPGGA,000059,03018.1316,N,09743.9495,W,1,8,1.1,1.5,M,24.5,M,,0000*54
$GPGSA,A,3,,,,,,,,,,,,,0.000,0.000,0.000,*1e
$GPGSV,1,1,1,1,1,1,1,,,,,,,,,,,,*48
$GPGSV,1,1,1,1,1,1,1,,,,,,,,,,,,*48
$GPGGA,000060,03018.1321,N,09743.9492,W,1,8,1.1,1.5,M,24.5,M,,0000*5d
$GPGSA,A,3,,,,,,,,,,,,,0.000,0.000,0.000,*1e
$GPGSV,1,1,1,1,1,1,1,,,,,,,,,,,,*48
$GPGSV,1,1,1,1,1,1,1,,,,,,,,,,,,*48
$GPGGA,000061,03018.1326,N,09743.9489,W,1,8,1.1,1.5,M,24.5,M,,0000*51
$GPGSA,A,3,,,,,,,,,,,,,0.000,0.000,0.000,*1e
$GPGSV,1,1,1,1,1,1,1,,,,,,,,,,,,*48
$GPGSV,1,1,1,1,1,1,1,,,,,,,,,,,,*48
$GPGGA,000062,03018.1331,N,09743.9486,W,1,8,1.1,1.5,M,24.5,M,,0000*5b
$GPGSA,A,3,,,,,,,,,,,,,0.000,0.000,0.000,*1e
$GPGSV,1,1,1,1,1,1,1,,,,,,,,,,,,*48
$GPGSV,1,1,1,1,1,1,1,,,,,,,,,,,,*48
$GPGGA,000063,03018.1336,N,09743.9483,W,1,8,1.1,1.5,M,24.5,M,,0000*58
$GPGSA,A,3,,,,,,,,,,,,,0.000,0.000,0.000,*1e
$GPGSV,1,1,1,1,1,1,1,,,,,,,,,,,,*48
$GPGSV,1,1,1,1,1,1,1,,,,,,,,,,,,*48
$GPGGA,000064,03018.1340,N,09743.9481,W,1,8,1.1,1.5,M,24.5,M,,0000*5c
$GPGSA,A,3,,,,,,,,,,,,,0.000,0.000,0.000,*1e
$GPGSV,1,1,1,1,1,1,1,,,,,,,,,,,,*48
$GPGSV,1,1,1,1,1,1,1,,,,,,,,,,,,*48
$GPGGA,000065,03018.1345,N,09743.9478,W,1,8,1.1,1.5,M,24.5,M,,0000*5e
$GPGSA,A,3,,,,,,,,,,,,,0.000,0.000,0.000,*1e
$GPGSV,1,1,1,1,1,1,1,,,,,,,,,,,,*48
$GPGSV,1,1,1,1,1,1,1,,,,,,,,,,,,*48
$GPGGA,000066,03018.1349,N,09743.9475,W,1,8,1.1,1.5,M,24.5,M,,0000*5c
$GPGSA,A,3,,,,,,,,,,,,,0.000,0.000,0.000,*1e
$GPGSV,1,1,1,1,1,1,1,,,,,,,,,,,,*48
$GPGSV,1,1,1,1,1,1,1,,,,,,,,,,,,*48
$GPGGA,000067,03018.1354,N,09743.9472,W,1,8,1.1,1.5,M,24.5,M,,0000*56
$GPGSA,A,3,,,,,,,,,,,,,0.000,0.000,0.000,*1e
$GPGSV,1,1,1,1,1,1,1,,,,,,,,,,,,*48
$GPGSV,1,1,1,1,1,1,1,,,,,,,,,,,,*48
$GPGGA,000068,03018.1359,N,09743.9469,W,1,8,1.1,1.5,M,24.5,M,,0000*5e
$GPGSA,A,3,,,,,,,,,,,,,0.000,0.000,0.000,*1e
$GPGSV,1,1,1,1,1,1,1,,,,,,,,,,,,*48
$GPGSV,1,1,1,1,1,1,1,,,,,,,,,,,,*48
$GPGGA,000069,03018.1364,N,09743.9466,W,1,8,1.1,1.5,M,24.5,M,,0000*5e
$GPGSA,A,3,,,,,,,,,,,,,0.000,0.000,0.000,*1e
$GPGSV,1,1,1,1,1,1,1,,,,,,,,,,,,*48
$GPGSV,1,1,1,1,1,1,1,,,,,,,,,,,,*48
$GPGGA,000070,03018.1369,N,09743.9463,W,1,8,1.1,1.5,M,24.5,M,,0000*5e
$GPGSA,A,3,,,,,,,,,,,,,0.000,0.000,0.000,*1e
$GPGSV,1,1,1,1,1,1,1,,,,,,,,,,,,*48
$GPGSV,1,1,1,1,1,1,1,,,,,,,,,,,,*48
$GPGGA,000071,03018.1373,N,09743.9460,W,1,8,1.1,1.5,M,24.5,M,,0000*57
$GPGSA,A,3,,,,,,,,,,,,,0.000,0.000,0.000,*1e
$GPGSV,1,1,1,1,1,1,1,,,,,,,,,,,,*48
$GPGSV,1,1,1,1,1,1,1,,,,,,,,,,,,*48
$GPGGA,000072,03018.1378,N,09743.9457,W,1,8,1.1,1.5,M,24.5,M,,0000*5b
$GPGSA,A,3,,,,,,,,,,,,,0.000,0.000,0.000,*1e
$GPGSV,1,1,1,1,1,1,1,,,,,,,,,,,,*48
$GPGSV,1,1,1,1,1,1,1,,,,,,,,,,,,*48
$GPGGA,000073,03018.1382,N,09743.9454,W,1,8,1.1,1.5,M,24.5,M,,0000*5c
$GPGSA,A,3,,,,,,,,,,,,,0.000,0.000,0.000,*1e
$GPGSV,1,1,1,1,1,1,1,,,,,,,,,,,,*48
$GPGSV,1,1,1,1,1,1,1,,,,,,,,,,,,*48
$GPGGA,000074,03018.1387,N,09743.9451,W,1,8,1.1,1.5,M,24.5,M,,0000*5b
$GPGSA,A,3,,,,,,,,,,,,,0.000,0.000,0.000,*1e
$GPGSV,1,1,1,1,1,1,1,,,,,,,,,,,,*48
$GPGSV,1,1,1,1,1,1,1,,,,,,,,,,,,*48
$GPGGA,000075,03018.1392,N,09743.9448,W,1,8,1.1,1.5,M,24.5,M,,0000*56
$GPGSA,A,3,,,,,,,,,,,,,0.000,0.000,0.000,*1e
$GPGSV,1,1,1,1,1,1,1,,,,,,,,,,,,*48
$GPGSV,1,1,1,1,1,1,1,,,,,,,,,,,,*48
$GPGGA,000076,03018.1397,N,09743.9445,W,1,8,1.1,1.5,M,24.5,M,,0000*5d
$GPGSA,A,3,,,,,,,,,,,,,0.000,0.000,0.000,*1e
$GPGSV,1,1,1,1,1,1,1,,,,,,,,,,,,*48
$GPGSV,1,1,1,1,1,1,1,,,,,,,,,,,,*48
$GPGGA,000077,03018.1401,N,09743.9442,W,1,8,1.1,1.5,M,24.5,M,,0000*53
$GPGSA,A,3,,,,,,,,,,,,,0.000,0.000,0.000,*1e
$GPGSV,1,1,1,1,1,1,1,,,,,,,,,,,,*48
$GPGSV,1,1,1,1,1,1,1,,,,,,,,,,,,*48
$GPGGA,000078,03018.1406,N,09743.9439,W,1,8,1.1,1.5,M,24.5,M,,0000*57
$GPGSA,A,3,,,,,,,,,,,,,0.000,0.000,0.000,*1e
$GPGSV,1,1,1,1,1,1,1,,,,,,,,,,,,*48
$GPGSV,1,1,1,1,1,1,1,,,,,,,,,,,,*48
$GPGGA,000079,03018.1411,N,09743.9436,W,1,8,1.1,1.5,M,24.5,M,,0000*5f
$GPGSA,A,3,,,,,,,,,,,,,0.000,0.000,0.000,*1e
$GPGSV,1,1,1,1,1,1,1,,,,,,,,,,,,*48
$GPGSV,1,1,1,1,1,1,1,,,,,,,,,,,,*48
$GPGGA,000080,03018.1415,N,09743.9433,W,1,8,1.1,1.5,M,24.5,M,,0000*58
$GPGSA,A,3,,,,,,,,,,,,,0.000,0.000,0.000,*1e
$GPGSV,1,1,1,1,1,1,1,,,,,,,,,,,,*48
$GPGSV,1,1,1,1,1,1,1,,,,,,,,,,,,*48
$GPGGA,000081,03018.1420,N,09743.9430,W,1,8,1.1,1.5,M,24.5,M,,0000*5c
$GPGSA,A,3,,,,,,,,,,,,,0.000,0.000,0.000,*1e
$GPGSV,1,1,1,1,1,1,1,,,,,,,,,,,,*48
$GPGSV,1,1,1,1,1,1,1,,,,,,,,,,,,*48
$GPGGA,000082,03018.1425,N,09743.9427,W,1,8,1.1,1.5,M,24.5,M,,0000*5c
$GPGSA,A,3,,,,,,,,,,,,,0.000,0.000,0.000,*1e
$GPGSV,1,1,1,1,1,1,1,,,,,,,,,,,,*48
$GPGSV,1,1,1,1,1,1,1,,,,,,,,,,,,*48
$GPGGA,000083,03018.1430,N,09743.9425,W,1,8,1.1,1.5,M,24.5,M,,0000*5b
$GPGSA,A,3,,,,,,,,,,,,,0.000,0.000,0.000,*1e
$GPGSV,1,1,1,1,1,1,1,,,,,,,,,,,,*48
$GPGSV,1,1,1,1,1,1,1,,,,,,,,,,,,*48
$GPGGA,000084,03018.1434,N,09743.9422,W,1,8,1.1,1.5,M,24.5,M,,0000*5f
$GPGSA,A,3,,,,,,,,,,,,,0.000,0.000,0.000,*1e
$GPGSV,1,1,1,1,1,1,1,,,,,,,,,,,,*48
$GPGSV,1,1,1,1,1,1,1,,,,,,,,,,,,*48
$GPGGA,000085,03018.1439,N,09743.9419,W,1,8,1.1,1.5,M,24.5,M,,0000*5b
$GPGSA,A,3,,,,,,,,,,,,,0.000,0.000,0.000,*1e
$GPGSV,1,1,1,1,1,1,1,,,,,,,,,,,,*48
$GPGSV,1,1,1,1,1,1,1,,,,,,,,,,,,*48
$GPGGA,000086,03018.1444,N,09743.9416,W,1,8,1.1,1.5,M,24.5,M,,0000*5d
$GPGSA,A,3,,,,,,,,,,,,,0.000,0.000,0.000,*1e
$GPGSV,1,1,1,1,1,1,1,,,,,,,,,,,,*48
$GPGSV,1,1,1,1,1,1,1,,,,,,,,,,,,*48
$GPGGA,000087,03018.1448,N,09743.9413,W,1,8,1.1,1.5,M,24.5,M,,0000*55
$GPGSA,A,3,,,,,,,,,,,,,0.000,0.000,0.000,*1e
$GPGSV,1,1,1,1,1,1,1,,,,,,,,,,,,*48
$GPGSV,1,1,1,1,1,1,1,,,,,,,,,,,,*48
$GPGGA,000088,03018.1453,N,09743.9410,W,1,8,1.1,1.5,M,24.5,M,,0000*53
$GPGSA,A,3,,,,,,,,,,,,,0.000,0.000,0.000,*1e
$GPGSV,1,1,1,1,1,1,1,,,,,,,,,,,,*48
$GPGSV,1,1,1,1,1,1,1,,,,,,,,,,,,*48
$GPGGA,000089,03018.1458,N,09743.9407,W,1,8,1.1,1.5,M,24.5,M,,0000*5f
$GPGSA,A,3,,,,,,,,,,,,,0.000,0.000,0.000,*1e
$GPGSV,1,1,1,1,1,1,1,,,,,,,,,,,,*48
$GPGSV,1,1,1,1,1,1,1,,,,,,,,,,,,*48
$GPGGA,000090,03018.1462,N,09743.9404,W,1,8,1.1,1.5,M,24.5,M,,0000*5d
$GPGSA,A,3,,,,,,,,,,,,,0.000,0.000,0.000,*1e
$GPGSV,1,1,1,1,1,1,1,,,,,,,,,,,,*48
$GPGSV,1,1,1,1,1,1,1,,,,,,,,,,,,*48
$GPGGA,000091,03018.1467,N,09743.9401,W,1,8,1.1,1.5,M,24.5,M,,0000*5c
$GPGSA,A,3,,,,,,,,,,,,,0.000,0.000,0.000,*1e
$GPGSV,1,1,1,1,1,1,1,,,,,,,,,,,,*48
$GPGSV,1,1,1,1,1,1,1,,,,,,,,,,,,*48
$GPGGA,000092,03018.1472,N,09743.9399,W,1,8,1.1,1.5,M,24.5,M,,0000*5d
$GPGSA,A,3,,,,,,,,,,,,,0.000,0.000,0.000,*1e
$GPGSV,1,1,1,1,1,1,1,,,,,,,,,,,,*48
$GPGSV,1,1,1,1,1,1,1,,,,,,,,,,,,*48
$GPGGA,000093,03018.1477,N,09743.9396,W,1,8,1.1,1.5,M,24.5,M,,0000*56
$GPGSA,A,3,,,,,,,,,,,,,0.000,0.000,0.000,*1e
$GPGSV,1,1,1,1,1,1,1,,,,,,,,,,,,*48
$GPGSV,1,1,1,1,1,1,1,,,,,,,,,,,,*48
$GPGGA,000094,03018.1481,N,09743.9393,W,1,8,1.1,1.5,M,24.5,M,,0000*5d
$GPGSA,A,3,,,,,,,,,,,,,0.000,0.000,0.000,*1e
$GPGSV,1,1,1,1,1,1,1,,,,,,,,,,,,*48
$GPGSV,1,1,1,1,1,1,1,,,,,,,,,,,,*48
$GPGGA,000095,03018.1486,N,09743.9390,W,1,8,1.1,1.5,M,24.5,M,,0000*58
$GPGSA,A,3,,,,,,,,,,,,,0.000,0.000,0.000,*1e
$GPGSV,1,1,1,1,1,1,1,,,,,,,,,,,,*48
$GPGSV,1,1,1,1,1,1,1,,,,,,,,,,,,*48
$GPGGA,000096,03018.1490,N,09743.9387,W,1,8,1.1,1.5,M,24.5,M,,0000*5a
$GPGSA,A,3,,,,,,,,,,,,,0.000,0.000,0.000,*1e
$GPGSV,1,1,1,1,1,1,1,,,,,,,,,,,,*48
$GPGSV,1,1,1,1,1,1,1,,,,,,,,,,,,*48
$GPGGA,000097,03018.1495,N,09743.9384,W,1,8,1.1,1.5,M,24.5,M,,0000*5d
$GPGSA,A,3,,,,,,,,,,,,,0.000,0.000,0.000,*1e
$GPGSV,1,1,1,1,1,1,1,,,,,,,,,,,,*48
$GPGSV,1,1,1,1,1,1,1,,,,,,,,,,,,*48
$GPGGA,000098,03018.1500,N,09743.9381,W,1,8,1.1,1.5,M,24.5,M,,0000*5a
$GPGSA,A,3,,,,,,,,,,,,,0.000,0.000,0.000,*1e
$GPGSV,1,1,1,1,1,1,1,,,,,,,,,,,,*48
$GPGSV,1,1,1,1,1,1,1,,,,,,,,,,,,*48
$GPGGA,000099,03018.1505,N,09743.9378,W,1,8,1.1,1.5,M,24.5,M,,0000*58
$GPGSA,A,3,,,,,,,,,,,,,0.000,0.000,0.000,*1e
$GPGSV,1,1,1,1,1,1,1,,,,,,,,,,,,*48
$GPGSV,1,1,1,1,1,1,1,,,,,,,,,,,,*48
$GPGGA,000100,03018.1510,N,09743.9375,W,1,8,1.1,1.5,M,24.5,M,,0000*50
$GPGSA,A,3,,,,,,,,,,,,,0.000,0.000,0.000,*1e
$GPGSV,1,1,1,1,1,1,1,,,,,,,,,,,,*48
$GPGSV,1,1,1,1,1,1,1,,,,,,,,,,,,*48
$GPGGA,000101,03018.1514,N,09743.9372,W,1,8,1.1,1.5,M,24.5,M,,0000*52
$GPGSA,A,3,,,,,,,,,,,,,0.000,0.000,0.000,*1e
$GPGSV,1,1,1,1,1,1,1,,,,,,,,,,,,*48
$GPGSV,1,1,1,1,1,1,1,,,,,,,,,,,,*48
$GPGGA,000102,03018.1519,N,09743.9369,W,1,8,1.1,1.5,M,24.5,M,,0000*56
$GPGSA,A,3,,,,,,,,,,,,,0.000,0.000,0.000,*1e
$GPGSV,1,1,1,1,1,1,1,,,,,,,,,,,,*48
$GPGSV,1,1,1,1,1,1,1,,,,,,,,,,,,*48
$GPGGA,000103,03018.1523,N,09743.9366,W,1,8,1.1,1.5,M,24.5,M,,0000*51
$GPGSA,A,3,,,,,,,,,,,,,0.000,0.000,0.000,*1e
$GPGSV,1,1,1,1,1,1,1,,,,,,,,,,,,*48
$GPGSV,1,1,1,1,1,1,1,,,,,,,,,,,,*48
$GPGGA,000104,03018.1528,N,09743.9363,W,1,8,1.1,1.5,M,24.5,M,,0000*58
$GPGSA,A,3,,,,,,,,,,,,,0.000,0.000,0.000,*1e
$GPGSV,1,1,1,1,1,1,1,,,,,,,,,,,,*48
$GPGSV,1,1,1,1,1,1,1,,,,,,,,,,,,*48
$GPGGA,000105,03018.1533,N,09743.9360,W,1,8,1.1,1.5,M,24.5,M,,0000*50
$GPGSA,A,3,,,,,,,,,,,,,0.000,0.000,0.000,*1e
$GPGSV,1,1,1,1,1,1,1,,,,,,,,,,,,*48
$GPGSV,1,1,1,1,1,1,1,,,,,,,,,,,,*48
$GPGGA,000106,03018.1538,N,09743.9357,W,1,8,1.1,1.5,M,24.5,M,,0000*5c
$GPGSA,A,3,,,,,,,,,,,,,0.000,0.000,0.000,*1e
$GPGSV,1,1,1,1,1,1,1,,,,,,,,,,,,*48
$GPGSV,1,1,1,1,1,1,1,,,,,,,,,,,,*48
$GPGGA,000107,03018.1543,N,09743.9354,W,1,8,1.1,1.5,M,24.5,M,,0000*52
$GPGSA,A,3,,,,,,,,,,,,,0.000,0.000,0.000,*1e
$GPGSV,1,1,1,1,1,1,1,,,,,,,,,,,,*48
$GPGSV,1,1,1,1,1,1,1,,,,,,,,,,,,*48
$GPGGA,000108,03018.1547,N,09743.9351,W,1,8,1.1,1.5,M,24.5,M,,0000*5c
$GPGSA,A,3,,,,,,,,,,,,,0.000,0.000,0.000,*1e
$GPGSV,1,1,1,1,1,1,1,,,,,,,,,,,,*48
$GPGSV,1,1,1,1,1,1,1,,,,,,,,,,,,*48
$GPGGA,000109,03018.1552,N,09743.9348,W,1,8,1.1,1.5,M,24.5,M,,0000*51
$GPGSA,A,3,,,,,,,,,,,,,0.000,0.000,0.000,*1e
$GPGSV,1,1,1,1,1,1,1,,,,,,,,,,,,*48
$GPGSV,1,1,1,1,1,1,1,,,,,,,,,,,,*48
$GPGGA,000110,03018.1556,N,09743.9345,W,1,8,1.1,1.5,M,24.5,M,,0000*50
$GPGSA,A,3,,,,,,,,,,,,,0.000,0.000,0.000,*1e
$GPGSV,1,1,1,1,1,1,1,,,,,,,,,,,,*48
$GPGSV,1,1,1,1,1,1,1,,,,,,,,,,,,*48
$GPGGA,000111,03018.1561,N,09743.9343,W,1,8,1.1,1.5,M,24.5,M,,0000*53
$GPGSA,A,3,,,,,,,,,,,,,0.000,0.000,0.000,*1e
$GPGSV,1,1,1,1,1,1,1,,,,,,,,,,,,*48
$GPGSV,1,1,1,1,1,1,1,,,,,,,,,,,,*48
$GPGGA,000112,03018.1566,N,09743.9340,W,1,8,1.1,1.5,M,24.5,M,,0000*54
$GPGSA,A,3,,,,,,,,,,,,,0.000,0.000,0.000,*1e
$GPGSV,1,1,1,1,1,1,1,,,,,,,,,,,,*48
$GPGSV,1,1,1,1,1,1,1,,,,,,,,,,,,*48
$GPGGA,000113,03018.1571,N,09743.9337,W,1,8,1.1,1.5,M,24.5,M,,0000*53
$GPGSA,A,3,,,,,,,,,,,,,0.000,0.000,0.000,*1e
$GPGSV,1,1,1,1,1,1,1,,,,,,,,,,,,*48
$GPGSV,1,1,1,1,1,1,1,,,,,,,,,,,,*48
$GPGGA,000114,03018.1576,N,09743.9334,W,1,8,1.1,1.5,M,24.5,M,,0000*50
$GPGSA,A,3,,,,,,,,,,,,,0.000,0.000,0.000,*1e
$GPGSV,1,1,1,1,1,1,1,,,,,,,,,,,,*48
$GPGSV,1,1,1,1,1,1,1,,,,,,,,,,,,*48
$GPGGA,000115,03018.1580,N,09743.9331,W,1,8,1.1,1.5,M,24.5,M,,0000*5d
$GPGSA,A,3,,,,,,,,,,,,,0.000,0.000,0.000,*1e
$GPGSV,1,1,1,1,1,1,1,,,,,,,,,,,,*48
$GPGSV,1,1,1,1,1,1,1,,,,,,,,,,,,*48
$GPGGA,000116,03018.1585,N,09743.9328,W,1,8,1.1,1.5,M,24.5,M,,0000*53
$GPGSA,A,3,,,,,,,,,,,,,0.000,0.000,0.000,*1e
$GPGSV,1,1,1,1,1,1,1,,,,,,,,,,,,*48
$GPGSV,1,1,1,1,1,1,1,,,,,,,,,,,,*48
$GPGGA,000117,03018.1589,N,09743.9325,W,1,8,1.1,1.5,M,24.5,M,,0000*53
$GPGSA,A,3,,,,,,,,,,,,,0.000,0.000,0.000,*1e
$GPGSV,1,1,1,1,1,1,1,,,,,,,,,,,,*48
$GPGSV,1,1,1,1,1,1,1,,,,,,,,,,,,*48
$GPGGA,000118,03018.1594,N,09743.9322,W,1,8,1.1,1.5,M,24.5,M,,0000*57
$GPGSA,A,3,,,,,,,,,,,,,0.000,0.000,0.000,*1e
$GPGSV,1,1,1,1,1,1,1,,,,,,,,,,,,*48
$GPGSV,1,1,1,1,1,1,1,,,,,,,,,,,,*48
$GPGGA,000119,03018.1599,N,09743.9319,W,1,8,1.1,1.5,M,24.5,M,,0000*53
$GPGSA,A,3,,,,,,,,,,,,,0.000,0.000,0.000,*1e
$GPGSV,1,1,1,1,1,1,1,,,,,,,,,,,,*48
$GPGSV,1,1,1,1,1,1,1,,,,,,,,,,,,*48
$GPGGA,000120,03018.1604,N,09743.9316,W,1,8,1.1,1.5,M,24.5,M,,0000*51
$GPGSA,A,3,,,,,,,,,,,,,0.000,0.000,0.000,*1e
$GPGSV,1,1,1,1,1,1,1,,,,,,,,,,,,*48
$GPGSV,1,1,1,1,1,1,1,,,,,,,,,,,,*48
$GPGGA,000121,03018.1608,N,09743.9313,W,1,8,1.1,1.5,M,24.5,M,,0000*59
$GPGSA,A,3,,,,,,,,,,,,,0.000,0.000,0.000,*1e
$GPGSV,1,1,1,1,1,1,1,,,,,,,,,,,,*48
$GPGSV,1,1,1,1,1,1,1,,,,,,,,,,,,*48
$GPGGA,000122,03018.1613,N,09743.9310,W,1,8,1.1,1.5,M,24.5,M,,0000*53
$GPGSA,A,3,,,,,,,,,,,,,0.000,0.000,0.000,*1e
$GPGSV,1,1,1,1,1,1,1,,,,,,,,,,,,*48
$GPGSV,1,1,1,1,1,1,1,,,,,,,,,,,,*48
$GPGGA,000123,03018.1618,N,09743.9307,W,1,8,1.1,1.5,M,24.5,M,,0000*5f
$GPGSA,A,3,,,,,,,,,,,,,0.000,0.000,0.000,*1e
$GPGSV,1,1,1,1,1,1,1,,,,,,,,,,,,*48
$GPGSV,1,1,1,1,1,1,1,,,,,,,,,,,,*48
$GPGGA,000124,03018.1622,N,09743.9304,W,1,8,1.1,1.5,M,24.5,M,,0000*52
$GPGSA,A,3,,,,,,,,,,,,,0.000,0.000,0.000,*1e
$GPGSV,1,1,1,1,1,1,1,,,,,,,,,,,,*48
$GPGSV,1,1,1,1,1,1,1,,,,,,,,,,,,*48
$GPGGA,000125,03018.1627,N,09743.9301,W,1,8,1.1,1.5,M,24.5,M,,0000*53
$GPGSA,A,3,,,,,,,,,,,,,0.000,0.000,0.000,*1e
$GPGSV,1,1,1,1,1,1,1,,,,,,,,,,,,*48
$GPGSV,1,1,1,1,1,1,1,,,,,,,,,,,,*48
$GPGGA,000126,03018.1632,N,09743.9298,W,1,8,1.1,1.5,M,24.5,M,,0000*55
$GPGSA,A,3,,,,,,,,,,,,,0.000,0.000,0.000,*1e
$GPGSV,1,1,1,1,1,1,1,,,,,,,,,,,,*48
$GPGSV,1,1,1,1,1,1,1,,,,,,,,,,,,*48
$GPGGA,000127,03018.1636,N,09743.9295,W,1,8,1.1,1.5,M,24.5,M,,0000*5d
$GPGSA,A,3,,,,,,,,,,,,,0.000,0.000,0.000,*1e
$GPGSV,1,1,1,1,1,1,1,,,,,,,,,,,,*48
$GPGSV,1,1,1,1,1,1,1,,,,,,,,,,,,*48
$GPGGA,000128,03018.1641,N,09743.9292,W,1,8,1.1,1.5,M,24.5,M,,0000*55
$GPGSA,A,3,,,,,,,,,,,,,0.000,0.000,0.000,*1e
$GPGSV,1,1,1,1,1,1,1,,,,,,,,,,,,*48
$GPGSV,1,1,1,1,1,1,1,,,,,,,,,,,,*48
$GPGGA,000129,03018.1646,N,09743.9290,W,1,8,1.1,1.5,M,24.5,M,,0000*51
$GPGSA,A,3,,,,,,,,,,,,,0.000,0.000,0.000,*1e
$GPGSV,1,1,1,1,1,1,1,,,,,,,,,,,,*48
$GPGSV,1,1,1,1,1,1,1,,,,,,,,,,,,*48
$GPGGA,000130,03018.1651,N,09743.9287,W,1,8,1.1,1.5,M,24.5,M,,0000*59
$GPGSA,A,3,,,,,,,,,,,,,0.000,0.000,0.000,*1e
$GPGSV,1,1,1,1,1,1,1,,,,,,,,,,,,*48
$GPGSV,1,1,1,1,1,1,1,,,,,,,,,,,,*48
$GPGGA,000131,03018.1655,N,09743.9284,W,1,8,1.1,1.5,M,24.5,M,,0000*5f
$GPGSA,A,3,,,,,,,,,,,,,0.000,0.000,0.000,*1e
$GPGSV,1,1,1,1,1,1,1,,,,,,,,,,,,*48
$GPGSV,1,1,1,1,1,1,1,,,,,,,,,,,,*48
$GPGGA,000132,03018.1660,N,09743.9281,W,1,8,1.1,1.5,M,24.5,M,,0000*5f
$GPGSA,A,3,,,,,,,,,,,,,0.000,0.000,0.000,*1e
$GPGSV,1,1,1,1,1,1,1,,,,,,,,,,,,*48
$GPGSV,1,1,1,1,1,1,1,,,,,,,,,,,,*48
$GPGGA,000133,03018.1664,N,09743.9278,W,1,8,1.1,1.5,M,24.5,M,,0000*5c
$GPGSA,A,3,,,,,,,,,,,,,0.000,0.000,0.000,*1e
$GPGSV,1,1,1,1,1,1,1,,,,,,,,,,,,*48
$GPGSV,1,1,1,1,1,1,1,,,,,,,,,,,,*48
$GPGGA,000134,03018.1669,N,09743.9275,W,1,8,1.1,1.5,M,24.5,M,,0000*5b
$GPGSA,A,3,,,,,,,,,,,,,0.000,0.000,0.000,*1e
$GPGSV,1,1,1,1,1,1,1,,,,,,,,,,,,*48
$GPGSV,1,1,1,1,1,1,1,,,,,,,,,,,,*48
$GPGGA,000135,03018.1674,N,09743.9272,W,1,8,1.1,1.5,M,24.5,M,,0000*51
$GPGSA,A,3,,,,,,,,,,,,,0.000,0.000,0.000,*1e
$GPGSV,1,1,1,1,1,1,1,,,,,,,,,,,,*48
$GPGSV,1,1,1,1,1,1,1,,,,,,,,,,,,*48
$GPGGA,000136,03018.1679,N,09743.9269,W,1,8,1.1,1.5,M,24.5,M,,0000*55
$GPGSA,A,3,,,,,,,,,,,,,0.000,0.000,0.000,*1e
$GPGSV,1,1,1,1,1,1,1,,,,,,,,,,,,*48
$GPGSV,1,1,1,1,1,1,1,,,,,,,,,,,,*48
$GPGGA,000137,03018.1684,N,09743.9266,W,1,8,1.1,1.5,M,24.5,M,,0000*59
$GPGSA,A,3,,,,,,,,,,,,,0.000,0.000,0.000,*1e
$GPGSV,1,1,1,1,1,1,1,,,,,,,,,,,,*48
$GPGSV,1,1,1,1,1,1,1,,,,,,,,,,,,*48
$GPGGA,000138,03018.1688,N,09743.9263,W,1,8,1.1,1.5,M,24.5,M,,0000*5f
$GPGSA,A,3,,,,,,,,,,,,,0.000,0.000,0.000,*1e
$GPGSV,1,1,1,1,1,1,1,,,,,,,,,,,,*48
$GPGSV,1,1,1,1,1,1,1,,,,,,,,,,,,*48
$GPGGA,000139,03018.1693,N,09743.9261,W,1,8,1.1,1.5,M,24.5,M,,0000*56
$GPGSA,A,3,,,,,,,,,,,,,0.000,0.000,0.000,*1e
$GPGSV,1,1,1,1,1,1,1,,,,,,,,,,,,*48
$GPGSV,1,1,1,1,1,1,1,,,,,,,,,,,,*48
$GPGGA,000140,03018.1697,N,09743.9258,W,1,8,1.1,1.5,M,24.5,M,,0000*56
$GPGSA,A,3,,,,,,,,,,,,,0.000,0.000,0.000,*1e
$GPGSV,1,1,1,1,1,1,1,,,,,,,,,,,,*48
$GPGSV,1,1,1,1,1,1,1,,,,,,,,,,,,*48
$GPGGA,000141,03018.1702,N,09743.9255,W,1,8,1.1,1.5,M,24.5,M,,0000*57
$GPGSA,A,3,,,,,,,,,,,,,0.000,0.000,0.000,*1e
$GPGSV,1,1,1,1,1,1,1,,,,,,,,,,,,*48
$GPGSV,1,1,1,1,1,1,1,,,,,,,,,,,,*48
$GPGGA,000142,03018.1707,N,09743.9252,W,1,8,1.1,1.5,M,24.5,M,,0000*56
$GPGSA,A,3,,,,,,,,,,,,,0.000,0.000,0.000,*1e
$GPGSV,1,1,1,1,1,1,1,,,,,,,,,,,,*48
$GPGSV,1,1,1,1,1,1,1,,,,,,,,,,,,*48
$GPGGA,000143,03018.1712,N,09743.9249,W,1,8,1.1,1.5,M,24.5,M,,0000*59
$GPGSA,A,3,,,,,,,,,,,,,0.000,0.000,0.000,*1e
$GPGSV,1,1,1,1,1,1,1,,,,,,,,,,,,*48
$GPGSV,1,1,1,1,1,1,1,,,,,,,,,,,,*48
$GPGGA,000144,03018.1717,N,09743.9246,W,1,8,1.1,1.5,M,24.5,M,,0000*54
$GPGSA,A,3,,,,,,,,,,,,,0.000,0.000,0.000,*1e
$GPGSV,1,1,1,1,1,1,1,,,,,,,,,,,,*48
$GPGSV,1,1,1,1,1,1,1,,,,,,,,,,,,*48
$GPGGA,000145,03018.1721,N,09743.9243,W,1,8,1.1,1.5,M,24.5,M,,0000*55
$GPGSA,A,3,,,,,,,,,,,,,0.000,0.000,0.000,*1e
$GPGSV,1,1,1,1,1,1,1,,,,,,,,,,,,*48
$GPGSV,1,1,1,1,1,1,1,,,,,,,,,,,,*48
$GPGGA,000146,03018.1726,N,09743.9240,W,1,8,1.1,1.5,M,24.5,M,,0000*52
$GPGSA,A,3,,,,,,,,,,,,,0.000,0.000,0.000,*1e
$GPGSV,1,1,1,1,1,1,1,,,,,,,,,,,,*48
$GPGSV,1,1,1,1,1,1,1,,,,,,,,,,,,*48
$GPGGA,000147,03018.1730,N,09743.9237,W,1,8,1.1,1.5,M,24.5,M,,0000*54
$GPGSA,A,3,,,,,,,,,,,,,0.000,0.000,0.000,*1e
$GPGSV,1,1,1,1,1,1,1,,,,,,,,,,,,*48
$GPGSV,1,1,1,1,1,1,1,,,,,,,,,,,,*48
$GPGGA,000148,03018.1735,N,09743.9234,W,1,8,1.1,1.5,M,24.5,M,,0000*5d
$GPGSA,A,3,,,,,,,,,,,,,0.000,0.000,0.000,*1e
$GPGSV,1,1,1,1,1,1,1,,,,,,,,,,,,*48
$GPGSV,1,1,1,1,1,1,1,,,,,,,,,,,,*48
$GPGGA,000149,03018.1740,N,09743.9231,W,1,8,1.1,1.5,M,24.5,M,,0000*5b
$GPGSA,A,3,,,,,,,,,,,,,0.000,0.000,0.000,*1e
$GPGSV,1,1,1,1,1,1,1,,,,,,,,,,,,*48
$GPGSV,1,1,1,1,1,1,1,,,,,,,,,,,,*48
$GPGGA,000150,03018.1745,N,09743.9228,W,1,8,1.1,1.5,M,24.5,M,,0000*5e
$GPGSA,A,3,,,,,,,,,,,,,0.000,0.000,0.000,*1e
$GPGSV,1,1,1,1,1,1,1,,,,,,,,,,,,*48
$GPGSV,1,1,1,1,1,1,1,,,,,,,,,,,,*48
$GPGGA,000151,03018.1750,N,09743.9225,W,1,8,1.1,1.5,M,24.5,M,,0000*56
$GPGSA,A,3,,,,,,,,,,,,,0.000,0.000,0.000,*1e
$GPGSV,1,1,1,1,1,1,1,,,,,,,,,,,,*48
$GPGSV,1,1,1,1,1,1,1,,,,,,,,,,,,*48
$GPGGA,000152,03018.1754,N,09743.9222,W,1,8,1.1,1.5,M,24.5,M,,0000*56
$GPGSA,A,3,,,,,,,,,,,,,0.000,0.000,0.000,*1e
$GPGSV,1,1,1,1,1,1,1,,,,,,,,,,,,*48
$GPGSV,1,1,1,1,1,1,1,,,,,,,,,,,,*48
$GPGGA,000153,03018.1759,N,09743.9219,W,1,8,1.1,1.5,M,24.5,M,,0000*52
$GPGSA,A,3,,,,,,,,,,,,,0.000,0.000,0.000,*1e
$GPGSV,1,1,1,1,1,1,1,,,,,,,,,,,,*48
$GPGSV,1,1,1,1,1,1,1,,,,,,,,,,,,*48
$GPGGA,000154,03018.1763,N,09743.9216,W,1,8,1.1,1.5,M,24.5,M,,0000*53
$GPGSA,A,3,,,,,,,,,,,,,0.000,0.000,0.000,*1e
$GPGSV,1,1,1,1,1,1,1,,,,,,,,,,,,*48
$GPGSV,1,1,1,1,1,1,1,,,,,,,,,,,,*48
$GPGGA,000155,03018.1768,N,09743.9213,W,1,8,1.1,1.5,M,24.5,M,,0000*5c
$GPGSA,A,3,,,,,,,,,,,,,0.000,0.000,0.000,*1e
$GPGSV,1,1,1,1,1,1,1,,,,,,,,,,,,*48
$GPGSV,1,1,1,1,1,1,1,,,,,,,,,,,,*48
$GPGGA,000156,03018.1773,N,09743.9210,W,1,8,1.1,1.5,M,24.5,M,,0000*56
$GPGSA,A,3,,,,,,,,,,,,,0.000,0.000,0.000,*1e
$GPGSV,1,1,1,1,1,1,1,,,,,,,,,,,,*48
$GPGSV,1,1,1,1,1,1,1,,,,,,,,,,,,*48
$GPGGA,000157,03018.1778,N,09743.9208,W,1,8,1.1,1.5,M,24.5,M,,0000*55
$GPGSA,A,3,,,,,,,,,,,,,0.000,0.000,0.000,*1e
$GPGSV,1,1,1,1,1,1,1,,,,,,,,,,,,*48
$GPGSV,1,1,1,1,1,1,1,,,,,,,,,,,,*48
$GPGGA,000158,03018.1782,N,09743.9205,W,1,8,1.1,1.5,M,24.5,M,,0000*52
$GPGSA,A,3,,,,,,,,,,,,,0.000,0.000,0.000,*1e
$GPGSV,1,1,1,1,1,1,1,,,,,,,,,,,,*48
$GPGSV,1,1,1,1,1,1,1,,,,,,,,,,,,*48
$GPGGA,000159,03018.1787,N,09743.9202,W,1,8,1.1,1.5,M,24.5,M,,0000*51
$GPGSA,A,3,,,,,,,,,,,,,0.000,0.000,0.000,*1e
$GPGSV,1,1,1,1,1,1,1,,,,,,,,,,,,*48
$GPGSV,1,1,1,1,1,1,1,,,,,,,,,,,,*48
$GPGGA,000160,03018.1792,N,09743.9199,W,1,8,1.1,1.5,M,24.5,M,,0000*5e
$GPGSA,A,3,,,,,,,,,,,,,0.000,0.000,0.000,*1e
$GPGSV,1,1,1,1,1,1,1,,,,,,,,,,,,*48
$GPGSV,1,1,1,1,1,1,1,,,,,,,,,,,,*48
$GPGGA,000161,03018.1796,N,09743.9196,W,1,8,1.1,1.5,M,24.5,M,,0000*54
$GPGSA,A,3,,,,,,,,,,,,,0.000,0.000,0.000,*1e
$GPGSV,1,1,1,1,1,1,1,,,,,,,,,,,,*48
$GPGSV,1,1,1,1,1,1,1,,,,,,,,,,,,*48
$GPGGA,000162,03018.1801,N,09743.9193,W,1,8,1.1,1.5,M,24.5,M,,0000*53
$GPGSA,A,3,,,,,,,,,,,,,0.000,0.000,0.000,*1e
$GPGSV,1,1,1,1,1,1,1,,,,,,,,,,,,*48
$GPGSV,1,1,1,1,1,1,1,,,,,,,,,,,,*48
$GPGGA,000163,03018.1806,N,09743.9190,W,1,8,1.1,1.5,M,24.5,M,,0000*56
$GPGSA,A,3,,,,,,,,,,,,,0.000,0.000,0.000,*1e
$GPGSV,1,1,1,1,1,1,1,,,,,,,,,,,,*48
$GPGSV,1,1,1,1,1,1,1,,,,,,,,,,,,*48
$GPGGA,000164,03018.1810,N,09743.9187,W,1,8,1.1,1.5,M,24.5,M,,0000*50
$GPGSA,A,3,,,,,,,,,,,,,0.000,0.000,0.000,*1e
$GPGSV,1,1,1,1,1,1,1,,,,,,,,,,,,*48
$GPGSV,1,1,1,1,1,1,1,,,,,,,,,,,,*48
$GPGGA,000165,03018.1815,N,09743.9184,W,1,8,1.1,1.5,M,24.5,M,,0000*57
$GPGSA,A,3,,,,,,,,,,,,,0.000,0.000,0.000,*1e
$GPGSV,1,1,1,1,1,1,1,,,,,,,,,,,,*48
$GPGSV,1,1,1,1,1,1,1,,,,,,,,,,,,*48
$GPGGA,000166,03018.1820,N,09743.9181,W,1,8,1.1,1.5,M,24.5,M,,0000*57
$GPGSA,A,3,,,,,,,,,,,,,0.000,0.000,0.000,*1e
$GPGSV,1,1,1,1,1,1,1,,,,,,,,,,,,*48
$GPGSV,1,1,1,1,1,1,1,,,,,,,,,,,,*48
$GPGGA,000167,03018.1825,N,09743.9178,W,1,8,1.1,1.5,M,24.5,M,,0000*55
$GPGSA,A,3,,,,,,,,,,,,,0.000,0.000,0.000,*1e
$GPGSV,1,1,1,1,1,1,1,,,,,,,,,,,,*48
$GPGSV,1,1,1,1,1,1,1,,,,,,,,,,,,*48
$GPGGA,000168,03018.1829,N,09743.9175,W,1,8,1.1,1.5,M,24.5,M,,0000*5b
$GPGSA,A,3,,,,,,,,,,,,,0.000,0.000,0.000,*1e
$GPGSV,1,1,1,1,1,1,1,,,,,,,,,,,,*48
$GPGSV,1,1,1,1,1,1,1,,,,,,,,,,,,*48
$GPGGA,000169,03018.1834,N,09743.9172,W,1,8,1.1,1.5,M,24.5,M,,0000*51
$GPGSA,A,3,,,,,,,,,,,,,0.000,0.000,0.000,*1e
$GPGSV,1,1,1,1,1,1,1,,,,,,,,,,,,*48
$GPGSV,1,1,1,1,1,1,1,,,,,,,,,,,,*48
$GPGGA,000170,03018.1838,N,09743.9169,W,1,8,1.1,1.5,M,24.5,M,,0000*5f
$GPGSA,A,3,,,,,,,,,,,,,0.000,0.000,0.000,*1e
$GPGSV,1,1,1,1,1,1,1,,,,,,,,,,,,*48
$GPGSV,1,1,1,1,1,1,1,,,,,,,,,,,,*48
$GPGGA,000171,03018.1843,N,09743.9166,W,1,8,1.1,1.5,M,24.5,M,,0000*5d
$GPGSA,A,3,,,,,,,,,,,,,0.000,0.000,0.000,*1e
$GPGSV,1,1,1,1,1,1,1,,,,,,,,,,,,*48
$GPGSV,1,1,1,1,1,1,1,,,,,,,,,,,,*48
$GPGGA,000172,03018.1848,N,09743.9163,W,1,8,1.1,1.5,M,24.5,M,,0000*50
$GPGSA,A,3,,,,,,,,,,,,,0.000,0.000,0.000,*1e
$GPGSV,1,1,1,1,1,1,1,,,,,,,,,,,,*48
$GPGSV,1,1,1,1,1,1,1,,,,,,,,,,,,*48
$GPGGA,000173,03018.1852,N,09743.9160,W,1,8,1.1,1.5,M,24.5,M,,0000*59
$GPGSA,A,3,,,,,,,,,,,,,0.000,0.000,0.000,*1e
$GPGSV,1,1,1,1,1,1,1,,,,,,,,,,,,*48
$GPGSV,1,1,1,1,1,1,1,,,,,,,,,,,,*48
$GPGGA,000174,03018.1857,N,09743.9157,W,1,8,1.1,1.5,M,24.5,M,,0000*5f
$GPGSA,A,3,,,,,,,,,,,,,0.000,0.000,0.000,*1e
$GPGSV,1,1,1,1,1,1,1,,,,,,,,,,,,*48
$GPGSV,1,1,1,1,1,1,1,,,,,,,,,,,,*48
$GPGGA,000175,03018.1862,N,09743.9154,W,1,8,1.1,1.5,M,24.5,M,,0000*5b
$GPGSA,A,3,,,,,,,,,,,,,0.000,0.000,0.000,*1e
$GPGSV,1,1,1,1,1,1,1,,,,,,,,,,,,*48
$GPGSV,1,1,1,1,1,1,1,,,,,,,,,,,,*48
$GPGGA,000176,03018.1867,N,09743.9151,W,1,8,1.1,1.5,M,24.5,M,,0000*58
$GPGSA,A,3,,,,,,,,,,,,,0.000,0.000,0.000,*1e
$GPGSV,1,1,1,1,1,1,1,,,,,,,,,,,,*48
$GPGSV,1,1,1,1,1,1,1,,,,,,,,,,,,*48
$GPGGA,000177,03018.1871,N,09743.9148,W,1,8,1.1,1.5,M,24.5,M,,0000*56
$GPGSA,A,3,,,,,,,,,,,,,0.000,0.000,0.000,*1e
$GPGSV,1,1,1,1,1,1,1,,,,,,,,,,,,*48
$GPGSV,1,1,1,1,1,1,1,,,,,,,,,,,,*48
$GPGGA,000178,03018.1876,N,09743.9145,W,1,8,1.1,1.5,M,24.5,M,,0000*53
$GPGSA,A,3,,,,,,,,,,,,,0.000,0.000,0.000,*1e
$GPGSV,1,1,1,1,1,1,1,,,,,,,,,,,,*48
$GPGSV,1,1,1,1,1,1,1,,,,,,,,,,,,*48
$GPGGA,000179,03018.1880,N,09743.9142,W,1,8,1.1,1.5,M,24.5,M,,0000*5c
$GPGSA,A,3,,,,,,,,,,,,,0.000,0.000,0.000,*1e
$GPGSV,1,1,1,1,1,1,1,,,,,,,,,,,,*48
$GPGSV,1,1,1,1,1,1,1,,,,,,,,,,,,*48
$GPGGA,000180,03018.1885,N,09743.9139,W,1,8,1.1,1.5,M,24.5,M,,0000*53
$GPGSA,A,3,,,,,,,,,,,,,0.000,0.000,0.000,*1e
$GPGSV,1,1,1,1,1,1,1,,,,,,,,,,,,*48
$GPGSV,1,1,1,1,1,1,1,,,,,,,,,,,,*48
$GPGGA,000181,03018.1889,N,09743.9136,W,1,8,1.1,1.5,M,24.5,M,,0000*51
$GPGSA,A,3,,,,,,,,,,,,,0.000,0.000,0.000,*1e
$GPGSV,1,1,1,1,1,1,1,,,,,,,,,,,,*48
$GPGSV,1,1,1,1,1,1,1,,,,,,,,,,,,*48
$GPGGA,000182,03018.1894,N,09743.9133,W,1,8,1.1,1.5,M,24.5,M,,0000*5b
$GPGSA,A,3,,,,,,,,,,,,,0.000,0.000,0.000,*1e
$GPGSV,1,1,1,1,1,1,1,,,,,,,,,,,,*48
$GPGSV,1,1,1,1,1,1,1,,,,,,,,,,,,*48
$GPGGA,000183,03018.1899,N,09743.9130,W,1,8,1.1,1.5,M,24.5,M,,0000*54
$GPGSA,A,3,,,,,,,,,,,,,0.000,0.000,0.000,*1e
$GPGSV,1,1,1,1,1,1,1,,,,,,,,,,,,*48
$GPGSV,1,1,1,1,1,1,1,,,,,,,,,,,,*48
$GPGGA,000184,03018.1904,N,09743.9127,W,1,8,1.1,1.5,M,24.5,M,,0000*50
$GPGSA,A,3,,,,,,,,,,,,,0.000,0.000,0.000,*1e
$GPGSV,1,1,1,1,1,1,1,,,,,,,,,,,,*48
$GPGSV,1,1,1,1,1,1,1,,,,,,,,,,,,*48
$GPGGA,000185,03018.1909,N,09743.9124,W,1,8,1.1,1.5,M,24.5,M,,0000*5f
$GPGSA,A,3,,,,,,,,,,,,,0.000,0.000,0.000,*1e
$GPGSV,1,1,1,1,1,1,1,,,,,,,,,,,,*48
$GPGSV,1,1,1,1,1,1,1,,,,,,,,,,,,*48
$GPGGA,000186,03018.1913,N,09743.9121,W,1,8,1.1,1.5,M,24.5,M,,0000*52
$GPGSA,A,3,,,,,,,,,,,,,0.000,0.000,0.000,*1e
$GPGSV,1,1,1,1,1,1,1,,,,,,,,,,,,*48
$GPGSV,1,1,1,1,1,1,1,,,,,,,,,,,,*48
$GPGGA,000187,03018.1918,N,09743.9118,W,1,8,1.1,1.5,M,24.5,M,,0000*52
$GPGSA,A,3,,,,,,,,,,,,,0.000,0.000,0.000,*1e
$GPGSV,1,1,1,1,1,1,1,,,,,,,,,,,,*48
$GPGSV,1,1,1,1,1,1,1,,,,,,,,,,,,*48
$GPGGA,000188,03018.1922,N,09743.9115,W,1,8,1.1,1.5,M,24.5,M,,0000*59
$GPGSA,A,3,,,,,,,,,,,,,0.000,0.000,0.000,*1e
$GPGSV,1,1,1,1,1,1,1,,,,,,,,,,,,*48
$GPGSV,1,1,1,1,1,1,1,,,,,,,,,,,,*48
$GPGGA,000189,03018.1927,N,09743.9112,W,1,8,1.1,1.5,M,24.5,M,,0000*5a
$GPGSA,A,3,,,,,,,,,,,,,0.000,0.000,0.000,*1e
$GPGSV,1,1,1,1,1,1,1,,,,,,,,,,,,*48
$GPGSV,1,1,1,1,1,1,1,,,,,,,,,,,,*48
$GPGGA,000190,03018.1931,N,09743.9109,W,1,8,1.1,1.5,M,24.5,M,,0000*5f
$GPGSA,A,3,,,,,,,,,,,,,0.000,0.000,0.000,*1e
$GPGSV,1,1,1,1,1,1,1,,,,,,,,,,,,*48
$GPGSV,1,1,1,1,1,1,1,,,,,,,,,,,,*48
$GPGGA,000191,03018.1936,N,09743.9106,W,1,8,1.1,1.5,M,24.5,M,,0000*56
$GPGSA,A,3,,,,,,,,,,,,,0.000,0.000,0.000,*1e
$GPGSV,1,1,1,1,1,1,1,,,,,,,,,,,,*48
$GPGSV,1,1,1,1,1,1,1,,,,,,,,,,,,*48
$GPGGA,000192,03018.1941,N,09743.9103,W,1,8,1.1,1.5,M,24.5,M,,0000*50
$GPGSA,A,3,,,,,,,,,,,,,0.000,0.000,0.000,*1e
$GPGSV,1,1,1,1,1,1,1,,,,,,,,,,,,*48
$GPGSV,1,1,1,1,1,1,1,,,,,,,,,,,,*48
$GPGGA,000193,03018.1946,N,09743.9100,W,1,8,1.1,1.5,M,24.5,M,,0000*55
$GPGSA,A,3,,,,,,,,,,,,,0.000,0.000,0.000,*1e
$GPGSV,1,1,1,1,1,1,1,,,,,,,,,,,,*48
$GPGSV,1,1,1,1,1,1,1,,,,,,,,,,,,*48
$GPGGA,000194,03018.1950,N,09743.9097,W,1,8,1.1,1.5,M,24.5,M,,0000*5a
$GPGSA,A,3,,,,,,,,,,,,,0.000,0.000,0.000,*1e
$GPGSV,1,1,1,1,1,1,1,,,,,,,,,,,,*48
$GPGSV,1,1,1,1,1,1,1,,,,,,,,,,,,*48
$GPGGA,000195,03018.1955,N,09743.9094,W,1,8,1.1,1.5,M,24.5,M,,0000*5d
$GPGSA,A,3,,,,,,,,,,,,,0.000,0.000,0.000,*1e
$GPGSV,1,1,1,1,1,1,1,,,,,,,,,,,,*48
$GPGSV,1,1,1,1,1,1,1,,,,,,,,,,,,*48
$GPGGA,000196,03018.1960,N,09743.9091,W,1,8,1.1,1.5,M,24.5,M,,0000*5d
$GPGSA,A,3,,,,,,,,,,,,,0.000,0.000,0.000,*1e
$GPGSV,1,1,1,1,1,1,1,,,,,,,,,,,,*48
$GPGSV,1,1,1,1,1,1,1,,,,,,,,,,,,*48
$GPGGA,000197,03018.1964,N,09743.9088,W,1,8,1.1,1.5,M,24.5,M,,0000*50
$GPGSA,A,3,,,,,,,,,,,,,0.000,0.000,0.000,*1e
$GPGSV,1,1,1,1,1,1,1,,,,,,,,,,,,*48
$GPGSV,1,1,1,1,1,1,1,,,,,,,,,,,,*48
$GPGGA,000198,03018.1969,N,09743.9085,W,1,8,1.1,1.5,M,24.5,M,,0000*5f
$GPGSA,A,3,,,,,,,,,,,,,0.000,0.000,0.000,*1e
$GPGSV,1,1,1,1,1,1,1,,,,,,,,,,,,*48
$GPGSV,1,1,1,1,1,1,1,,,,,,,,,,,,*48
$GPGGA,000199,03018.1973,N,09743.9082,W,1,8,1.1,1.5,M,24.5,M,,0000*52
$GPGSA,A,3,,,,,,,,,,,,,0.000,0.000,0.000,*1e
$GPGSV,1,1,1,1,1,1,1,,,,,,,,,,,,*48
$GPGSV,1,1,1,1,1,1,1,,,,,,,,,,,,*48
$GPGGA,000200,03018.1978,N,09743.9079,W,1,8,1.1,1.5,M,24.5,M,,0000*5e
$GPGSA,A,3,,,,,,,,,,,,,0.000,0.000,0.000,*1e
$GPGSV,1,1,1,1,1,1,1,,,,,,,,,,,,*48
$GPGSV,1,1,1,1,1,1,1,,,,,,,,,,,,*48
$GPGGA,000201,03018.1983,N,09743.9076,W,1,8,1.1,1.5,M,24.5,M,,0000*54
$GPGSA,A,3,,,,,,,,,,,,,0.000,0.000,0.000,*1e
$GPGSV,1,1,1,1,1,1,1,,,,,,,,,,,,*48
$GPGSV,1,1,1,1,1,1,1,,,,,,,,,,,,*48
$GPGGA,000202,03018.1988,N,09743.9073,W,1,8,1.1,1.5,M,24.5,M,,0000*59
$GPGSA,A,3,,,,,,,,,,,,,0.000,0.000,0.000,*1e
$GPGSV,1,1,1,1,1,1,1,,,,,,,,,,,,*48
$GPGSV,1,1,1,1,1,1,1,,,,,,,,,,,,*48
$GPGGA,000203,03018.1992,N,09743.9070,W,1,8,1.1,1.5,M,24.5,M,,0000*50
$GPGSA,A,3,,,,,,,,,,,,,0.000,0.000,0.000,*1e
$GPGSV,1,1,1,1,1,1,1,,,,,,,,,,,,*48
$GPGSV,1,1,1,1,1,1,1,,,,,,,,,,,,*48
$GPGGA,000204,03018.1997,N,09743.9067,W,1,8,1.1,1.5,M,24.5,M,,0000*54
$GPGSA,A,3,,,,,,,,,,,,,0.000,0.000,0.000,*1e
$GPGSV,1,1,1,1,1,1,1,,,,,,,,,,,,*48
$GPGSV,1,1,1,1,1,1,1,,,,,,,,,,,,*48
$GPGGA,000205,03018.2002,N,09743.9064,W,1,8,1.1,1.5,M,24.5,M,,0000*50
$GPGSA,A,3,,,,,,,,,,,,,0.000,0.000,0.000,*1e
$GPGSV,1,1,1,1,1,1,1,,,,,,,,,,,,*48
$GPGSV,1,1,1,1,1,1,1,,,,,,,,,,,,*48
$GPGGA,000206,03018.2006,N,09743.9061,W,1,8,1.1,1.5,M,24.5,M,,0000*52
$GPGSA,A,3,,,,,,,,,,,,,0.000,0.000,0.000,*1e
$GPGSV,1,1,1,1,1,1,1,,,,,,,,,,,,*48
$GPGSV,1,1,1,1,1,1,1,,,,,,,,,,,,*48
$GPGGA,000207,03018.2011,N,09743.9058,W,1,8,1.1,1.5,M,24.5,M,,0000*5f
$GPGSA,A,3,,,,,,,,,,,,,0.000,0.000,0.000,*1e
$GPGSV,1,1,1,1,1,1,1,,,,,,,,,,,,*48
$GPGSV,1,1,1,1,1,1,1,,,,,,,,,,,,*48
$GPGGA,000208,03018.2015,N,09743.9055,W,1,8,1.1,1.5,M,24.5,M,,0000*59
$GPGSA,A,3,,,,,,,,,,,,,0.000,0.000,0.000,*1e
$GPGSV,1,1,1,1,1,1,1,,,,,,,,,,,,*48
$GPGSV,1,1,1,1,1,1,1,,,,,,,,,,,,*48
$GPGGA,000209,03018.2020,N,09743.9052,W,1,8,1.1,1.5,M,24.5,M,,0000*59
$GPGSA,A,3,,,,,,,,,,,,,0.000,0.000,0.000,*1e
$GPGSV,1,1,1,1,1,1,1,,,,,,,,,,,,*48
$GPGSV,1,1,1,1,1,1,1,,,,,,,,,,,,*48
$GPGGA,000210,03018.2025,N,09743.9049,W,1,8,1.1,1.5,M,24.5,M,,0000*5e
$GPGSA,A,3,,,,,,,,,,,,,0.000,0.000,0.000,*1e
$GPGSV,1,1,1,1,1,1,1,,,,,,,,,,,,*48
$GPGSV,1,1,1,1,1,1,1,,,,,,,,,,,,*48
$GPGGA,000211,03018.2029,N,09743.9046,W,1,8,1.1,1.5,M,24.5,M,,0000*5c
$GPGSA,A,3,,,,,,,,,,,,,0.000,0.000,0.000,*1e
$GPGSV,1,1,1,1,1,1,1,,,,,,,,,,,,*48
$GPGSV,1,1,1,1,1,1,1,,,,,,,,,,,,*48
$GPGGA,000212,03018.2034,N,09743.9043,W,1,8,1.1,1.5,M,24.5,M,,0000*56
$GPGSA,A,3,,,,,,,,,,,,,0.000,0.000,0.000,*1e
$GPGSV,1,1,1,1,1,1,1,,,,,,,,,,,,*48
$GPGSV,1,1,1,1,1,1,1,,,,,,,,,,,,*48
$GPGGA,000213,03018.2039,N,09743.9040,W,1,8,1.1,1.5,M,24.5,M,,0000*59
$GPGSA,A,3,,,,,,,,,,,,,0.000,0.000,0.000,*1e
$GPGSV,1,1,1,1,1,1,1,,,,,,,,,,,,*48
$GPGSV,1,1,1,1,1,1,1,,,,,,,,,,,,*48
$GPGGA,000214,03018.2044,N,09743.9037,W,1,8,1.1,1.5,M,24.5,M,,0000*54
$GPGSA,A,3,,,,,,,,,,,,,0.000,0.000,0.000,*1e
$GPGSV,1,1,1,1,1,1,1,,,,,,,,,,,,*48
$GPGSV,1,1,1,1,1,1,1,,,,,,,,,,,,*48
$GPGGA,000215,03018.2048,N,09743.9034,W,1,8,1.1,1.5,M,24.5,M,,0000*5a
$GPGSA,A,3,,,,,,,,,,,,,0.000,0.000,0.000,*1e
$GPGSV,1,1,1,1,1,1,1,,,,,,,,,,,,*48
$GPGSV,1,1,1,1,1,1,1,,,,,,,,,,,,*48
$GPGGA,000216,03018.2053,N,09743.9031,W,1,8,1.1,1.5,M,24.5,M,,0000*56
$GPGSA,A,3,,,,,,,,,,,,,0.000,0.000,0.000,*1e
$GPGSV,1,1,1,1,1,1,1,,,,,,,,,,,,*48
$GPGSV,1,1,1,1,1,1,1,,,,,,,,,,,,*48
$GPGGA,000217,03018.2057,N,09743.9028,W,1,8,1.1,1.5,M,24.5,M,,0000*5b
$GPGSA,A,3,,,,,,,,,,,,,0.000,0.000,0.000,*1e
$GPGSV,1,1,1,1,1,1,1,,,,,,,,,,,,*48
$GPGSV,1,1,1,1,1,1,1,,,,,,,,,,,,*48
$GPGGA,000218,03018.2062,N,09743.9025,W,1,8,1.1,1.5,M,24.5,M,,0000*5f
$GPGSA,A,3,,,,,,,,,,,,,0.000,0.000,0.000,*1e
$GPGSV,1,1,1,1,1,1,1,,,,,,,,,,,,*48
$GPGSV,1,1,1,1,1,1,1,,,,,,,,,,,,*48
$GPGGA,000219,03018.2067,N,09743.9022,W,1,8,1.1,1.5,M,24.5,M,,0000*5c
$GPGSA,A,3,,,,,,,,,,,,,0.000,0.000,0.000,*1e
$GPGSV,1,1,1,1,1,1,1,,,,,,,,,,,,*48
$GPGSV,1,1,1,1,1,1,1,,,,,,,,,,,,*48
$GPGGA,000220,03018.2071,N,09743.9019,W,1,8,1.1,1.5,M,24.5,M,,0000*59
$GPGSA,A,3,,,,,,,,,,,,,0.000,0.000,0.000,*1e
$GPGSV,1,1,1,1,1,1,1,,,,,,,,,,,,*48
$GPGSV,1,1,1,1,1,1,1,,,,,,,,,,,,*48
$GPGGA,000221,03018.2076,N,09743.9016,W,1,8,1.1,1.5,M,24.5,M,,0000*50
$GPGSA,A,3,,,,,,,,,,,,,0.000,0.000,0.000,*1e
$GPGSV,1,1,1,1,1,1,1,,,,,,,,,,,,*48
$GPGSV,1,1,1,1,1,1,1,,,,,,,,,,,,*48
$GPGGA,000222,03018.2081,N,09743.9013,W,1,8,1.1,1.5,M,24.5,M,,0000*5e
$GPGSA,A,3,,,,,,,,,,,,,0.000,0.000,0.000,*1e
$GPGSV,1,1,1,1,1,1,1,,,,,,,,,,,,*48
$GPGSV,1,1,1,1,1,1,1,,,,,,,,,,,,*48
$GPGGA,000223,03018.2086,N,09743.9010,W,1,8,1.1,1.5,M,24.5,M,,0000*5b
$GPGSA,A,3,,,,,,,,,,,,,0.000,0.000,0.000,*1e
$GPGSV,1,1,1,1,1,1,1,,,,,,,,,,,,*48
$GPGSV,1,1,1,1,1,1,1,,,,,,,,,,,,*48
$GPGGA,000224,03018.2090,N,09743.9007,W,1,8,1.1,1.5,M,24.5,M,,0000*5d
$GPGSA,A,3,,,,,,,,,,,,,0.000,0.000,0.000,*1e
$GPGSV,1,1,1,1,1,1,1,,,,,,,,,,,,*48
$GPGSV,1,1,1,1,1,1,1,,,,,,,,,,,,*48
$GPGGA,000225,03018.2095,N,09743.9004,W,1,8,1.1,1.5,M,24.5,M,,0000*5a
$GPGSA,A,3,,,,,,,,,,,,,0.000,0.000,0.000,*1e
$GPGSV,1,1,1,1,1,1,1,,,,,,,,,,,,*48
$GPGSV,1,1,1,1,1,1,1,,,,,,,,,,,,*48
$GPGGA,000226,03018.2099,N,09743.9001,W,1,8,1.1,1.5,M,24.5,M,,0000*50
$GPGSA,A,3,,,,,,,,,,,,,0.000,0.000,0.000,*1e
$GPGSV,1,1,1,1,1,1,1,,,,,,,,,,,,*48
$GPGSV,1,1,1,1,1,1,1,,,,,,,,,,,,*48
$GPGGA,000227,03018.2104,N,09743.8998,W,1,8,1.1,1.5,M,24.5,M,,0000*5c
$GPGSA,A,3,,,,,,,,,,,,,0.000,0.000,0.000,*1e
$GPGSV,1,1,1,1,1,1,1,,,,,,,,,,,,*48
$GPGSV,1,1,1,1,1,1,1,,,,,,,,,,,,*48
$GPGGA,000228,03018.2108,N,09743.8995,W,1,8,1.1,1.5,M,24.5,M,,0000*52
$GPGSA,A,3,,,,,,,,,,,,,0.000,0.000,0.000,*1e
$GPGSV,1,1,1,1,1,1,1,,,,,,,,,,,,*48
$GPGSV,1,1,1,1,1,1,1,,,,,,,,,,,,*48
$GPGGA,000229,03018.2113,N,09743.8992,W,1,8,1.1,1.5,M,24.5,M,,0000*5e
$GPGSA,A,3,,,,,,,,,,,,,0.000,0.000,0.000,*1e
$GPGSV,1,1,1,1,1,1,1,,,,,,,,,,,,*48
$GPGSV,1,1,1,1,1,1,1,,,,,,,,,,,,*48
$GPGGA,000230,03018.2118,N,09743.8989,W,1,8,1.1,1.5,M,24.5,M,,0000*57
$GPGSA,A,3,,,,,,,,,,,,,0.000,0.000,0.000,*1e
$GPGSV,1,1,1,1,1,1,1,,,,,,,,,,,,*48
$GPGSV,1,1,1,1,1,1,1,,,,,,,,,,,,*48
$GPGGA,000231,03018.2123,N,09743.8986,W,1,8,1.1,1.5,M,24.5,M,,0000*51
$GPGSA,A,3,,,,,,,,,,,,,0.000,0.000,0.000,*1e
$GPGSV,1,1,1,1,1,1,1,,,,,,,,,,,,*48
$GPGSV,1,1,1,1,1,1,1,,,,,,,,,,,,*48
$GPGGA,000232,03018.2128,N,09743.8983,W,1,8,1.1,1.5,M,24.5,M,,0000*5c
$GPGSA,A,3,,,,,,,,,,,,,0.000,0.000,0.000,*1e
$GPGSV,1,1,1,1,1,1,1,,,,,,,,,,,,*48
$GPGSV,1,1,1,1,1,1,1,,,,,,,,,,,,*48
$GPGGA,000233,03018.2132,N,09743.8980,W,1,8,1.1,1.5,M,24.5,M,,0000*55
$GPGSA,A,3,,,,,,,,,,,,,0.000,0.000,0.000,*1e
$GPGSV,1,1,1,1,1,1,1,,,,,,,,,,,,*48
$GPGSV,1,1,1,1,1,1,1,,,,,,,,,,,,*48
$GPGGA,000234,03018.2137,N,09743.8977,W,1,8,1.1,1.5,M,24.5,M,,0000*5f
$GPGSA,A,3,,,,,,,,,,,,,0.000,0.000,0.000,*1e
$GPGSV,1,1,1,1,1,1,1,,,,,,,,,,,,*48
$GPGSV,1,1,1,1,1,1,1,,,,,,,,,,,,*48
$GPGGA,000235,03018.2141,N,09743.8974,W,1,8,1.1,1.5,M,24.5,M,,0000*5c
$GPGSA,A,3,,,,,,,,,,,,,0.000,0.000,0.000,*1e
$GPGSV,1,1,1,1,1,1,1,,,,,,,,,,,,*48
$GPGSV,1,1,1,1,1,1,1,,,,,,,,,,,,*48
$GPGGA,000236,03018.2146,N,09743.8971,W,1,8,1.1,1.5,M,24.5,M,,0000*5d
$GPGSA,A,3,,,,,,,,,,,,,0.000,0.000,0.000,*1e
$GPGSV,1,1,1,1,1,1,1,,,,,,,,,,,,*48
$GPGSV,1,1,1,1,1,1,1,,,,,,,,,,,,*48
$GPGGA,000237,03018.2150,N,09743.8968,W,1,8,1.1,1.5,M,24.5,M,,0000*53
$GPGSA,A,3,,,,,,,,,,,,,0.000,0.000,0.000,*1e
$GPGSV,1,1,1,1,1,1,1,,,,,,,,,,,,*48
$GPGSV,1,1,1,1,1,1,1,,,,,,,,,,,,*48
$GPGGA,000238,03018.2155,N,09743.8965,W,1,8,1.1,1.5,M,24.5,M,,0000*54
$GPGSA,A,3,,,,,,,,,,,,,0.000,0.000,0.000,*1e
$GPGSV,1,1,1,1,1,1,1,,,,,,,,,,,,*48
$GPGSV,1,1,1,1,1,1,1,,,,,,,,,,,,*48
$GPGGA,000239,03018.2160,N,09743.8962,W,1,8,1.1,1.5,M,24.5,M,,0000*54
$GPGSA,A,3,,,,,,,,,,,,,0.000,0.000,0.000,*1e
$GPGSV,1,1,1,1,1,1,1,,,,,,,,,,,,*48
$GPGSV,1,1,1,1,1,1,1,,,,,,,,,,,,*48
$GPGGA,000240,03018.2165,N,09743.8959,W,1,8,1.1,1.5,M,24.5,M,,0000*57
$GPGSA,A,3,,,,,,,,,,,,,0.000,0.000,0.000,*1e
$GPGSV,1,1,1,1,1,1,1,,,,,,,,,,,,*48
$GPGSV,1,1,1,1,1,1,1,,,,,,,,,,,,*48
$GPGGA,000241,03018.2169,N,09743.8956,W,1,8,1.1,1.5,M,24.5,M,,0000*55
$GPGSA,A,3,,,,,,,,,,,,,0.000,0.000,0.000,*1e
$GPGSV,1,1,1,1,1,1,1,,,,,,,,,,,,*48
$GPGSV,1,1,1,1,1,1,1,,,,,,,,,,,,*48
$GPGGA,000242,03018.2174,N,09743.8953,W,1,8,1.1,1.5,M,24.5,M,,0000*5f
$GPGSA,A,3,,,,,,,,,,,,,0.000,0.000,0.000,*1e
$GPGSV,1,1,1,1,1,1,1,,,,,,,,,,,,*48
$GPGSV,1,1,1,1,1,1,1,,,,,,,,,,,,*48
$GPGGA,000243,03018.2179,N,09743.8950,W,1,8,1.1,1.5,M,24.5,M,,0000*50
$GPGSA,A,3,,,,,,,,,,,,,0.000,0.000,0.000,*1e
$GPGSV,1,1,1,1,1,1,1,,,,,,,,,,,,*48
$GPGSV,1,1,1,1,1,1,1,,,,,,,,,,,,*48
$GPGGA,000244,03018.2183,N,09743.8947,W,1,8,1.1,1.5,M,24.5,M,,0000*54
$GPGSA,A,3,,,,,,,,,,,,,0.000,0.000,0.000,*1e
$GPGSV,1,1,1,1,1,1,1,,,,,,,,,,,,*48
$GPGSV,1,1,1,1,1,1,1,,,,,,,,,,,,*48
$GPGGA,000245,03018.2188,N,09743.8944,W,1,8,1.1,1.5,M,24.5,M,,0000*5d
$GPGSA,A,3,,,,,,,,,,,,,0.000,0.000,0.000,*1e
$GPGSV,1,1,1,1,1,1,1,,,,,,,,,,,,*48
$GPGSV,1,1,1,1,1,1,1,,,,,,,,,,,,*48
$GPGGA,000246,03018.2192,N,09743.8941,W,1,8,1.1,1.5,M,24.5,M,,0000*50
$GPGSA,A,3,,,,,,,,,,,,,0.000,0.000,0.000,*1e
$GPGSV,1,1,1,1,1,1,1,,,,,,,,,,,,*48
$GPGSV,1,1,1,1,1,1,1,,,,,,,,,,,,*48
$GPGGA,000247,03018.2197,N,09743.8938,W,1,8,1.1,1.5,M,24.5,M,,0000*5a
$GPGSA,A,3,,,,,,,,,,,,,0.000,0.000,0.000,*1e
$GPGSV,1,1,1,1,1,1,1,,,,,,,,,,,,*48
$GPGSV,1,1,1,1,1,1,1,,,,,,,,,,,,*48
$GPGGA,000248,03018.2202,N,09743.8935,W,1,8,1.1,1.5,M,24.5,M,,0000*57
$GPGSA,A,3,,,,,,,,,,,,,0.000,0.000,0.000,*1e
$GPGSV,1,1,1,1,1,1,1,,,,,,,,,,,,*48
$GPGSV,1,1,1,1,1,1,1,,,,,,,,,,,,*48
$GPGGA,000249,03018.2207,N,09743.8932,W,1,8,1.1,1.5,M,24.5,M,,0000*54
$GPGSA,A,3,,,,,,,,,,,,,0.000,0.000,0.000,*1e
$GPGSV,1,1,1,1,1,1,1,,,,,,,,,,,,*48
$GPGSV,1,1,1,1,1,1,1,,,,,,,,,,,,*48
$GPGGA,000250,03018.2211,N,09743.8929,W,1,8,1.1,1.5,M,24.5,M,,0000*51
$GPGSA,A,3,,,,,,,,,,,,,0.000,0.000,0.000,*1e
$GPGSV,1,1,1,1,1,1,1,,,,,,,,,,,,*48
$GPGSV,1,1,1,1,1,1,1,,,,,,,,,,,,*48
$GPGGA,000251,03018.2216,N,09743.8926,W,1,8,1.1,1.5,M,24.5,M,,0000*58
$GPGSA,A,3,,,,,,,,,,,,,0.000,0.000,0.000,*1e
$GPGSV,1,1,1,1,1,1,1,,,,,,,,,,,,*48
$GPGSV,1,1,1,1,1,1,1,,,,,,,,,,,,*48
$GPGGA,000252,03018.2221,N,09743.8923,W,1,8,1.1,1.5,M,24.5,M,,0000*5a
$GPGSA,A,3,,,,,,,,,,,,,0.000,0.000,0.000,*1e
$GPGSV,1,1,1,1,1,1,1,,,,,,,,,,,,*48
$GPGSV,1,1,1,1,1,1,1,,,,,,,,,,,,*48
$GPGGA,000253,03018.2225,N,09743.8920,W,1,8,1.1,1.5,M,24.5,M,,0000*5c
$GPGSA,A,3,,,,,,,,,,,,,0.000,0.000,0.000,*1e
$GPGSV,1,1,1,1,1,1,1,,,,,,,,,,,,*48
$GPGSV,1,1,1,1,1,1,1,,,,,,,,,,,,*48
$GPGGA,000254,03018.2230,N,09743.8917,W,1,8,1.1,1.5,M,24.5,M,,0000*5b
$GPGSA,A,3,,,,,,,,,,,,,0.000,0.000,0.000,*1e
$GPGSV,1,1,1,1,1,1,1,,,,,,,,,,,,*48
$GPGSV,1,1,1,1,1,1,1,,,,,,,,,,,,*48
$GPGGA,000255,03018.2234,N,09743.8914,W,1,8,1.1,1.5,M,24.5,M,,0000*5d
$GPGSA,A,3,,,,,,,,,,,,,0.000,0.000,0.000,*1e
$GPGSV,1,1,1,1,1,1,1,,,,,,,,,,,,*48
$GPGSV,1,1,1,1,1,1,1,,,,,,,,,,,,*48
$GPGGA,000256,03018.2239,N,09743.8911,W,1,8,1.1,1.5,M,24.5,M,,0000*56
$GPGSA,A,3,,,,,,,,,,,,,0.000,0.000,0.000,*1e
$GPGSV,1,1,1,1,1,1,1,,,,,,,,,,,,*48
$GPGSV,1,1,1,1,1,1,1,,,,,,,,,,,,*48
$GPGGA,000257,03018.2244,N,09743.8908,W,1,8,1.1,1.5,M,24.5,M,,0000*55
$GPGSA,A,3,,,,,,,,,,,,,0.000,0.000,0.000,*1e
$GPGSV,1,1,1,1,1,1,1,,,,,,,,,,,,*48
$GPGSV,1,1,1,1,1,1,1,,,,,,,,,,,,*48
$GPGGA,000258,03018.2248,N,09743.8905,W,1,8,1.1,1.5,M,24.5,M,,0000*5b
$GPGSA,A,3,,,,,,,,,,,,,0.000,0.000,0.000,*1e
$GPGSV,1,1,1,1,1,1,1,,,,,,,,,,,,*48
$GPGSV,1,1,1,1,1,1,1,,,,,,,,,,,,*48
$GPGGA,000259,03018.2253,N,09743.8902,W,1,8,1.1,1.5,M,24.5,M,,0000*57
$GPGSA,A,3,,,,,,,,,,,,,0.000,0.000,0.000,*1e
$GPGSV,1,1,1,1,1,1,1,,,,,,,,,,,,*48
$GPGSV,1,1,1,1,1,1,1,,,,,,,,,,,,*48
$GPGGA,000260,03018.2258,N,09743.8899,W,1,8,1.1,1.5,M,24.5,M,,0000*55
$GPGSA,A,3,,,,,,,,,,,,,0.000,0.000,0.000,*1e
$GPGSV,1,1,1,1,1,1,1,,,,,,,,,,,,*48
$GPGSV,1,1,1,1,1,1,1,,,,,,,,,,,,*48
$GPGGA,000261,03018.2263,N,09743.8895,W,1,8,1.1,1.5,M,24.5,M,,0000*50
$GPGSA,A,3,,,,,,,,,,,,,0.000,0.000,0.000,*1e
$GPGSV,1,1,1,1,1,1,1,,,,,,,,,,,,*48
$GPGSV,1,1,1,1,1,1,1,,,,,,,,,,,,*48
$GPGGA,000262,03018.2267,N,09743.8892,W,1,8,1.1,1.5,M,24.5,M,,0000*50
$GPGSA,A,3,,,,,,,,,,,,,0.000,0.000,0.000,*1e
$GPGSV,1,1,1,1,1,1,1,,,,,,,,,,,,*48
$GPGSV,1,1,1,1,1,1,1,,,,,,,,,,,,*48
$GPGGA,000263,03018.2272,N,09743.8889,W,1,8,1.1,1.5,M,24.5,M,,0000*5f
$GPGSA,A,3,,,,,,,,,,,,,0.000,0.000,0.000,*1e
$GPGSV,1,1,1,1,1,1,1,,,,,,,,,,,,*48
$GPGSV,1,1,1,1,1,1,1,,,,,,,,,,,,*48
$GPGGA,000264,03018.2276,N,09743.8886,W,1,8,1.1,1.5,M,24.5,M,,0000*53
$GPGSA,A,3,,,,,,,,,,,,,0.000,0.000,0.000,*1e
$GPGSV,1,1,1,1,1,1,1,,,,,,,,,,,,*48
$GPGSV,1,1,1,1,1,1,1,,,,,,,,,,,,*48
$GPGGA,000265,03018.2281,N,09743.8883,W,1,8,1.1,1.5,M,24.5,M,,0000*5f
$GPGSA,A,3,,,,,,,,,,,,,0.000,0.000,0.000,*1e
$GPGSV,1,1,1,1,1,1,1,,,,,,,,,,,,*48
$GPGSV,1,1,1,1,1,1,1,,,,,,,,,,,,*48
$GPGGA,000266,03018.2286,N,09743.8880,W,1,8,1.1,1.5,M,24.5,M,,0000*58
$GPGSA,A,3,,,,,,,,,,,,,0.000,0.000,0.000,*1e
$GPGSV,1,1,1,1,1,1,1,,,,,,,,,,,,*48
$GPGSV,1,1,1,1,1,1,1,,,,,,,,,,,,*48
$GPGGA,000267,03018.2290,N,09743.8877,W,1,8,1.1,1.5,M,24.5,M,,0000*56
$GPGSA,A,3,,,,,,,,,,,,,0.000,0.000,0.000,*1e
$GPGSV,1,1,1,1,1,1,1,,,,,,,,,,,,*48
$GPGSV,1,1,1,1,1,1,1,,,,,,,,,,,,*48
$GPGGA,000268,03018.2295,N,09743.8874,W,1,8,1.1,1.5,M,24.5,M,,0000*5f
$GPGSA,A,3,,,,,,,,,,,,,0.000,0.000,0.000,*1e
$GPGSV,1,1,1,1,1,1,1,,,,,,,,,,,,*48
$GPGSV,1,1,1,1,1,1,1,,,,,,,,,,,,*48
$GPGGA,000269,03018.2300,N,09743.8871,W,1,8,1.1,1.5,M,24.5,M,,0000*56
$GPGSA,A,3,,,,,,,,,,,,,0.000,0.000,0.000,*1e
$GPGSV,1,1,1,1,1,1,1,,,,,,,,,,,,*48
$GPGSV,1,1,1,1,1,1,1,,,,,,,,,,,,*48
$GPGGA,000270,03018.2305,N,09743.8868,W,1,8,1.1,1.5,M,24.5,M,,0000*53
$GPGSA,A,3,,,,,,,,,,,,,0.000,0.000,0.000,*1e
$GPGSV,1,1,1,1,1,1,1,,,,,,,,,,,,*48
$GPGSV,1,1,1,1,1,1,1,,,,,,,,,,,,*48
$GPGGA,000271,03018.2309,N,09743.8865,W,1,8,1.1,1.5,M,24.5,M,,0000*53
$GPGSA,A,3,,,,,,,,,,,,,0.000,0.000,0.000,*1e
$GPGSV,1,1,1,1,1,1,1,,,,,,,,,,,,*48
$GPGSV,1,1,1,1,1,1,1,,,,,,,,,,,,*48
$GPGGA,000272,03018.2314,N,09743.8862,W,1,8,1.1,1.5,M,24.5,M,,0000*5b
$GPGSA,A,3,,,,,,,,,,,,,0.000,0.000,0.000,*1e
$GPGSV,1,1,1,1,1,1,1,,,,,,,,,,,,*48
$GPGSV,1,1,1,1,1,1,1,,,,,,,,,,,,*48
$GPGGA,000273,03018.2318,N,09743.8859,W,1,8,1.1,1.5,M,24.5,M,,0000*5e
$GPGSA,A,3,,,,,,,,,,,,,0.000,0.000,0.000,*1e
$GPGSV,1,1,1,1,1,1,1,,,,,,,,,,,,*48
$GPGSV,1,1,1,1,1,1,1,,,,,,,,,,,,*48
$GPGGA,000274,03018.2323,N,09743.8856,W,1,8,1.1,1.5,M,24.5,M,,0000*5e
$GPGSA,A,3,,,,,,,,,,,,,0.000,0.000,0.000,*1e
$GPGSV,1,1,1,1,1,1,1,,,,,,,,,,,,*48
$GPGSV,1,1,1,1,1,1,1,,,,,,,,,,,,*48
$GPGGA,000275,03018.2327,N,09743.8853,W,1,8,1.1,1.5,M,24.5,M,,0000*5e
$GPGSA,A,3,,,,,,,,,,,,,0.000,0.000,0.000,*1e
$GPGSV,1,1,1,1,1,1,1,,,,,,,,,,,,*48
$GPGSV,1,1,1,1,1,1,1,,,,,,,,,,,,*48
$GPGGA,000276,03018.2332,N,09743.8850,W,1,8,1.1,1.5,M,24.5,M,,0000*5a
$GPGSA,A,3,,,,,,,,,,,,,0.000,0.000,0.000,*1e
$GPGSV,1,1,1,1,1,1,1,,,,,,,,,,,,*48
$GPGSV,1,1,1,1,1,1,1,,,,,,,,,,,,*48
$GPGGA,000277,03018.2337,N,09743.8847,W,1,8,1.1,1.5,M,24.5,M,,0000*58
$GPGSA,A,3,,,,,,,,,,,,,0.000,0.000,0.000,*1e
$GPGSV,1,1,1,1,1,1,1,,,,,,,,,,,,*48
$GPGSV,1,1,1,1,1,1,1,,,,,,,,,,,,*48
$GPGGA,000278,03018.2342,N,09743.8844,W,1,8,1.1,1.5,M,24.5,M,,0000*56
$GPGSA,A,3,,,,,,,,,,,,,0.000,0.000,0.000,*1e
$GPGSV,1,1,1,1,1,1,1,,,,,,,,,,,,*48
$GPGSV,1,1,1,1,1,1,1,,,,,,,,,,,,*48
$GPGGA,000279,03018.2346,N,09743.8841,W,1,8,1.1,1.5,M,24.5,M,,0000*56
$GPGSA,A,3,,,,,,,,,,,,,0.000,0.000,0.000,*1e
$GPGSV,1,1,1,1,1,1,1,,,,,,,,,,,,*48
$GPGSV,1,1,1,1,1,1,1,,,,,,,,,,,,*48
$GPGGA,000280,03018.2351,N,09743.8838,W,1,8,1.1,1.5,M,24.5,M,,0000*58
$GPGSA,A,3,,,,,,,,,,,,,0.000,0.000,0.000,*1e
$GPGSV,1,1,1,1,1,1,1,,,,,,,,,,,,*48
$GPGSV,1,1,1,1,1,1,1,,,,,,,,,,,,*48
$GPGGA,000281,03018.2356,N,09743.8835,W,1,8,1.1,1.5,M,24.5,M,,0000*53
$GPGSA,A,3,,,,,,,,,,,,,0.000,0.000,0.000,*1e
$GPGSV,1,1,1,1,1,1,1,,,,,,,,,,,,*48
$GPGSV,1,1,1,1,1,1,1,,,,,,,,,,,,*48
$GPGGA,000282,03018.2360,N,09743.8832,W,1,8,1.1,1.5,M,24.5,M,,0000*52
$GPGSA,A,3,,,,,,,,,,,,,0.000,0.000,0.000,*1e
$GPGSV,1,1,1,1,1,1,1,,,,,,,,,,,,*48
$GPGSV,1,1,1,1,1,1,1,,,,,,,,,,,,*48
$GPGGA,000283,03018.2365,N,09743.8829,W,1,8,1.1,1.5,M,24.5,M,,0000*5c
$GPGSA,A,3,,,,,,,,,,,,,0.000,0.000,0.000,*1e
$GPGSV,1,1,1,1,1,1,1,,,,,,,,,,,,*48
$GPGSV,1,1,1,1,1,1,1,,,,,,,,,,,,*48
$GPGGA,000284,03018.2369,N,09743.8826,W,1,8,1.1,1.5,M,24.5,M,,0000*58
$GPGSA,A,3,,,,,,,,,,,,,0.000,0.000,0.000,*1e
$GPGSV,1,1,1,1,1,1,1,,,,,,,,,,,,*48
$GPGSV,1,1,1,1,1,1,1,,,,,,,,,,,,*48
$GPGGA,000285,03018.2374,N,09743.8823,W,1,8,1.1,1.5,M,24.5,M,,0000*50
$GPGSA,A,3,,,,,,,,,,,,,0.000,0.000,0.000,*1e
$GPGSV,1,1,1,1,1,1,1,,,,,,,,,,,,*48
$GPGSV,1,1,1,1,1,1,1,,,,,,,,,,,,*48
$GPGGA,000286,03018.2379,N,09743.8820,W,1,8,1.1,1.5,M,24.5,M,,0000*5d
$GPGSA,A,3,,,,,,,,,,,,,0.000,0.000,0.000,*1e
$GPGSV,1,1,1,1,1,1,1,,,,,,,,,,,,*48
$GPGSV,1,1,1,1,1,1,1,,,,,,,,,,,,*48
$GPGGA,000287,03018.2384,N,09743.8817,W,1,8,1.1,1.5,M,24.5,M,,0000*5a
$GPGSA,A,3,,,,,,,,,,,,,0.000,0.000,0.000,*1e
$GPGSV,1,1,1,1,1,1,1,,,,,,,,,,,,*48
$GPGSV,1,1,1,1,1,1,1,,,,,,,,,,,,*48
$GPGGA,000288,03018.2388,N,09743.8814,W,1,8,1.1,1.5,M,24.5,M,,0000*5a
$GPGSA,A,3,,,,,,,,,,,,,0.000,0.000,0.000,*1e
$GPGSV,1,1,1,1,1,1,1,,,,,,,,,,,,*48
$GPGSV,1,1,1,1,1,1,1,,,,,,,,,,,,*48
$GPGGA,000289,03018.2393,N,09743.8811,W,1,8,1.1,1.5,M,24.5,M,,0000*54
$GPGSA,A,3,,,,,,,,,,,,,0.000,0.000,0.000,*1e
$GPGSV,1,1,1,1,1,1,1,,,,,,,,,,,,*48
$GPGSV,1,1,1,1,1,1,1,,,,,,,,,,,,*48
$GPGGA,000290,03018.2398,N,09743.8808,W,1,8,1.1,1.5,M,24.5,M,,0000*5f
$GPGSA,A,3,,,,,,,,,,,,,0.000,0.000,0.000,*1e
$GPGSV,1,1,1,1,1,1,1,,,,,,,,,,,,*48
$GPGSV,1,1,1,1,1,1,1,,,,,,,,,,,,*48
$GPGGA,000291,03018.2402,N,09743.8805,W,1,8,1.1,1.5,M,24.5,M,,0000*57
$GPGSA,A,3,,,,,,,,,,,,,0.000,0.000,0.000,*1e
$GPGSV,1,1,1,1,1,1,1,,,,,,,,,,,,*48
$GPGSV,1,1,1,1,1,1,1,,,,,,,,,,,,*48
$GPGGA,000292,03018.2407,N,09743.8802,W,1,8,1.1,1.5,M,24.5,M,,0000*56
$GPGSA,A,3,,,,,,,,,,,,,0.000,0.000,0.000,*1e
$GPGSV,1,1,1,1,1,1,1,,,,,,,,,,,,*48
$GPGSV,1,1,1,1,1,1,1,,,,,,,,,,,,*48
$GPGGA,000293,03018.2411,N,09743.8799,W,1,8,1.1,1.5,M,24.5,M,,0000*5d
$GPGSA,A,3,,,,,,,,,,,,,0.000,0.000,0.000,*1e
$GPGSV,1,1,1,1,1,1,1,,,,,,,,,,,,*48
$GPGSV,1,1,1,1,1,1,1,,,,,,,,,,,,*48
$GPGGA,000294,03018.2416,N,09743.8796,W,1,8,1.1,1.5,M,24.5,M,,0000*52
$GPGSA,A,3,,,,,,,,,,,,,0.000,0.000,0.000,*1e
$GPGSV,1,1,1,1,1,1,1,,,,,,,,,,,,*48
$GPGSV,1,1,1,1,1,1,1,,,,,,,,,,,,*48
$GPGGA,000295,03018.2421,N,09743.8793,W,1,8,1.1,1.5,M,24.5,M,,0000*52
$GPGSA,A,3,,,,,,,,,,,,,0.000,0.000,0.000,*1e
$GPGSV,1,1,1,1,1,1,1,,,,,,,,,,,,*48
$GPGSV,1,1,1,1,1,1,1,,,,,,,,,,,,*48
$GPGGA,000296,03018.2425,N,09743.8790,W,1,8,1.1,1.5,M,24.5,M,,0000*56
$GPGSA,A,3,,,,,,,,,,,,,0.000,0.000,0.000,*1e
$GPGSV,1,1,1,1,1,1,1,,,,,,,,,,,,*48
$GPGSV,1,1,1,1,1,1,1,,,,,,,,,,,,*48
$GPGGA,000297,03018.2430,N,09743.8787,W,1,8,1.1,1.5,M,24.5,M,,0000*55
$GPGSA,A,3,,,,,,,,,,,,,0.000,0.000,0.000,*1e
$GPGSV,1,1,1,1,1,1,1,,,,,,,,,,,,*48
$GPGSV,1,1,1,1,1,1,1,,,,,,,,,,,,*48
$GPGGA,000298,03018.2435,N,09743.8784,W,1,8,1.1,1.5,M,24.5,M,,0000*5c
$GPGSA,A,3,,,,,,,,,,,,,0.000,0.000,0.000,*1e
$GPGSV,1,1,1,1,1,1,1,,,,,,,,,,,,*48
$GPGSV,1,1,1,1,1,1,1,,,,,,,,,,,,*48
$GPGGA,000299,03018.2440,N,09743.8781,W,1,8,1.1,1.5,M,24.5,M,,0000*5a
$GPGSA,A,3,,,,,,,,,,,,,0.000,0.000,0.000,*1e
$GPGSV,1,1,1,1,1,1,1,,,,,,,,,,,,*48
$GPGSV,1,1,1,1,1,1,1,,,,,,,,,,,,*48
$GPGGA,000300,03018.2444,N,09743.8778,W,1,8,1.1,1.5,M,24.5,M,,0000*59
$GPGSA,A,3,,,,,,,,,,,,,0.000,0.000,0.000,*1e
$GPGSV,1,1,1,1,1,1,1,,,,,,,,,,,,*48
$GPGSV,1,1,1,1,1,1,1,,,,,,,,,,,,*48
$GPGGA,000301,03018.2449,N,09743.8775,W,1,8,1.1,1.5,M,24.5,M,,0000*58
$GPGSA,A,3,,,,,,,,,,,,,0.000,0.000,0.000,*1e
$GPGSV,1,1,1,1,1,1,1,,,,,,,,,,,,*48
$GPGSV,1,1,1,1,1,1,1,,,,,,,,,,,,*48
$GPGGA,000302,03018.2453,N,09743.8772,W,1,8,1.1,1.5,M,24.5,M,,0000*57
$GPGSA,A,3,,,,,,,,,,,,,0.000,0.000,0.000,*1e
$GPGSV,1,1,1,1,1,1,1,,,,,,,,,,,,*48
$GPGSV,1,1,1,1,1,1,1,,,,,,,,,,,,*48
$GPGGA,000303,03018.2458,N,09743.8769,W,1,8,1.1,1.5,M,24.5,M,,0000*57
$GPGSA,A,3,,,,,,,,,,,,,0.000,0.000,0.000,*1e
$GPGSV,1,1,1,1,1,1,1,,,,,,,,,,,,*48
$GPGSV,1,1,1,1,1,1,1,,,,,,,,,,,,*48
$GPGGA,000304,03018.2463,N,09743.8766,W,1,8,1.1,1.5,M,24.5,M,,0000*57
$GPGSA,A,3,,,,,,,,,,,,,0.000,0.000,0.000,*1e
$GPGSV,1,1,1,1,1,1,1,,,,,,,,,,,,*48
$GPGSV,1,1,1,1,1,1,1,,,,,,,,,,,,*48
$GPGGA,000305,03018.2467,N,09743.8763,W,1,8,1.1,1.5,M,24.5,M,,0000*57
$GPGSA,A,3,,,,,,,,,,,,,0.000,0.000,0.000,*1e
$GPGSV,1,1,1,1,1,1,1,,,,,,,,,,,,*48
$GPGSV,1,1,1,1,1,1,1,,,,,,,,,,,,*48
$GPGGA,000306,03018.2472,N,09743.8760,W,1,8,1.1,1.5,M,24.5,M,,0000*53
$GPGSA,A,3,,,,,,,,,,,,,0.000,0.000,0.000,*1e
$GPGSV,1,1,1,1,1,1,1,,,,,,,,,,,,*48
$GPGSV,1,1,1,1,1,1,1,,,,,,,,,,,,*48
$GPGGA,000307,03018.2477,N,09743.8757,W,1,8,1.1,1.5,M,24.5,M,,0000*53
$GPGSA,A,3,,,,,,,,,,,,,0.000,0.000,0.000,*1e
$GPGSV,1,1,1,1,1,1,1,,,,,,,,,,,,*48
$GPGSV,1,1,1,1,1,1,1,,,,,,,,,,,,*48
$GPGGA,000308,03018.2482,N,09743.8754,W,1,8,1.1,1.5,M,24.5,M,,0000*55
$GPGSA,A,3,,,,,,,,,,,,,0.000,0.000,0.000,*1e
$GPGSV,1,1,1,1,1,1,1,,,,,,,,,,,,*48
$GPGSV,1,1,1,1,1,1,1,,,,,,,,,,,,*48
$GPGGA,000309,03018.2486,N,09743.8751,W,1,8,1.1,1.5,M,24.5,M,,0000*55
$GPGSA,A,3,,,,,,,,,,,,,0.000,0.000,0.000,*1e
$GPGSV,1,1,1,1,1,1,1,,,,,,,,,,,,*48
$GPGSV,1,1,1,1,1,1,1,,,,,,,,,,,,*48
$GPGGA,000310,03018.2491,N,09743.8748,W,1,8,1.1,1.5,M,24.5,M,,0000*53
$GPGSA,A,3,,,,,,,,,,,,,0.000,0.000,0.000,*1e
$GPGSV,1,1,1,1,1,1,1,,,,,,,,,,,,*48
$GPGSV,1,1,1,1,1,1,1,,,,,,,,,,,,*48
$GPGGA,000311,03018.2495,N,09743.8745,W,1,8,1.1,1.5,M,24.5,M,,0000*5b
$GPGSA,A,3,,,,,,,,,,,,,0.000,0.000,0.000,*1e
$GPGSV,1,1,1,1,1,1,1,,,,,,,,,,,,*48
$GPGSV,1,1,1,1,1,1,1,,,,,,,,,,,,*48
$GPGGA,000312,03018.2500,N,09743.8743,W,1,8,1.1,1.5,M,24.5,M,,0000*53
$GPGSA,A,3,,,,,,,,,,,,,0.000,0.000,0.000,*1e
$GPGSV,1,1,1,1,1,1,1,,,,,,,,,,,,*48
$GPGSV,1,1,1,1,1,1,1,,,,,,,,,,,,*48
$GPGGA,000313,03018.2504,N,09743.8740,W,1,8,1.1,1.5,M,24.5,M,,0000*55
$GPGSA,A,3,,,,,,,,,,,,,0.000,0.000,0.000,*1e
$GPGSV,1,1,1,1,1,1,1,,,,,,,,,,,,*48
$GPGSV,1,1,1,1,1,1,1,,,,,,,,,,,,*48
$GPGGA,000314,03018.2509,N,09743.8737,W,1,8,1.1,1.5,M,24.5,M,,0000*5f
$GPGSA,A,3,,,,,,,,,,,,,0.000,0.000,0.000,*1e
$GPGSV,1,1,1,1,1,1,1,,,,,,,,,,,,*48
$GPGSV,1,1,1,1,1,1,1,,,,,,,,,,,,*48
$GPGGA,000315,03018.2513,N,09743.8734,W,1,8,1.1,1.5,M,24.5,M,,0000*56
$GPGSA,A,3,,,,,,,,,,,,,0.000,0.000,0.000,*1e
$GPGSV,1,1,1,1,1,1,1,,,,,,,,,,,,*48
$GPGSV,1,1,1,1,1,1,1,,,,,,,,,,,,*48
$GPGGA,000316,03018.2518,N,09743.8731,W,1,8,1.1,1.5,M,24.5,M,,0000*5b
$GPGSA,A,3,,,,,,,,,,,,,0.000,0.000,0.000,*1e
$GPGSV,1,1,1,1,1,1,1,,,,,,,,,,,,*48
$GPGSV,1,1,1,1,1,1,1,,,,,,,,,,,,*48
$GPGGA,000317,03018.2522,N,09743.8728,W,1,8,1.1,1.5,M,24.5,M,,0000*5b
$GPGSA,A,3,,,,,,,,,,,,,0.000,0.000,0.000,*1e
$GPGSV,1,1,1,1,1,1,1,,,,,,,,,,,,*48
$GPGSV,1,1,1,1,1,1,1,,,,,,,,,,,,*48
$GPGGA,000318,03018.2527,N,09743.8725,W,1,8,1.1,1.5,M,24.5,M,,0000*5c
$GPGSA,A,3,,,,,,,,,,,,,0.000,0.000,0.000,*1e
$GPGSV,1,1,1,1,1,1,1,,,,,,,,,,,,*48
$GPGSV,1,1,1,1,1,1,1,,,,,,,,,,,,*48
$GPGGA,000319,03018.2531,N,09743.8723,W,1,8,1.1,1.5,M,24.5,M,,0000*5c
$GPGSA,A,3,,,,,,,,,,,,,0.000,0.000,0.000,*1e
$GPGSV,1,1,1,1,1,1,1,,,,,,,,,,,,*48
$GPGSV,1,1,1,1,1,1,1,,,,,,,,,,,,*48
$GPGGA,000320,03018.2536,N,09743.8720,W,1,8,1.1,1.5,M,24.5,M,,0000*52
$GPGSA,A,3,,,,,,,,,,,,,0.000,0.000,0.000,*1e
$GPGSV,1,1,1,1,1,1,1,,,,,,,,,,,,*48
