$GPGGA,000000,03018.0844,N,09743.9092,W,1,8,1.1,1.565551367988641,M,24.5,M,,0000*5c
$GPGSA,A,3,,,,,,,,,,,,,1.500,2.121,2.121,*1a
$GPGSV,1,1,1,1,1,1,1,,,,,,,,,,,,*48
$GPGSV,1,1,1,1,1,1,1,,,,,,,,,,,,*48
$GPGGA,000001,03018.0841,N,09743.9091,W,1,8,1.1,2.584642245699743,M,24.5,M,,0000*5b
$GPGSA,A,3,,,,,,,,,,,,,1.500,2.121,2.121,*1a
$GPGSV,1,1,1,1,1,1,1,,,,,,,,,,,,*48
$GPGSV,1,1,1,1,1,1,1,,,,,,,,,,,,*48
$GPGGA,000002,03018.0845,N,09743.9081,W,1,8,1.1,-1.1658241974883108,M,24.5,M,,0000*42
$GPGSA,A,3,,,,,,,,,,,,,1.500,2.121,2.121,*1a
$GPGSV,1,1,1,1,1,1,1,,,,,,,,,,,,*48
$GPGSV,1,1,1,1,1,1,1,,,,,,,,,,,,*48
$GPGGA,000003,03018.0845,N,09743.9096,W,1,8,1.1,2.561936921134449,M,24.5,M,,0000*5d
$GPGSA,A,3,,,,,,,,,,,,,1.500,2.121,2.121,*1a
$GPGSV,1,1,1,1,1,1,1,,,,,,,,,,,,*48
$GPGSV,1,1,1,1,1,1,1,,,,,,,,,,,,*48
$GPGGA,000004,03018.0847,N,09743.9098,W,1,8,1.1,-1.4104560158624473,M,24.5,M,,0000*4d
$GPGSA,A,3,,,,,,,,,,,,,1.500,2.121,2.121,*1a
$GPGSV,1,1,1,1,1,1,1,,,,,,,,,,,,*48
$GPGSV,1,1,1,1,1,1,1,,,,,,,,,,,,*48
$GPGGA,000005,03018.0845,N,09743.9096,W,1,8,1.1,1.4325884828358224,M,24.5,M,,0000*6f
$GPGSA,A,3,,,,,,,,,,,,,1.500,2.121,2.121,*1a
$GPGSV,1,1,1,1,1,1,1,,,,,,,,,,,,*48
$GPGSV,1,1,1,1,1,1,1,,,,,,,,,,,,*48
$GPGGA,000006,03018.0846,N,09743.9111,W,1,8,1.1,2.9756998275344664,M,24.5,M,,0000*6c
$GPGSA,A,3,,,,,,,,,,,,,1.500,2.121,2.121,*1a
$GPGSV,1,1,1,1,1,1,1,,,,,,,,,,,,*48
$GPGSV,1,1,1,1,1,1,1,,,,,,,,,,,,*48
$GPGGA,000007,03018.0836,N,09743.9103,W,1,8,1.1,4.00716118078663,M,24.5,M,,0000*69
$GPGSA,A,3,,,,,,,,,,,,,1.500,2.121,2.121,*1a
$GPGSV,1,1,1,1,1,1,1,,,,,,,,,,,,*48
$GPGSV,1,1,1,1,1,1,1,,,,,,,,,,,,*48
$GPGGA,000008,03018.0843,N,09743.9096,W,1,8,1.1,1.1835182055821538,M,24.5,M,,0000*69
$GPGSA,A,3,,,,,,,,,,,,,1.500,2.121,2.121,*1a
$GPGSV,1,1,1,1,1,1,1,,,,,,,,,,,,*48
$GPGSV,1,1,1,1,1,1,1,,,,,,,,,,,,*48
$GPGGA,000009,03018.0842,N,09743.9095,W,1,8,1.1,1.733767556137011,M,24.5,M,,0000*59
$GPGSA,A,3,,,,,,,,,,,,,1.500,2.121,2.121,*1a
$GPGSV,1,1,1,1,1,1,1,,,,,,,,,,,,*48
$GPGSV,1,1,1,1,1,1,1,,,,,,,,,,,,*48
$GPGGA,000010,03018.0844,N,09743.9095,W,1,8,1.1,3.3913186317962913,M,24.5,M,,0000*63
$GPGSA,A,3,,,,,,,,,,,,,1.500,2.121,2.121,*1a
$GPGSV,1,1,1,1,1,1,1,,,,,,,,,,,,*48
$GPGSV,1,1,1,1,1,1,1,,,,,,,,,,,,*48
$GPGGA,000011,03018.0843,N,09743.9097,W,1,8,1.1,0.14914964986122303,M,24.5,M,,0000*54
$GPGSA,A,3,,,,,,,,,,,,,1.500,2.121,2.121,*1a
$GPGSV,1,1,1,1,1,1,1,,,,,,,,,,,,*48
$GPGSV,1,1,1,1,1,1,1,,,,,,,,,,,,*48
$GPGGA,000012,03018.0851,N,09743.9095,W,1,8,1.1,2.5000186974862872,M,24.5,M,,0000*61
$GPGSA,A,3,,,,,,,,,,,,,1.500,2.121,2.121,*1a
$GPGSV,1,1,1,1,1,1,1,,,,,,,,,,,,*48
$GPGSV,1,1,1,1,1,1,1,,,,,,,,,,,,*48
$GPGGA,000013,03018.0846,N,09743.9109,W,1,8,1.1,3.4850702114315637,M,24.5,M,,0000*6f
$GPGSA,A,3,,,,,,,,,,,,,1.500,2.121,2.121,*1a
$GPGSV,1,1,1,1,1,1,1,,,,,,,,,,,,*48
$GPGSV,1,1,1,1,1,1,1,,,,,,,,,,,,*48
$GPGGA,000014,03018.0844,N,09743.9098,W,1,8,1.1,2.5984765756011594,M,24.5,M,,0000*67
$GPGSA,A,3,,,,,,,,,,,,,1.500,2.121,2.121,*1a
$GPGSV,1,1,1,1,1,1,1,,,,,,,,,,,,*48
$GPGSV,1,1,1,1,1,1,1,,,,,,,,,,,,*48
$GPGGA,000015,03018.0851,N,09743.9091,W,1,8,1.1,0.7439396233232853,M,24.5,M,,0000*6b
$GPGSA,A,3,,,,,,,,,,,,,1.500,2.121,2.121,*1a
$GPGSV,1,1,1,1,1,1,1,,,,,,,,,,,,*48
$GPGSV,1,1,1,1,1,1,1,,,,,,,,,,,,*48
$GPGGA,000016,03018.0846,N,09743.9096,W,1,8,1.1,1.5938213013129852,M,24.5,M,,0000*62
$GPGSA,A,3,,,,,,,,,,,,,1.500,2.121,2.121,*1a
$GPGSV,1,1,1,1,1,1,1,,,,,,,,,,,,*48
$GPGSV,1,1,1,1,1,1,1,,,,,,,,,,,,*48
$GPGGA,000017,03018.0850,N,09743.9096,W,1,8,1.1,2.5565609896575254,M,24.5,M,,0000*68
$GPGSA,A,3,,,,,,,,,,,,,1.500,2.121,2.121,*1a
$GPGSV,1,1,1,1,1,1,1,,,,,,,,,,,,*48
$GPGSV,1,1,1,1,1,1,1,,,,,,,,,,,,*48
$GPGGA,000018,03018.0844,N,09743.9101,W,1,8,1.1,0.45524218908590286,M,24.5,M,,0000*58
$GPGSA,A,3,,,,,,,,,,,,,1.500,2.121,2.121,*1a
$GPGSV,1,1,1,1,1,1,1,,,,,,,,,,,,*48
$GPGSV,1,1,1,1,1,1,1,,,,,,,,,,,,*48
$GPGGA,000019,03018.0844,N,09743.9091,W,1,8,1.1,0.5448151426869963,M,24.5,M,,0000*6a
$GPGSA,A,3,,,,,,,,,,,,,1.500,2.121,2.121,*1a
$GPGSV,1,1,1,1,1,1,1,,,,,,,,,,,,*48
$GPGSV,1,1,1,1,1,1,1,,,,,,,,,,,,*48
$GPGGA,000020,03018.0837,N,09743.9090,W,1,8,1.1,-0.6495282962469675,M,24.5,M,,0000*4f
$GPGSA,A,3,,,,,,,,,,,,,1.500,2.121,2.121,*1a
$GPGSV,1,1,1,1,1,1,1,,,,,,,,,,,,*48
$GPGSV,1,1,1,1,1,1,1,,,,,,,,,,,,*48
$GPGGA,000021,03018.0844,N,09743.9095,W,1,8,1.1,1.1818477072634432,M,24.5,M,,0000*62
$GPGSA,A,3,,,,,,,,,,,,,1.500,2.121,2.121,*1a
$GPGSV,1,1,1,1,1,1,1,,,,,,,,,,,,*48
$GPGSV,1,1,1,1,1,1,1,,,,,,,,,,,,*48
$GPGGA,000022,03018.0846,N,09743.9096,W,1,8,1.1,0.9804264836410194,M,24.5,M,,0000*65
$GPGSA,A,3,,,,,,,,,,,,,1.500,2.121,2.121,*1a
$GPGSV,1,1,1,1,1,1,1,,,,,,,,,,,,*48
$GPGSV,1,1,1,1,1,1,1,,,,,,,,,,,,*48
$GPGGA,000023,03018.0843,N,09743.9101,W,1,8,1.1,0.5990348049425824,M,24.5,M,,0000*65
$GPGSA,A,3,,,,,,,,,,,,,1.500,2.121,2.121,*1a
$GPGSV,1,1,1,1,1,1,1,,,,,,,,,,,,*48
$GPGSV,1,1,1,1,1,1,1,,,,,,,,,,,,*48
$GPGGA,000024,03018.0842,N,09743.9083,W,1,8,1.1,-0.6004617613916734,M,24.5,M,,0000*47
$GPGSA,A,3,,,,,,,,,,,,,1.500,2.121,2.121,*1a
$GPGSV,1,1,1,1,1,1,1,,,,,,,,,,,,*48
$GPGSV,1,1,1,1,1,1,1,,,,,,,,,,,,*48
$GPGGA,000025,03018.0830,N,09743.9087,W,1,8,1.1,2.006259764869087,M,24.5,M,,0000*55
$GPGSA,A,3,,,,,,,,,,,,,1.500,2.121,2.121,*1a
$GPGSV,1,1,1,1,1,1,1,,,,,,,,,,,,*48
$GPGSV,1,1,1,1,1,1,1,,,,,,,,,,,,*48
$GPGGA,000026,03018.0842,N,09743.9086,W,1,8,1.1,0.9543134435625265,M,24.5,M,,0000*6a
$GPGSA,A,3,,,,,,,,,,,,,1.500,2.121,2.121,*1a
$GPGSV,1,1,1,1,1,1,1,,,,,,,,,,,,*48
$GPGSV,1,1,1,1,1,1,1,,,,,,,,,,,,*48
$GPGGA,000027,03018.0842,N,09743.9099,W,1,8,1.1,-0.6985469363460544,M,24.5,M,,0000*4f
$GPGSA,A,3,,,,,,,,,,,,,1.500,2.121,2.121,*1a
$GPGSV,1,1,1,1,1,1,1,,,,,,,,,,,,*48
$GPGSV,1,1,1,1,1,1,1,,,,,,,,,,,,*48
$GPGGA,000028,03018.0845,N,09743.9095,W,1,8,1.1,3.4021356885837135,M,24.5,M,,0000*64
$GPGSA,A,3,,,,,,,,,,,,,1.500,2.121,2.121,*1a
$GPGSV,1,1,1,1,1,1,1,,,,,,,,,,,,*48
$GPGSV,1,1,1,1,1,1,1,,,,,,,,,,,,*48
$GPGGA,000029,03018.0841,N,09743.9103,W,1,8,1.1,3.8654405575583,M,24.5,M,,0000*51
$GPGSA,A,3,,,,,,,,,,,,,1.500,2.121,2.121,*1a
$GPGSV,1,1,1,1,1,1,1,,,,,,,,,,,,*48
$GPGSV,1,1,1,1,1,1,1,,,,,,,,,,,,*48
$GPGGA,000030,03018.0845,N,09743.9096,W,1,8,1.1,0.013455396825509558,M,24.5,M,,0000*65
$GPGSA,A,3,,,,,,,,,,,,,1.500,2.121,2.121,*1a
$GPGSV,1,1,1,1,1,1,1,,,,,,,,,,,,*48
$GPGSV,1,1,1,1,1,1,1,,,,,,,,,,,,*48
$GPGGA,000031,03018.0840,N,09743.9096,W,1,8,1.1,2.7481897741298815,M,24.5,M,,0000*63
$GPGSA,A,3,,,,,,,,,,,,,1.500,2.121,2.121,*1a
$GPGSV,1,1,1,1,1,1,1,,,,,,,,,,,,*48
$GPGSV,1,1,1,1,1,1,1,,,,,,,,,,,,*48
$GPGGA,000032,03018.0846,N,09743.9095,W,1,8,1.1,1.7656280069110786,M,24.5,M,,0000*69
$GPGSA,A,3,,,,,,,,,,,,,1.500,2.121,2.121,*1a
$GPGSV,1,1,1,1,1,1,1,,,,,,,,,,,,*48
$GPGSV,1,1,1,1,1,1,1,,,,,,,,,,,,*48
$GPGGA,000033,03018.0845,N,09743.9093,W,1,8,1.1,0.9284928643848332,M,24.5,M,,0000*61
$GPGSA,A,3,,,,,,,,,,,,,1.500,2.121,2.121,*1a
$GPGSV,1,1,1,1,1,1,1,,,,,,,,,,,,*48
$GPGSV,1,1,1,1,1,1,1,,,,,,,,,,,,*48
$GPGGA,000034,03018.0849,N,09743.9090,W,1,8,1.1,-1.1578027421721546,M,24.5,M,,0000*4c
$GPGSA,A,3,,,,,,,,,,,,,1.500,2.121,2.121,*1a
$GPGSV,1,1,1,1,1,1,1,,,,,,,,,,,,*48
$GPGSV,1,1,1,1,1,1,1,,,,,,,,,,,,*48
$GPGGA,000035,03018.0854,N,09743.9091,W,1,8,1.1,4.109519313542172,M,24.5,M,,0000*51
$GPGSA,A,3,,,,,,,,,,,,,1.500,2.121,2.121,*1a
$GPGSV,1,1,1,1,1,1,1,,,,,,,,,,,,*48
$GPGSV,1,1,1,1,1,1,1,,,,,,,,,,,,*48
$GPGGA,000036,03018.0844,N,09743.9095,W,1,8,1.1,1.8880616588080223,M,24.5,M,,0000*66
$GPGSA,A,3,,,,,,,,,,,,,1.500,2.121,2.121,*1a
$GPGSV,1,1,1,1,1,1,1,,,,,,,,,,,,*48
$GPGSV,1,1,1,1,1,1,1,,,,,,,,,,,,*48
$GPGGA,000037,03018.0840,N,09743.9092,W,1,8,1.1,2.6307144130423827,M,24.5,M,,0000*69
$GPGSA,A,3,,,,,,,,,,,,,1.500,2.121,2.121,*1a
$GPGSV,1,1,1,1,1,1,1,,,,,,,,,,,,*48
$GPGSV,1,1,1,1,1,1,1,,,,,,,,,,,,*48
$GPGGA,000038,03018.0827,N,09743.9098,W,1,8,1.1,2.03247343990488,M,24.5,M,,0000*66
$GPGSA,A,3,,,,,,,,,,,,,1.500,2.121,2.121,*1a
$GPGSV,1,1,1,1,1,1,1,,,,,,,,,,,,*48
$GPGSV,1,1,1,1,1,1,1,,,,,,,,,,,,*48
$GPGGA,000039,03018.0844,N,09743.9097,W,1,8,1.1,3.3223385045337155,M,24.5,M,,0000*67
$GPGSA,A,3,,,,,,,,,,,,,1.500,2.121,2.121,*1a
$GPGSV,1,1,1,1,1,1,1,,,,,,,,,,,,*48
$GPGSV,1,1,1,1,1,1,1,,,,,,,,,,,,*48
$GPGGA,000040,03018.0837,N,09743.9091,W,1,8,1.1,2.190356000388412,M,24.5,M,,0000*5f
$GPGSA,A,3,,,,,,,,,,,,,1.500,2.121,2.121,*1a
$GPGSV,1,1,1,1,1,1,1,,,,,,,,,,,,*48
$GPGSV,1,1,1,1,1,1,1,,,,,,,,,,,,*48
$GPGGA,000041,03018.0854,N,09743.9093,W,1,8,1.1,0.7624116062512702,M,24.5,M,,0000*61
$GPGSA,A,3,,,,,,,,,,,,,1.500,2.121,2.121,*1a
$GPGSV,1,1,1,1,1,1,1,,,,,,,,,,,,*48
$GPGSV,1,1,1,1,1,1,1,,,,,,,,,,,,*48
$GPGGA,000042,03018.0843,N,09743.9096,W,1,8,1.1,2.6362208180445132,M,24.5,M,,0000*62
$GPGSA,A,3,,,,,,,,,,,,,1.500,2.121,2.121,*1a
$GPGSV,1,1,1,1,1,1,1,,,,,,,,,,,,*48
$GPGSV,1,1,1,1,1,1,1,,,,,,,,,,,,*48
$GPGGA,000043,03018.0842,N,09743.9094,W,1,8,1.1,-0.9113033791383112,M,24.5,M,,0000*47
$GPGSA,A,3,,,,,,,,,,,,,1.500,2.121,2.121,*1a
$GPGSV,1,1,1,1,1,1,1,,,,,,,,,,,,*48
$GPGSV,1,1,1,1,1,1,1,,,,,,,,,,,,*48
$GPGGA,000044,03018.0831,N,09743.9104,W,1,8,1.1,0.940567483490632,M,24.5,M,,0000*52
$GPGSA,A,3,,,,,,,,,,,,,1.500,2.121,2.121,*1a
$GPGSV,1,1,1,1,1,1,1,,,,,,,,,,,,*48
$GPGSV,1,1,1,1,1,1,1,,,,,,,,,,,,*48
$GPGGA,000045,03018.0842,N,09743.9088,W,1,8,1.1,-1.2586045883446526,M,24.5,M,,0000*4e
$GPGSA,A,3,,,,,,,,,,,,,1.500,2.121,2.121,*1a
$GPGSV,1,1,1,1,1,1,1,,,,,,,,,,,,*48
$GPGSV,1,1,1,1,1,1,1,,,,,,,,,,,,*48
$GPGGA,000046,03018.0853,N,09743.9092,W,1,8,1.1,-2.775985309427657,M,24.5,M,,0000*77
$GPGSA,A,3,,,,,,,,,,,,,1.500,2.121,2.121,*1a
$GPGSV,1,1,1,1,1,1,1,,,,,,,,,,,,*48
$GPGSV,1,1,1,1,1,1,1,,,,,,,,,,,,*48
$GPGGA,000047,03018.0833,N,09743.9098,W,1,8,1.1,1.7025677056788422,M,24.5,M,,0000*6c
$GPGSA,A,3,,,,,,,,,,,,,1.500,2.121,2.121,*1a
$GPGSV,1,1,1,1,1,1,1,,,,,,,,,,,,*48
$GPGSV,1,1,1,1,1,1,1,,,,,,,,,,,,*48
$GPGGA,000048,03018.0848,N,09743.9093,W,1,8,1.1,-0.6477221982992756,M,24.5,M,,0000*48
$GPGSA,A,3,,,,,,,,,,,,,1.500,2.121,2.121,*1a
$GPGSV,1,1,1,1,1,1,1,,,,,,,,,,,,*48
$GPGSV,1,1,1,1,1,1,1,,,,,,,,,,,,*48
$GPGGA,000049,03018.0844,N,09743.9095,W,1,8,1.1,3.5896583167476224,M,24.5,M,,0000*66
$GPGSA,A,3,,,,,,,,,,,,,1.500,2.121,2.121,*1a
$GPGSV,1,1,1,1,1,1,1,,,,,,,,,,,,*48
$GPGSV,1,1,1,1,1,1,1,,,,,,,,,,,,*48
$GPGGA,000050,03018.0844,N,09743.9095,W,1,8,1.1,2.006392489366373,M,24.5,M,,0000*5d
$GPGSA,A,3,,,,,,,,,,,,,1.500,2.121,2.121,*1a
$GPGSV,1,1,1,1,1,1,1,,,,,,,,,,,,*48
$GPGSV,1,1,1,1,1,1,1,,,,,,,,,,,,*48
$GPGGA,000051,03018.0845,N,09743.9101,W,1,8,1.1,1.4420742988488902,M,24.5,M,,0000*68
$GPGSA,A,3,,,,,,,,,,,,,1.500,2.121,2.121,*1a
$GPGSV,1,1,1,1,1,1,1,,,,,,,,,,,,*48
$GPGSV,1,1,1,1,1,1,1,,,,,,,,,,,,*48
$GPGGA,000052,03018.0840,N,09743.9093,W,1,8,1.1,4.032917766606081,M,24.5,M,,0000*54
$GPGSA,A,3,,,,,,,,,,,,,1.500,2.121,2.121,*1a
$GPGSV,1,1,1,1,1,1,1,,,,,,,,,,,,*48
$GPGSV,1,1,1,1,1,1,1,,,,,,,,,,,,*48
$GPGGA,000053,03018.0845,N,09743.9094,W,1,8,1.1,1.4533772803335987,M,24.5,M,,0000*69
$GPGSA,A,3,,,,,,,,,,,,,1.500,2.121,2.121,*1a
$GPGSV,1,1,1,1,1,1,1,,,,,,,,,,,,*48
$GPGSV,1,1,1,1,1,1,1,,,,,,,,,,,,*48
$GPGGA,000054,03018.0847,N,09743.9093,W,1,8,1.1,1.3894927500848115,M,24.5,M,,0000*6e
$GPGSA,A,3,,,,,,,,,,,,,1.500,2.121,2.121,*1a
$GPGSV,1,1,1,1,1,1,1,,,,,,,,,,,,*48
$GPGSV,1,1,1,1,1,1,1,,,,,,,,,,,,*48
$GPGGA,000055,03018.0846,N,09743.9101,W,1,8,1.1,2.1205088593948833,M,24.5,M,,0000*6d
$GPGSA,A,3,,,,,,,,,,,,,1.500,2.121,2.121,*1a
$GPGSV,1,1,1,1,1,1,1,,,,,,,,,,,,*48
$GPGSV,1,1,1,1,1,1,1,,,,,,,,,,,,*48
$GPGGA,000056,03018.0830,N,09743.9095,W,1,8,1.1,2.230864854627085,M,24.5,M,,0000*5b
$GPGSA,A,3,,,,,,,,,,,,,1.500,2.121,2.121,*1a
$GPGSV,1,1,1,1,1,1,1,,,,,,,,,,,,*48
$GPGSV,1,1,1,1,1,1,1,,,,,,,,,,,,*48
$GPGGA,000057,03018.0848,N,09743.9108,W,1,8,1.1,2.8273033112193997,M,24.5,M,,0000*6c
$GPGSA,A,3,,,,,,,,,,,,,1.500,2.121,2.121,*1a
$GPGSV,1,1,1,1,1,1,1,,,,,,,,,,,,*48
$GPGSV,1,1,1,1,1,1,1,,,,,,,,,,,,*48
$GPGGA,000058,03018.0845,N,09743.9076,W,1,8,1.1,0.15797267743372845,M,24.5,M,,0000*55
$GPGSA,A,3,,,,,,,,,,,,,1.500,2.121,2.121,*1a
$GPGSV,1,1,1,1,1,1,1,,,,,,,,,,,,*48
$GPGSV,1,1,1,1,1,1,1,,,,,,,,,,,,*48
$GPGGA,000059,03018.0841,N,09743.9091,W,1,8,1.1,-0.6919117696553965,M,24.5,M,,0000*45
$GPGSA,A,3,,,,,,,,,,,,,1.500,2.121,2.121,*1a
$GPGSV,1,1,1,1,1,1,1,,,,,,,,,,,,*48
$GPGSV,1,1,1,1,1,1,1,,,,,,,,,,,,*48
$GPGGA,000060,03018.0856,N,09743.9096,W,1,8,1.1,2.230704407555947,M,24.5,M,,0000*5f
$GPGSA,A,3,,,,,,,,,,,,,1.500,2.121,2.121,*1a
$GPGSV,1,1,1,1,1,1,1,,,,,,,,,,,,*48
$GPGSV,1,1,1,1,1,1,1,,,,,,,,,,,,*48
$GPGGA,000061,03018.0852,N,09743.9101,W,1,8,1.1,1.8925675513656917,M,24.5,M,,0000*67
$GPGSA,A,3,,,,,,,,,,,,,1.500,2.121,2.121,*1a
$GPGSV,1,1,1,1,1,1,1,,,,,,,,,,,,*48
$GPGSV,1,1,1,1,1,1,1,,,,,,,,,,,,*48
$GPGGA,000062,03018.0844,N,09743.9100,W,1,8,1.1,1.7914995378412608,M,24.5,M,,0000*66
$GPGSA,A,3,,,,,,,,,,,,,1.500,2.121,2.121,*1a
$GPGSV,1,1,1,1,1,1,1,,,,,,,,,,,,*48
$GPGSV,1,1,1,1,1,1,1,,,,,,,,,,,,*48
$GPGGA,000063,03018.0845,N,09743.9101,W,1,8,1.1,1.194746218183439,M,24.5,M,,0000*5a
$GPGSA,A,3,,,,,,,,,,,,,1.500,2.121,2.121,*1a
$GPGSV,1,1,1,1,1,1,1,,,,,,,,,,,,*48
$GPGSV,1,1,1,1,1,1,1,,,,,,,,,,,,*48
$GPGGA,000064,03018.0852,N,09743.9096,W,1,8,1.1,0.7651253762804863,M,24.5,M,,0000*60
$GPGSA,A,3,,,,,,,,,,,,,1.500,2.121,2.121,*1a
$GPGSV,1,1,1,1,1,1,1,,,,,,,,,,,,*48
$GPGSV,1,1,1,1,1,1,1,,,,,,,,,,,,*48
$GPGGA,000065,03018.0851,N,09743.9090,W,1,8,1.1,-0.3250469080022307,M,24.5,M,,0000*49
$GPGSA,A,3,,,,,,,,,,,,,1.500,2.121,2.121,*1a
$GPGSV,1,1,1,1,1,1,1,,,,,,,,,,,,*48
$GPGSV,1,1,1,1,1,1,1,,,,,,,,,,,,*48
$GPGGA,000066,03018.0843,N,09743.9090,W,1,8,1.1,3.179061999333042,M,24.5,M,,0000*50
$GPGSA,A,3,,,,,,,,,,,,,1.500,2.121,2.121,*1a
$GPGSV,1,1,1,1,1,1,1,,,,,,,,,,,,*48
$GPGSV,1,1,1,1,1,1,1,,,,,,,,,,,,*48
$GPGGA,000067,03018.0851,N,09743.9090,W,1,8,1.1,4.545200757148429,M,24.5,M,,0000*50
$GPGSA,A,3,,,,,,,,,,,,,1.500,2.121,2.121,*1a
$GPGSV,1,1,1,1,1,1,1,,,,,,,,,,,,*48
$GPGSV,1,1,1,1,1,1,1,,,,,,,,,,,,*48
$GPGGA,000068,03018.0843,N,09743.9091,W,1,8,1.1,2.901563668637766,M,24.5,M,,0000*5f
$GPGSA,A,3,,,,,,,,,,,,,1.500,2.121,2.121,*1a
$GPGSV,1,1,1,1,1,1,1,,,,,,,,,,,,*48
$GPGSV,1,1,1,1,1,1,1,,,,,,,,,,,,*48
$GPGGA,000069,03018.0844,N,09743.9092,W,1,8,1.1,-1.0036737779688116,M,24.5,M,,0000*4e
$GPGSA,A,3,,,,,,,,,,,,,1.500,2.121,2.121,*1a
$GPGSV,1,1,1,1,1,1,1,,,,,,,,,,,,*48
$GPGSV,1,1,1,1,1,1,1,,,,,,,,,,,,*48
$GPGGA,000070,03018.0845,N,09743.9095,W,1,8,1.1,2.11777818519067,M,24.5,M,,0000*6b
$GPGSA,A,3,,,,,,,,,,,,,1.500,2.121,2.121,*1a
$GPGSV,1,1,1,1,1,1,1,,,,,,,,,,,,*48
$GPGSV,1,1,1,1,1,1,1,,,,,,,,,,,,*48
$GPGGA,000071,03018.0855,N,09743.9101,W,1,8,1.1,1.9595055563452788,M,24.5,M,,0000*6a
$GPGSA,A,3,,,,,,,,,,,,,1.500,2.121,2.121,*1a
$GPGSV,1,1,1,1,1,1,1,,,,,,,,,,,,*48
$GPGSV,1,1,1,1,1,1,1,,,,,,,,,,,,*48
$GPGGA,000072,03018.0845,N,09743.9095,W,1,8,1.1,1.2560896378420547,M,24.5,M,,0000*6a
$GPGSA,A,3,,,,,,,,,,,,,1.500,2.121,2.121,*1a
$GPGSV,1,1,1,1,1,1,1,,,,,,,,,,,,*48
$GPGSV,1,1,1,1,1,1,1,,,,,,,,,,,,*48
$GPGGA,000073,03018.0853,N,09743.9087,W,1,8,1.1,4.148942498722107,M,24.5,M,,0000*56
$GPGSA,A,3,,,,,,,,,,,,,1.500,2.121,2.121,*1a
$GPGSV,1,1,1,1,1,1,1,,,,,,,,,,,,*48
$GPGSV,1,1,1,1,1,1,1,,,,,,,,,,,,*48
$GPGGA,000074,03018.0836,N,09743.9090,W,1,8,1.1,2.548062358428409,M,24.5,M,,0000*54
$GPGSA,A,3,,,,,,,,,,,,,1.500,2.121,2.121,*1a
$GPGSV,1,1,1,1,1,1,1,,,,,,,,,,,,*48
$GPGSV,1,1,1,1,1,1,1,,,,,,,,,,,,*48
$GPGGA,000075,03018.0854,N,09743.9107,W,1,8,1.1,1.0245938717512746,M,24.5,M,,0000*6e
$GPGSA,A,3,,,,,,,,,,,,,1.500,2.121,2.121,*1a
$GPGSV,1,1,1,1,1,1,1,,,,,,,,,,,,*48
$GPGSV,1,1,1,1,1,1,1,,,,,,,,,,,,*48
$GPGGA,000076,03018.0854,N,09743.9095,W,1,8,1.1,1.1768986317723644,M,24.5,M,,0000*6e
$GPGSA,A,3,,,,,,,,,,,,,1.500,2.121,2.121,*1a
$GPGSV,1,1,1,1,1,1,1,,,,,,,,,,,,*48
$GPGSV,1,1,1,1,1,1,1,,,,,,,,,,,,*48
$GPGGA,000077,03018.0847,N,09743.9105,W,1,8,1.1,2.957204204443208,M,24.5,M,,0000*5e
$GPGSA,A,3,,,,,,,,,,,,,1.500,2.121,2.121,*1a
$GPGSV,1,1,1,1,1,1,1,,,,,,,,,,,,*48
$GPGSV,1,1,1,1,1,1,1,,,,,,,,,,,,*48
$GPGGA,000078,03018.0841,N,09743.9101,W,1,8,1.1,3.289997703210565,M,24.5,M,,0000*55
$GPGSA,A,3,,,,,,,,,,,,,1.500,2.121,2.121,*1a
$GPGSV,1,1,1,1,1,1,1,,,,,,,,,,,,*48
$GPGSV,1,1,1,1,1,1,1,,,,,,,,,,,,*48
$GPGGA,000079,03018.0853,N,09743.9104,W,1,8,1.1,1.2820014789825096,M,24.5,M,,0000*6e
$GPGSA,A,3,,,,,,,,,,,,,1.500,2.121,2.121,*1a
$GPGSV,1,1,1,1,1,1,1,,,,,,,,,,,,*48
$GPGSV,1,1,1,1,1,1,1,,,,,,,,,,,,*48
$GPGGA,000080,03018.0827,N,09743.9085,W,1,8,1.1,-0.3666016197987374,M,24.5,M,,0000*4f
$GPGSA,A,3,,,,,,,,,,,,,1.500,2.121,2.121,*1a
$GPGSV,1,1,1,1,1,1,1,,,,,,,,,,,,*48
$GPGSV,1,1,1,1,1,1,1,,,,,,,,,,,,*48
$GPGGA,000081,03018.0843,N,09743.9087,W,1,8,1.1,2.6465953918896608,M,24.5,M,,0000*6d
$GPGSA,A,3,,,,,,,,,,,,,1.500,2.121,2.121,*1a
$GPGSV,1,1,1,1,1,1,1,,,,,,,,,,,,*48
$GPGSV,1,1,1,1,1,1,1,,,,,,,,,,,,*48
$GPGGA,000082,03018.0857,N,09743.9087,W,1,8,1.1,4.334735166179277,M,24.5,M,,0000*53
$GPGSA,A,3,,,,,,,,,,,,,1.500,2.121,2.121,*1a
$GPGSV,1,1,1,1,1,1,1,,,,,,,,,,,,*48
$GPGSV,1,1,1,1,1,1,1,,,,,,,,,,,,*48
$GPGGA,000083,03018.0844,N,09743.9096,W,1,8,1.1,1.9766124291826839,M,24.5,M,,0000*61
$GPGSA,A,3,,,,,,,,,,,,,1.500,2.121,2.121,*1a
$GPGSV,1,1,1,1,1,1,1,,,,,,,,,,,,*48
$GPGSV,1,1,1,1,1,1,1,,,,,,,,,,,,*48
$GPGGA,000084,03018.0845,N,09743.9094,W,1,8,1.1,1.3733823102317266,M,24.5,M,,0000*61
$GPGSA,A,3,,,,,,,,,,,,,1.500,2.121,2.121,*1a
$GPGSV,1,1,1,1,1,1,1,,,,,,,,,,,,*48
$GPGSV,1,1,1,1,1,1,1,,,,,,,,,,,,*48
$GPGGA,000085,03018.0840,N,09743.9117,W,1,8,1.1,0.4993131546219265,M,24.5,M,,0000*6f
$GPGSA,A,3,,,,,,,,,,,,,1.500,2.121,2.121,*1a
$GPGSV,1,1,1,1,1,1,1,,,,,,,,,,,,*48
$GPGSV,1,1,1,1,1,1,1,,,,,,,,,,,,*48
$GPGGA,000086,03018.0846,N,09743.9096,W,1,8,1.1,0.7884273694434796,M,24.5,M,,0000*6f
$GPGSA,A,3,,,,,,,,,,,,,1.500,2.121,2.121,*1a
$GPGSV,1,1,1,1,1,1,1,,,,,,,,,,,,*48
$GPGSV,1,1,1,1,1,1,1,,,,,,,,,,,,*48
$GPGGA,000087,03018.0840,N,09743.9100,W,1,8,1.1,3.5228549384942416,M,24.5,M,,0000*66
$GPGSA,A,3,,,,,,,,,,,,,1.500,2.121,2.121,*1a
$GPGSV,1,1,1,1,1,1,1,,,,,,,,,,,,*48
$GPGSV,1,1,1,1,1,1,1,,,,,,,,,,,,*48
$GPGGA,000088,03018.0829,N,09743.9101,W,1,8,1.1,1.4713371390449899,M,24.5,M,,0000*6c
$GPGSA,A,3,,,,,,,,,,,,,1.500,2.121,2.121,*1a
$GPGSV,1,1,1,1,1,1,1,,,,,,,,,,,,*48
$GPGSV,1,1,1,1,1,1,1,,,,,,,,,,,,*48
$GPGGA,000089,03018.0842,N,09743.9091,W,1,8,1.1,1.574748317736689,M,24.5,M,,0000*5a
$GPGSA,A,3,,,,,,,,,,,,,1.500,2.121,2.121,*1a
$GPGSV,1,1,1,1,1,1,1,,,,,,,,,,,,*48
$GPGSV,1,1,1,1,1,1,1,,,,,,,,,,,,*48
$GPGGA,000090,03018.0830,N,09743.9102,W,1,8,1.1,2.0565304449018678,M,24.5,M,,0000*6a
$GPGSA,A,3,,,,,,,,,,,,,1.500,2.121,2.121,*1a
$GPGSV,1,1,1,1,1,1,1,,,,,,,,,,,,*48
$GPGSV,1,1,1,1,1,1,1,,,,,,,,,,,,*48
$GPGGA,000091,03018.0838,N,09743.9098,W,1,8,1.1,3.490508785022371,M,24.5,M,,0000*57
$GPGSA,A,3,,,,,,,,,,,,,1.500,2.121,2.121,*1a
$GPGSV,1,1,1,1,1,1,1,,,,,,,,,,,,*48
$GPGSV,1,1,1,1,1,1,1,,,,,,,,,,,,*48
$GPGGA,000092,03018.0844,N,09743.9089,W,1,8,1.1,1.0237605130083152,M,24.5,M,,0000*68
$GPGSA,A,3,,,,,,,,,,,,,1.500,2.121,2.121,*1a
$GPGSV,1,1,1,1,1,1,1,,,,,,,,,,,,*48
$GPGSV,1,1,1,1,1,1,1,,,,,,,,,,,,*48
$GPGGA,000093,03018.0839,N,09743.9100,W,1,8,1.1,0.03403015167607393,M,24.5,M,,0000*50
$GPGSA,A,3,,,,,,,,,,,,,1.500,2.121,2.121,*1a
$GPGSV,1,1,1,1,1,1,1,,,,,,,,,,,,*48
$GPGSV,1,1,1,1,1,1,1,,,,,,,,,,,,*48
$GPGGA,000094,03018.0847,N,09743.9083,W,1,8,1.1,1.6355815605656048,M,24.5,M,,0000*6e
$GPGSA,A,3,,,,,,,,,,,,,1.500,2.121,2.121,*1a
$GPGSV,1,1,1,1,1,1,1,,,,,,,,,,,,*48
$GPGSV,1,1,1,1,1,1,1,,,,,,,,,,,,*48
$GPGGA,000095,03018.0843,N,09743.9101,W,1,8,1.1,1.3283875142476727,M,24.5,M,,0000*63
$GPGSA,A,3,,,,,,,,,,,,,1.500,2.121,2.121,*1a
$GPGSV,1,1,1,1,1,1,1,,,,,,,,,,,,*48
$GPGSV,1,1,1,1,1,1,1,,,,,,,,,,,,*48
$GPGGA,000096,03018.0862,N,09743.9083,W,1,8,1.1,0.8257610552342237,M,24.5,M,,0000*67
$GPGSA,A,3,,,,,,,,,,,,,1.500,2.121,2.121,*1a
$GPGSV,1,1,1,1,1,1,1,,,,,,,,,,,,*48
$GPGSV,1,1,1,1,1,1,1,,,,,,,,,,,,*48
$GPGGA,000097,03018.0853,N,09743.9089,W,1,8,1.1,1.095463581762169,M,24.5,M,,0000*5d
$GPGSA,A,3,,,,,,,,,,,,,1.500,2.121,2.121,*1a
$GPGSV,1,1,1,1,1,1,1,,,,,,,,,,,,*48
$GPGSV,1,1,1,1,1,1,1,,,,,,,,,,,,*48
$GPGGA,000098,03018.0852,N,09743.9085,W,1,8,1.1,2.1802111238719757,M,24.5,M,,0000*69
$GPGSA,A,3,,,,,,,,,,,,,1.500,2.121,2.121,*1a
$GPGSV,1,1,1,1,1,1,1,,,,,,,,,,,,*48
$GPGSV,1,1,1,1,1,1,1,,,,,,,,,,,,*48
$GPGGA,000099,03018.0837,N,09743.9092,W,1,8,1.1,1.4314291295210164,M,24.5,M,,0000*61
$GPGSA,A,3,,,,,,,,,,,,,1.500,2.121,2.121,*1a
$GPGSV,1,1,1,1,1,1,1,,,,,,,,,,,,*48
$GPGSV,1,1,1,1,1,1,1,,,,,,,,,,,,*48
$GPGGA,000100,03018.0844,N,09743.9094,W,1,8,1.1,0.07489309837528824,M,24.5,M,,0000*50
$GPGSA,A,3,,,,,,,,,,,,,1.500,2.121,2.121,*1a
$GPGSV,1,1,1,1,1,1,1,,,,,,,,,,,,*48
$GPGSV,1,1,1,1,1,1,1,,,,,,,,,,,,*48
$GPGGA,000101,03018.0843,N,09743.9096,W,1,8,1.1,4.241903930048223,M,24.5,M,,0000*5d
$GPGSA,A,3,,,,,,,,,,,,,1.500,2.121,2.121,*1a
$GPGSV,1,1,1,1,1,1,1,,,,,,,,,,,,*48
$GPGSV,1,1,1,1,1,1,1,,,,,,,,,,,,*48
$GPGGA,000102,03018.0839,N,09743.9107,W,1,8,1.1,0.6188014595250537,M,24.5,M,,0000*6b
$GPGSA,A,3,,,,,,,,,,,,,1.500,2.121,2.121,*1a
$GPGSV,1,1,1,1,1,1,1,,,,,,,,,,,,*48
$GPGSV,1,1,1,1,1,1,1,,,,,,,,,,,,*48
$GPGGA,000103,03018.0849,N,09743.9089,W,1,8,1.1,0.5373303582602895,M,24.5,M,,0000*6a
$GPGSA,A,3,,,,,,,,,,,,,1.500,2.121,2.121,*1a
$GPGSV,1,1,1,1,1,1,1,,,,,,,,,,,,*48
$GPGSV,1,1,1,1,1,1,1,,,,,,,,,,,,*48
$GPGGA,000104,03018.0858,N,09743.9101,W,1,8,1.1,3.4851880808607114,M,24.5,M,,0000*6f
$GPGSA,A,3,,,,,,,,,,,,,1.500,2.121,2.121,*1a
$GPGSV,1,1,1,1,1,1,1,,,,,,,,,,,,*48
$GPGSV,1,1,1,1,1,1,1,,,,,,,,,,,,*48
$GPGGA,000105,03018.0845,N,09743.9096,W,1,8,1.1,0.7634053874462634,M,24.5,M,,0000*69
$GPGSA,A,3,,,,,,,,,,,,,1.500,2.121,2.121,*1a
$GPGSV,1,1,1,1,1,1,1,,,,,,,,,,,,*48
$GPGSV,1,1,1,1,1,1,1,,,,,,,,,,,,*48
$GPGGA,000106,03018.0835,N,09743.9105,W,1,8,1.1,2.7852017439442687,M,24.5,M,,0000*65
$GPGSA,A,3,,,,,,,,,,,,,1.500,2.121,2.121,*1a
$GPGSV,1,1,1,1,1,1,1,,,,,,,,,,,,*48
$GPGSV,1,1,1,1,1,1,1,,,,,,,,,,,,*48
$GPGGA,000107,03018.0847,N,09743.9097,W,1,8,1.1,0.24682403281067855,M,24.5,M,,0000*5d
$GPGSA,A,3,,,,,,,,,,,,,1.500,2.121,2.121,*1a
$GPGSV,1,1,1,1,1,1,1,,,,,,,,,,,,*48
$GPGSV,1,1,1,1,1,1,1,,,,,,,,,,,,*48
$GPGGA,000108,03018.0840,N,09743.9105,W,1,8,1.1,2.4664748400527383,M,24.5,M,,0000*65
$GPGSA,A,3,,,,,,,,,,,,,1.500,2.121,2.121,*1a
$GPGSV,1,1,1,1,1,1,1,,,,,,,,,,,,*48
$GPGSV,1,1,1,1,1,1,1,,,,,,,,,,,,*48
$GPGGA,000109,03018.0843,N,09743.9095,W,1,8,1.1,3.014630813089555,M,24.5,M,,0000*57
$GPGSA,A,3,,,,,,,,,,,,,1.500,2.121,2.121,*1a
$GPGSV,1,1,1,1,1,1,1,,,,,,,,,,,,*48
$GPGSV,1,1,1,1,1,1,1,,,,,,,,,,,,*48
$GPGGA,000110,03018.0845,N,09743.9097,W,1,8,1.1,1.3336868150011996,M,24.5,M,,0000*66
$GPGSA,A,3,,,,,,,,,,,,,1.500,2.121,2.121,*1a
$GPGSV,1,1,1,1,1,1,1,,,,,,,,,,,,*48
$GPGSV,1,1,1,1,1,1,1,,,,,,,,,,,,*48
$GPGGA,000111,03018.0842,N,09743.9097,W,1,8,1.1,-2.2943275694171463,M,24.5,M,,0000*4e
$GPGSA,A,3,,,,,,,,,,,,,1.500,2.121,2.121,*1a
$GPGSV,1,1,1,1,1,1,1,,,,,,,,,,,,*48
$GPGSV,1,1,1,1,1,1,1,,,,,,,,,,,,*48
$GPGGA,000112,03018.0842,N,09743.9091,W,1,8,1.1,2.55741246722503,M,24.5,M,,0000*64
$GPGSA,A,3,,,,,,,,,,,,,1.500,2.121,2.121,*1a
$GPGSV,1,1,1,1,1,1,1,,,,,,,,,,,,*48
$GPGSV,1,1,1,1,1,1,1,,,,,,,,,,,,*48
$GPGGA,000113,03018.0852,N,09743.9088,W,1,8,1.1,3.290726322211807,M,24.5,M,,0000*58
$GPGSA,A,3,,,,,,,,,,,,,1.500,2.121,2.121,*1a
$GPGSV,1,1,1,1,1,1,1,,,,,,,,,,,,*48
$GPGSV,1,1,1,1,1,1,1,,,,,,,,,,,,*48
$GPGGA,000114,03018.0845,N,09743.9094,W,1,8,1.1,3.4134974171445016,M,24.5,M,,0000*6f
$GPGSA,A,3,,,,,,,,,,,,,1.500,2.121,2.121,*1a
$GPGSV,1,1,1,1,1,1,1,,,,,,,,,,,,*48
$GPGSV,1,1,1,1,1,1,1,,,,,,,,,,,,*48
$GPGGA,000115,03018.0851,N,09743.9071,W,1,8,1.1,-0.0643599885939572,M,24.5,M,,0000*41
$GPGSA,A,3,,,,,,,,,,,,,1.500,2.121,2.121,*1a
$GPGSV,1,1,1,1,1,1,1,,,,,,,,,,,,*48
$GPGSV,1,1,1,1,1,1,1,,,,,,,,,,,,*48
$GPGGA,000116,03018.0843,N,09743.9097,W,1,8,1.1,1.9239163301808857,M,24.5,M,,0000*6a
$GPGSA,A,3,,,,,,,,,,,,,1.500,2.121,2.121,*1a
$GPGSV,1,1,1,1,1,1,1,,,,,,,,,,,,*48
$GPGSV,1,1,1,1,1,1,1,,,,,,,,,,,,*48
$GPGGA,000117,03018.0863,N,09743.9107,W,1,8,1.1,2.780562094875743,M,24.5,M,,0000*56
$GPGSA,A,3,,,,,,,,,,,,,1.500,2.121,2.121,*1a
$GPGSV,1,1,1,1,1,1,1,,,,,,,,,,,,*48
$GPGSV,1,1,1,1,1,1,1,,,,,,,,,,,,*48
$GPGGA,000118,03018.0841,N,09743.9098,W,1,8,1.1,4.041099115609759,M,24.5,M,,0000*55
$GPGSA,A,3,,,,,,,,,,,,,1.500,2.121,2.121,*1a
$GPGSV,1,1,1,1,1,1,1,,,,,,,,,,,,*48
$GPGSV,1,1,1,1,1,1,1,,,,,,,,,,,,*48
$GPGGA,000119,03018.0836,N,09743.9090,W,1,8,1.1,-0.03006696061286318,M,24.5,M,,0000*7c
$GPGSA,A,3,,,,,,,,,,,,,1.500,2.121,2.121,*1a
$GPGSV,1,1,1,1,1,1,1,,,,,,,,,,,,*48
$GPGSV,1,1,1,1,1,1,1,,,,,,,,,,,,*48
$GPGGA,000120,03018.0838,N,09743.9096,W,1,8,1.1,1.8955033154003418,M,24.5,M,,0000*60
$GPGSA,A,3,,,,,,,,,,,,,1.500,2.121,2.121,*1a
$GPGSV,1,1,1,1,1,1,1,,,,,,,,,,,,*48
$GPGSV,1,1,1,1,1,1,1,,,,,,,,,,,,*48
$GPGGA,000121,03018.0844,N,09743.9096,W,1,8,1.1,-0.3193511499052135,M,24.5,M,,0000*40
$GPGSA,A,3,,,,,,,,,,,,,1.500,2.121,2.121,*1a
$GPGSV,1,1,1,1,1,1,1,,,,,,,,,,,,*48
$GPGSV,1,1,1,1,1,1,1,,,,,,,,,,,,*48
$GPGGA,000122,03018.0844,N,09743.9098,W,1,8,1.1,1.9290341243238327,M,24.5,M,,0000*66
$GPGSA,A,3,,,,,,,,,,,,,1.500,2.121,2.121,*1a
$GPGSV,1,1,1,1,1,1,1,,,,,,,,,,,,*48
$GPGSV,1,1,1,1,1,1,1,,,,,,,,,,,,*48
$GPGGA,000123,03018.0844,N,09743.9095,W,1,8,1.1,4.753772719182487,M,24.5,M,,0000*5d
$GPGSA,A,3,,,,,,,,,,,,,1.500,2.121,2.121,*1a
$GPGSV,1,1,1,1,1,1,1,,,,,,,,,,,,*48
$GPGSV,1,1,1,1,1,1,1,,,,,,,,,,,,*48
$GPGGA,000124,03018.0825,N,09743.9082,W,1,8,1.1,0.6735418447682825,M,24.5,M,,0000*6d
$GPGSA,A,3,,,,,,,,,,,,,1.500,2.121,2.121,*1a
$GPGSV,1,1,1,1,1,1,1,,,,,,,,,,,,*48
$GPGSV,1,1,1,1,1,1,1,,,,,,,,,,,,*48
$GPGGA,000125,03018.0856,N,09743.9092,W,1,8,1.1,4.726026635060784,M,24.5,M,,0000*59
$GPGSA,A,3,,,,,,,,,,,,,1.500,2.121,2.121,*1a
$GPGSV,1,1,1,1,1,1,1,,,,,,,,,,,,*48
$GPGSV,1,1,1,1,1,1,1,,,,,,,,,,,,*48
$GPGGA,000126,03018.0847,N,09743.9097,W,1,8,1.1,3.5232606820244508,M,24.5,M,,0000*61
$GPGSA,A,3,,,,,,,,,,,,,1.500,2.121,2.121,*1a
$GPGSV,1,1,1,1,1,1,1,,,,,,,,,,,,*48
$GPGSV,1,1,1,1,1,1,1,,,,,,,,,,,,*48
$GPGGA,000127,03018.0851,N,09743.9093,W,1,8,1.1,3.868847593413639,M,24.5,M,,0000*58
$GPGSA,A,3,,,,,,,,,,,,,1.500,2.121,2.121,*1a
$GPGSV,1,1,1,1,1,1,1,,,,,,,,,,,,*48
$GPGSV,1,1,1,1,1,1,1,,,,,,,,,,,,*48
$GPGGA,000128,03018.0842,N,09743.9087,W,1,8,1.1,0.7794565627285361,M,24.5,M,,0000*68
$GPGSA,A,3,,,,,,,,,,,,,1.500,2.121,2.121,*1a
$GPGSV,1,1,1,1,1,1,1,,,,,,,,,,,,*48
$GPGSV,1,1,1,1,1,1,1,,,,,,,,,,,,*48
$GPGGA,000129,03018.0844,N,09743.9097,W,1,8,1.1,0.08574106602543519,M,24.5,M,,0000*5f
$GPGSA,A,3,,,,,,,,,,,,,1.500,2.121,2.121,*1a
$GPGSV,1,1,1,1,1,1,1,,,,,,,,,,,,*48
$GPGSV,1,1,1,1,1,1,1,,,,,,,,,,,,*48
$GPGGA,000130,03018.0835,N,09743.9096,W,1,8,1.1,0.41782184390932553,M,24.5,M,,0000*56
$GPGSA,A,3,,,,,,,,,,,,,1.500,2.121,2.121,*1a
$GPGSV,1,1,1,1,1,1,1,,,,,,,,,,,,*48
$GPGSV,1,1,1,1,1,1,1,,,,,,,,,,,,*48
$GPGGA,000131,03018.0838,N,09743.9103,W,1,8,1.1,1.1706389387058496,M,24.5,M,,0000*6a
$GPGSA,A,3,,,,,,,,,,,,,1.500,2.121,2.121,*1a
$GPGSV,1,1,1,1,1,1,1,,,,,,,,,,,,*48
$GPGSV,1,1,1,1,1,1,1,,,,,,,,,,,,*48
$GPGGA,000132,03018.0844,N,09743.9094,W,1,8,1.1,1.186373758517129,M,24.5,M,,0000*5e
$GPGSA,A,3,,,,,,,,,,,,,1.500,2.121,2.121,*1a
$GPGSV,1,1,1,1,1,1,1,,,,,,,,,,,,*48
$GPGSV,1,1,1,1,1,1,1,,,,,,,,,,,,*48
$GPGGA,000133,03018.0847,N,09743.9096,W,1,8,1.1,0.9053153516447611,M,24.5,M,,0000*6f
$GPGSA,A,3,,,,,,,,,,,,,1.500,2.121,2.121,*1a
$GPGSV,1,1,1,1,1,1,1,,,,,,,,,,,,*48
$GPGSV,1,1,1,1,1,1,1,,,,,,,,,,,,*48
$GPGGA,000134,03018.0849,N,09743.9098,W,1,8,1.1,1.818465615209223,M,24.5,M,,0000*5e
$GPGSA,A,3,,,,,,,,,,,,,1.500,2.121,2.121,*1a
$GPGSV,1,1,1,1,1,1,1,,,,,,,,,,,,*48
$GPGSV,1,1,1,1,1,1,1,,,,,,,,,,,,*48
$GPGGA,000135,03018.0835,N,09743.9089,W,1,8,1.1,-0.4256980252383782,M,24.5,M,,0000*40
$GPGSA,A,3,,,,,,,,,,,,,1.500,2.121,2.121,*1a
$GPGSV,1,1,1,1,1,1,1,,,,,,,,,,,,*48
$GPGSV,1,1,1,1,1,1,1,,,,,,,,,,,,*48
$GPGGA,000136,03018.0852,N,09743.9102,W,1,8,1.1,-0.34139579769077577,M,24.5,M,,0000*7e
$GPGSA,A,3,,,,,,,,,,,,,1.500,2.121,2.121,*1a
$GPGSV,1,1,1,1,1,1,1,,,,,,,,,,,,*48
$GPGSV,1,1,1,1,1,1,1,,,,,,,,,,,,*48
$GPGGA,000137,03018.0840,N,09743.9095,W,1,8,1.1,5.373813551552908,M,24.5,M,,0000*5e
$GPGSA,A,3,,,,,,,,,,,,,1.500,2.121,2.121,*1a
$GPGSV,1,1,1,1,1,1,1,,,,,,,,,,,,*48
$GPGSV,1,1,1,1,1,1,1,,,,,,,,,,,,*48
$GPGGA,000138,03018.0841,N,09743.9096,W,1,8,1.1,1.6871525031071601,M,24.5,M,,0000*61
$GPGSA,A,3,,,,,,,,,,,,,1.500,2.121,2.121,*1a
$GPGSV,1,1,1,1,1,1,1,,,,,,,,,,,,*48
$GPGSV,1,1,1,1,1,1,1,,,,,,,,,,,,*48
$GPGGA,000139,03018.0856,N,09743.9077,W,1,8,1.1,2.3250428432387142,M,24.5,M,,0000*67
$GPGSA,A,3,,,,,,,,,,,,,1.500,2.121,2.121,*1a
$GPGSV,1,1,1,1,1,1,1,,,,,,,,,,,,*48
$GPGSV,1,1,1,1,1,1,1,,,,,,,,,,,,*48
$GPGGA,000140,03018.0856,N,09743.9108,W,1,8,1.1,3.592943955407244,M,24.5,M,,0000*5d
$GPGSA,A,3,,,,,,,,,,,,,1.500,2.121,2.121,*1a
$GPGSV,1,1,1,1,1,1,1,,,,,,,,,,,,*48
$GPGSV,1,1,1,1,1,1,1,,,,,,,,,,,,*48
$GPGGA,000141,03018.0836,N,09743.9096,W,1,8,1.1,-0.47126819129585984,M,24.5,M,,0000*7b
$GPGSA,A,3,,,,,,,,,,,,,1.500,2.121,2.121,*1a
$GPGSV,1,1,1,1,1,1,1,,,,,,,,,,,,*48
$GPGSV,1,1,1,1,1,1,1,,,,,,,,,,,,*48
$GPGGA,000142,03018.0842,N,09743.9096,W,1,8,1.1,-1.7956545102555017,M,24.5,M,,0000*42
$GPGSA,A,3,,,,,,,,,,,,,1.500,2.121,2.121,*1a
$GPGSV,1,1,1,1,1,1,1,,,,,,,,,,,,*48
$GPGSV,1,1,1,1,1,1,1,,,,,,,,,,,,*48
$GPGGA,000143,03018.0848,N,09743.9096,W,1,8,1.1,0.6381244289046499,M,24.5,M,,0000*67
$GPGSA,A,3,,,,,,,,,,,,,1.500,2.121,2.121,*1a
$GPGSV,1,1,1,1,1,1,1,,,,,,,,,,,,*48
$GPGSV,1,1,1,1,1,1,1,,,,,,,,,,,,*48
$GPGGA,000144,03018.0844,N,09743.9094,W,1,8,1.1,3.533340316185811,M,24.5,M,,0000*54
$GPGSA,A,3,,,,,,,,,,,,,1.500,2.121,2.121,*1a
$GPGSV,1,1,1,1,1,1,1,,,,,,,,,,,,*48
$GPGSV,1,1,1,1,1,1,1,,,,,,,,,,,,*48
$GPGGA,000145,03018.0844,N,09743.9095,W,1,8,1.1,1.016835431940597,M,24.5,M,,0000*5d
$GPGSA,A,3,,,,,,,,,,,,,1.500,2.121,2.121,*1a
$GPGSV,1,1,1,1,1,1,1,,,,,,,,,,,,*48
$GPGSV,1,1,1,1,1,1,1,,,,,,,,,,,,*48
$GPGGA,000146,03018.0856,N,09743.9094,W,1,8,1.1,4.51079808925571,M,24.5,M,,0000*67
$GPGSA,A,3,,,,,,,,,,,,,1.500,2.121,2.121,*1a
$GPGSV,1,1,1,1,1,1,1,,,,,,,,,,,,*48
$GPGSV,1,1,1,1,1,1,1,,,,,,,,,,,,*48
$GPGGA,000147,03018.0838,N,09743.9098,W,1,8,1.1,3.5498543312165056,M,24.5,M,,0000*61
$GPGSA,A,3,,,,,,,,,,,,,1.500,2.121,2.121,*1a
$GPGSV,1,1,1,1,1,1,1,,,,,,,,,,,,*48
$GPGSV,1,1,1,1,1,1,1,,,,,,,,,,,,*48
$GPGGA,000148,03018.0843,N,09743.9095,W,1,8,1.1,1.9954860367125409,M,24.5,M,,0000*68
$GPGSA,A,3,,,,,,,,,,,,,1.500,2.121,2.121,*1a
$GPGSV,1,1,1,1,1,1,1,,,,,,,,,,,,*48
$GPGSV,1,1,1,1,1,1,1,,,,,,,,,,,,*48
$GPGGA,000149,03018.0841,N,09743.9093,W,1,8,1.1,1.4316964934194643,M,24.5,M,,0000*63
$GPGSA,A,3,,,,,,,,,,,,,1.500,2.121,2.121,*1a
$GPGSV,1,1,1,1,1,1,1,,,,,,,,,,,,*48
$GPGSV,1,1,1,1,1,1,1,,,,,,,,,,,,*48
$GPGGA,000150,03018.0840,N,09743.9086,W,1,8,1.1,-0.7333901796255153,M,24.5,M,,0000*4b
$GPGSA,A,3,,,,,,,,,,,,,1.500,2.121,2.121,*1a
$GPGSV,1,1,1,1,1,1,1,,,,,,,,,,,,*48
$GPGSV,1,1,1,1,1,1,1,,,,,,,,,,,,*48
$GPGGA,000151,03018.0844,N,09743.9096,W,1,8,1.1,1.694761819806212,M,24.5,M,,0000*56
$GPGSA,A,3,,,,,,,,,,,,,1.500,2.121,2.121,*1a
$GPGSV,1,1,1,1,1,1,1,,,,,,,,,,,,*48
$GPGSV,1,1,1,1,1,1,1,,,,,,,,,,,,*48
$GPGGA,000152,03018.0833,N,09743.9093,W,1,8,1.1,4.02965008213601,M,24.5,M,,0000*66
$GPGSA,A,3,,,,,,,,,,,,,1.500,2.121,2.121,*1a
$GPGSV,1,1,1,1,1,1,1,,,,,,,,,,,,*48
$GPGSV,1,1,1,1,1,1,1,,,,,,,,,,,,*48
$GPGGA,000153,03018.0849,N,09743.9100,W,1,8,1.1,1.3135267083915672,M,24.5,M,,0000*61
$GPGSA,A,3,,,,,,,,,,,,,1.500,2.121,2.121,*1a
$GPGSV,1,1,1,1,1,1,1,,,,,,,,,,,,*48
$GPGSV,1,1,1,1,1,1,1,,,,,,,,,,,,*48
$GPGGA,000154,03018.0852,N,09743.9096,W,1,8,1.1,-0.3009653790935245,M,24.5,M,,0000*44
$GPGSA,A,3,,,,,,,,,,,,,1.500,2.121,2.121,*1a
$GPGSV,1,1,1,1,1,1,1,,,,,,,,,,,,*48
$GPGSV,1,1,1,1,1,1,1,,,,,,,,,,,,*48
$GPGGA,000155,03018.0845,N,09743.9097,W,1,8,1.1,1.795576556691799,M,24.5,M,,0000*56
$GPGSA,A,3,,,,,,,,,,,,,1.500,2.121,2.121,*1a
$GPGSV,1,1,1,1,1,1,1,,,,,,,,,,,,*48
$GPGSV,1,1,1,1,1,1,1,,,,,,,,,,,,*48
$GPGGA,000156,03018.0853,N,09743.9098,W,1,8,1.1,1.936081218642627,M,24.5,M,,0000*50
$GPGSA,A,3,,,,,,,,,,,,,1.500,2.121,2.121,*1a
$GPGSV,1,1,1,1,1,1,1,,,,,,,,,,,,*48
$GPGSV,1,1,1,1,1,1,1,,,,,,,,,,,,*48
$GPGGA,000157,03018.0846,N,09743.9092,W,1,8,1.1,1.1962424377117684,M,24.5,M,,0000*62
$GPGSA,A,3,,,,,,,,,,,,,1.500,2.121,2.121,*1a
$GPGSV,1,1,1,1,1,1,1,,,,,,,,,,,,*48
$GPGSV,1,1,1,1,1,1,1,,,,,,,,,,,,*48
$GPGGA,000158,03018.0844,N,09743.9093,W,1,8,1.1,1.435372057255029,M,24.5,M,,0000*51
$GPGSA,A,3,,,,,,,,,,,,,1.500,2.121,2.121,*1a
$GPGSV,1,1,1,1,1,1,1,,,,,,,,,,,,*48
$GPGSV,1,1,1,1,1,1,1,,,,,,,,,,,,*48
$GPGGA,000159,03018.0846,N,09743.9100,W,1,8,1.1,1.1490206192103658,M,24.5,M,,0000*6d
$GPGSA,A,3,,,,,,,,,,,,,1.500,2.121,2.121,*1a
$GPGSV,1,1,1,1,1,1,1,,,,,,,,,,,,*48
$GPGSV,1,1,1,1,1,1,1,,,,,,,,,,,,*48
$GPGGA,000160,03018.0846,N,09743.9093,W,1,8,1.1,0.4298789316730107,M,24.5,M,,0000*61
$GPGSA,A,3,,,,,,,,,,,,,1.500,2.121,2.121,*1a
$GPGSV,1,1,1,1,1,1,1,,,,,,,,,,,,*48
$GPGSV,1,1,1,1,1,1,1,,,,,,,,,,,,*48
$GPGGA,000161,03018.0841,N,09743.9092,W,1,8,1.1,1.6832465410349426,M,24.5,M,,0000*63
$GPGSA,A,3,,,,,,,,,,,,,1.500,2.121,2.121,*1a
$GPGSV,1,1,1,1,1,1,1,,,,,,,,,,,,*48
$GPGSV,1,1,1,1,1,1,1,,,,,,,,,,,,*48
$GPGGA,000162,03018.0847,N,09743.9084,W,1,8,1.1,1.3233002385152801,M,24.5,M,,0000*60
$GPGSA,A,3,,,,,,,,,,,,,1.500,2.121,2.121,*1a
$GPGSV,1,1,1,1,1,1,1,,,,,,,,,,,,*48
$GPGSV,1,1,1,1,1,1,1,,,,,,,,,,,,*48
$GPGGA,000163,03018.0847,N,09743.9096,W,1,8,1.1,2.7093321382510522,M,24.5,M,,0000*66
$GPGSA,A,3,,,,,,,,,,,,,1.500,2.121,2.121,*1a
$GPGSV,1,1,1,1,1,1,1,,,,,,,,,,,,*48
$GPGSV,1,1,1,1,1,1,1,,,,,,,,,,,,*48
$GPGGA,000164,03018.0844,N,09743.9096,W,1,8,1.1,0.6259436946123557,M,24.5,M,,0000*60
$GPGSA,A,3,,,,,,,,,,,,,1.500,2.121,2.121,*1a
$GPGSV,1,1,1,1,1,1,1,,,,,,,,,,,,*48
$GPGSV,1,1,1,1,1,1,1,,,,,,,,,,,,*48
$GPGGA,000165,03018.0850,N,09743.9095,W,1,8,1.1,-0.551473170793801,M,24.5,M,,0000*7c
$GPGSA,A,3,,,,,,,,,,,,,1.500,2.121,2.121,*1a
$GPGSV,1,1,1,1,1,1,1,,,,,,,,,,,,*48
$GPGSV,1,1,1,1,1,1,1,,,,,,,,,,,,*48
$GPGGA,000166,03018.0840,N,09743.9095,W,1,8,1.1,1.3189562990514752,M,24.5,M,,0000*63
$GPGSA,A,3,,,,,,,,,,,,,1.500,2.121,2.121,*1a
$GPGSV,1,1,1,1,1,1,1,,,,,,,,,,,,*48
$GPGSV,1,1,1,1,1,1,1,,,,,,,,,,,,*48
$GPGGA,000167,03018.0841,N,09743.9075,W,1,8,1.1,1.2496507300577266,M,24.5,M,,0000*60
$GPGSA,A,3,,,,,,,,,,,,,1.500,2.121,2.121,*1a
$GPGSV,1,1,1,1,1,1,1,,,,,,,,,,,,*48
$GPGSV,1,1,1,1,1,1,1,,,,,,,,,,,,*48
$GPGGA,000168,03018.0838,N,09743.9085,W,1,8,1.1,-0.5982775526703534,M,24.5,M,,0000*49
$GPGSA,A,3,,,,,,,,,,,,,1.500,2.121,2.121,*1a
$GPGSV,1,1,1,1,1,1,1,,,,,,,,,,,,*48
$GPGSV,1,1,1,1,1,1,1,,,,,,,,,,,,*48
$GPGGA,000169,03018.0844,N,09743.9097,W,1,8,1.1,4.787659654836201,M,24.5,M,,0000*56
$GPGSA,A,3,,,,,,,,,,,,,1.500,2.121,2.121,*1a
$GPGSV,1,1,1,1,1,1,1,,,,,,,,,,,,*48
$GPGSV,1,1,1,1,1,1,1,,,,,,,,,,,,*48
$GPGGA,000170,03018.0843,N,09743.9099,W,1,8,1.1,3.123336627095995,M,24.5,M,,0000*57
$GPGSA,A,3,,,,,,,,,,,,,1.500,2.121,2.121,*1a
$GPGSV,1,1,1,1,1,1,1,,,,,,,,,,,,*48
$GPGSV,1,1,1,1,1,1,1,,,,,,,,,,,,*48
$GPGGA,000171,03018.0843,N,09743.9084,W,1,8,1.1,2.8714800160578045,M,24.5,M,,0000*69
$GPGSA,A,3,,,,,,,,,,,,,1.500,2.121,2.121,*1a
$GPGSV,1,1,1,1,1,1,1,,,,,,,,,,,,*48
$GPGSV,1,1,1,1,1,1,1,,,,,,,,,,,,*48
$GPGGA,000172,03018.0840,N,09743.9096,W,1,8,1.1,1.6338046435555775,M,24.5,M,,0000*69
$GPGSA,A,3,,,,,,,,,,,,,1.500,2.121,2.121,*1a
$GPGSV,1,1,1,1,1,1,1,,,,,,,,,,,,*48
$GPGSV,1,1,1,1,1,1,1,,,,,,,,,,,,*48
$GPGGA,000173,03018.0843,N,09743.9094,W,1,8,1.1,2.986893677083696,M,24.5,M,,0000*55
$GPGSA,A,3,,,,,,,,,,,,,1.500,2.121,2.121,*1a
$GPGSV,1,1,1,1,1,1,1,,,,,,,,,,,,*48
$GPGSV,1,1,1,1,1,1,1,,,,,,,,,,,,*48
$GPGGA,000174,03018.0842,N,09743.9090,W,1,8,1.1,1.5813733103771241,M,24.5,M,,0000*69
$GPGSA,A,3,,,,,,,,,,,,,1.500,2.121,2.121,*1a
$GPGSV,1,1,1,1,1,1,1,,,,,,,,,,,,*48
$GPGSV,1,1,1,1,1,1,1,,,,,,,,,,,,*48
$GPGGA,000175,03018.0845,N,09743.9096,W,1,8,1.1,1.0168851608782203,M,24.5,M,,0000*64
$GPGSA,A,3,,,,,,,,,,,,,1.500,2.121,2.121,*1a
$GPGSV,1,1,1,1,1,1,1,,,,,,,,,,,,*48
$GPGSV,1,1,1,1,1,1,1,,,,,,,,,,,,*48
$GPGGA,000176,03018.0847,N,09743.9101,W,1,8,1.1,2.9939839069048757,M,24.5,M,,0000*66
$GPGSA,A,3,,,,,,,,,,,,,1.500,2.121,2.121,*1a
$GPGSV,1,1,1,1,1,1,1,,,,,,,,,,,,*48
$GPGSV,1,1,1,1,1,1,1,,,,,,,,,,,,*48
$GPGGA,000177,03018.0836,N,09743.9100,W,1,8,1.1,-0.2268734383372677,M,24.5,M,,0000*47
$GPGSA,A,3,,,,,,,,,,,,,1.500,2.121,2.121,*1a
$GPGSV,1,1,1,1,1,1,1,,,,,,,,,,,,*48
$GPGSV,1,1,1,1,1,1,1,,,,,,,,,,,,*48
$GPGGA,000178,03018.0848,N,09743.9093,W,1,8,1.1,0.40909214394485804,M,24.5,M,,0000*59
$GPGSA,A,3,,,,,,,,,,,,,1.500,2.121,2.121,*1a
$GPGSV,1,1,1,1,1,1,1,,,,,,,,,,,,*48
$GPGSV,1,1,1,1,1,1,1,,,,,,,,,,,,*48
$GPGGA,000179,03018.0840,N,09743.9094,W,1,8,1.1,2.1912133141164905,M,24.5,M,,0000*6c
$GPGSA,A,3,,,,,,,,,,,,,1.500,2.121,2.121,*1a
$GPGSV,1,1,1,1,1,1,1,,,,,,,,,,,,*48
$GPGSV,1,1,1,1,1,1,1,,,,,,,,,,,,*48
$GPGGA,000180,03018.0844,N,09743.9094,W,1,8,1.1,-0.441662955125526,M,24.5,M,,0000*7d
$GPGSA,A,3,,,,,,,,,,,,,1.500,2.121,2.121,*1a
$GPGSV,1,1,1,1,1,1,1,,,,,,,,,,,,*48
$GPGSV,1,1,1,1,1,1,1,,,,,,,,,,,,*48
$GPGGA,000181,03018.0846,N,09743.9095,W,1,8,1.1,0.6126174965264318,M,24.5,M,,0000*6e
$GPGSA,A,3,,,,,,,,,,,,,1.500,2.121,2.121,*1a
$GPGSV,1,1,1,1,1,1,1,,,,,,,,,,,,*48
$GPGSV,1,1,1,1,1,1,1,,,,,,,,,,,,*48
$GPGGA,000182,03018.0849,N,09743.9098,W,1,8,1.1,1.6850851130250861,M,24.5,M,,0000*62
$GPGSA,A,3,,,,,,,,,,,,,1.500,2.121,2.121,*1a
$GPGSV,1,1,1,1,1,1,1,,,,,,,,,,,,*48
$GPGSV,1,1,1,1,1,1,1,,,,,,,,,,,,*48
$GPGGA,000183,03018.0842,N,09743.9096,W,1,8,1.1,0.9150490982674476,M,24.5,M,,0000*69
$GPGSA,A,3,,,,,,,,,,,,,1.500,2.121,2.121,*1a
$GPGSV,1,1,1,1,1,1,1,,,,,,,,,,,,*48
$GPGSV,1,1,1,1,1,1,1,,,,,,,,,,,,*48
$GPGGA,000184,03018.0843,N,09743.9084,W,1,8,1.1,2.915087444343362,M,24.5,M,,0000*58
$GPGSA,A,3,,,,,,,,,,,,,1.500,2.121,2.121,*1a
$GPGSV,1,1,1,1,1,1,1,,,,,,,,,,,,*48
$GPGSV,1,1,1,1,1,1,1,,,,,,,,,,,,*48
$GPGGA,000185,03018.0850,N,09743.9093,W,1,8,1.1,4.010156999168204,M,24.5,M,,0000*5d
$GPGSA,A,3,,,,,,,,,,,,,1.500,2.121,2.121,*1a
$GPGSV,1,1,1,1,1,1,1,,,,,,,,,,,,*48
$GPGSV,1,1,1,1,1,1,1,,,,,,,,,,,,*48
$GPGGA,000186,03018.0842,N,09743.9104,W,1,8,1.1,3.501953929465796,M,24.5,M,,0000*50
$GPGSA,A,3,,,,,,,,,,,,,1.500,2.121,2.121,*1a
$GPGSV,1,1,1,1,1,1,1,,,,,,,,,,,,*48
$GPGSV,1,1,1,1,1,1,1,,,,,,,,,,,,*48
$GPGGA,000187,03018.0845,N,09743.9100,W,1,8,1.1,2.7097399870346353,M,24.5,M,,0000*64
$GPGSA,A,3,,,,,,,,,,,,,1.500,2.121,2.121,*1a
$GPGSV,1,1,1,1,1,1,1,,,,,,,,,,,,*48
$GPGSV,1,1,1,1,1,1,1,,,,,,,,,,,,*48
$GPGGA,000188,03018.0838,N,09743.9104,W,1,8,1.1,-1.0167702573514115,M,24.5,M,,0000*4b
$GPGSA,A,3,,,,,,,,,,,,,1.500,2.121,2.121,*1a
$GPGSV,1,1,1,1,1,1,1,,,,,,,,,,,,*48
$GPGSV,1,1,1,1,1,1,1,,,,,,,,,,,,*48
$GPGGA,000189,03018.0832,N,09743.9101,W,1,8,1.1,-0.8407385854874474,M,24.5,M,,0000*45
$GPGSA,A,3,,,,,,,,,,,,,1.500,2.121,2.121,*1a
$GPGSV,1,1,1,1,1,1,1,,,,,,,,,,,,*48
$GPGSV,1,1,1,1,1,1,1,,,,,,,,,,,,*48
$GPGGA,000190,03018.0842,N,09743.9089,W,1,8,1.1,1.9351029136749192,M,24.5,M,,0000*66
$GPGSA,A,3,,,,,,,,,,,,,1.500,2.121,2.121,*1a
$GPGSV,1,1,1,1,1,1,1,,,,,,,,,,,,*48
$GPGSV,1,1,1,1,1,1,1,,,,,,,,,,,,*48
$GPGGA,000191,03018.0845,N,09743.9097,W,1,8,1.1,0.6996006353666872,M,24.5,M,,0000*67
$GPGSA,A,3,,,,,,,,,,,,,1.500,2.121,2.121,*1a
$GPGSV,1,1,1,1,1,1,1,,,,,,,,,,,,*48
$GPGSV,1,1,1,1,1,1,1,,,,,,,,,,,,*48
$GPGGA,000192,03018.0845,N,09743.9094,W,1,8,1.1,1.5547357223778937,M,24.5,M,,0000*6a
$GPGSA,A,3,,,,,,,,,,,,,1.500,2.121,2.121,*1a
$GPGSV,1,1,1,1,1,1,1,,,,,,,,,,,,*48
$GPGSV,1,1,1,1,1,1,1,,,,,,,,,,,,*48
$GPGGA,000193,03018.0841,N,09743.9093,W,1,8,1.1,2.901526971414735,M,24.5,M,,0000*59
$GPGSA,A,3,,,,,,,,,,,,,1.500,2.121,2.121,*1a
$GPGSV,1,1,1,1,1,1,1,,,,,,,,,,,,*48
$GPGSV,1,1,1,1,1,1,1,,,,,,,,,,,,*48
$GPGGA,000194,03018.0843,N,09743.9090,W,1,8,1.1,1.7754373960002037,M,24.5,M,,0000*65
$GPGSA,A,3,,,,,,,,,,,,,1.500,2.121,2.121,*1a
$GPGSV,1,1,1,1,1,1,1,,,,,,,,,,,,*48
$GPGSV,1,1,1,1,1,1,1,,,,,,,,,,,,*48
$GPGGA,000195,03018.0837,N,09743.9098,W,1,8,1.1,1.4943355435072863,M,24.5,M,,0000*63
$GPGSA,A,3,,,,,,,,,,,,,1.500,2.121,2.121,*1a
$GPGSV,1,1,1,1,1,1,1,,,,,,,,,,,,*48
$GPGSV,1,1,1,1,1,1,1,,,,,,,,,,,,*48
$GPGGA,000196,03018.0851,N,09743.9091,W,1,8,1.1,2.1906009602593763,M,24.5,M,,0000*67
$GPGSA,A,3,,,,,,,,,,,,,1.500,2.121,2.121,*1a
$GPGSV,1,1,1,1,1,1,1,,,,,,,,,,,,*48
$GPGSV,1,1,1,1,1,1,1,,,,,,,,,,,,*48
$GPGGA,000197,03018.0841,N,09743.9096,W,1,8,1.1,-0.7218274914716685,M,24.5,M,,0000*4b
$GPGSA,A,3,,,,,,,,,,,,,1.500,2.121,2.121,*1a
$GPGSV,1,1,1,1,1,1,1,,,,,,,,,,,,*48
$GPGSV,1,1,1,1,1,1,1,,,,,,,,,,,,*48
$GPGGA,000198,03018.0841,N,09743.9096,W,1,8,1.1,1.2362799823861519,M,24.5,M,,0000*6b
$GPGSA,A,3,,,,,,,,,,,,,1.500,2.121,2.121,*1a
$GPGSV,1,1,1,1,1,1,1,,,,,,,,,,,,*48
$GPGSV,1,1,1,1,1,1,1,,,,,,,,,,,,*48
$GPGGA,000199,03018.0845,N,09743.9098,W,1,8,1.1,1.632552683595465,M,24.5,M,,0000*5f
$GPGSA,A,3,,,,,,,,,,,,,1.500,2.121,2.121,*1a
$GPGSV,1,1,1,1,1,1,1,,,,,,,,,,,,*48
$GPGSV,1,1,1,1,1,1,1,,,,,,,,,,,,*48
$GPGGA,000200,03018.0844,N,09743.9101,W,1,8,1.1,3.088111337175545,M,24.5,M,,0000*59
$GPGSA,A,3,,,,,,,,,,,,,1.500,2.121,2.121,*1a
$GPGSV,1,1,1,1,1,1,1,,,,,,,,,,,,*48
$GPGSV,1,1,1,1,1,1,1,,,,,,,,,,,,*48
$GPGGA,000201,03018.0830,N,09743.9092,W,1,8,1.1,3.0755956965762175,M,24.5,M,,0000*66
$GPGSA,A,3,,,,,,,,,,,,,1.500,2.121,2.121,*1a
$GPGSV,1,1,1,1,1,1,1,,,,,,,,,,,,*48
$GPGSV,1,1,1,1,1,1,1,,,,,,,,,,,,*48
$GPGGA,000202,03018.0849,N,09743.9091,W,1,8,1.1,1.485302413471443,M,24.5,M,,0000*52
$GPGSA,A,3,,,,,,,,,,,,,1.500,2.121,2.121,*1a
$GPGSV,1,1,1,1,1,1,1,,,,,,,,,,,,*48
$GPGSV,1,1,1,1,1,1,1,,,,,,,,,,,,*48
$GPGGA,000203,03018.0844,N,09743.9097,W,1,8,1.1,0.17772982194297393,M,24.5,M,,0000*58
$GPGSA,A,3,,,,,,,,,,,,,1.500,2.121,2.121,*1a
$GPGSV,1,1,1,1,1,1,1,,,,,,,,,,,,*48
$GPGSV,1,1,1,1,1,1,1,,,,,,,,,,,,*48
$GPGGA,000204,03018.0844,N,09743.9096,W,1,8,1.1,1.2281993135344533,M,24.5,M,,0000*6a
$GPGSA,A,3,,,,,,,,,,,,,1.500,2.121,2.121,*1a
$GPGSV,1,1,1,1,1,1,1,,,,,,,,,,,,*48
$GPGSV,1,1,1,1,1,1,1,,,,,,,,,,,,*48
$GPGGA,000205,03018.0839,N,09743.9090,W,1,8,1.1,0.2202890913063138,M,24.5,M,,0000*6a
$GPGSA,A,3,,,,,,,,,,,,,1.500,2.121,2.121,*1a
$GPGSV,1,1,1,1,1,1,1,,,,,,,,,,,,*48
$GPGSV,1,1,1,1,1,1,1,,,,,,,,,,,,*48
$GPGGA,000206,03018.0832,N,09743.9092,W,1,8,1.1,-0.1053829881614059,M,24.5,M,,0000*40
$GPGSA,A,3,,,,,,,,,,,,,1.500,2.121,2.121,*1a
$GPGSV,1,1,1,1,1,1,1,,,,,,,,,,,,*48
$GPGSV,1,1,1,1,1,1,1,,,,,,,,,,,,*48
$GPGGA,000207,03018.0844,N,09743.9100,W,1,8,1.1,2.7932689988465955,M,24.5,M,,0000*60
$GPGSA,A,3,,,,,,,,,,,,,1.500,2.121,2.121,*1a
$GPGSV,1,1,1,1,1,1,1,,,,,,,,,,,,*48
$GPGSV,1,1,1,1,1,1,1,,,,,,,,,,,,*48
$GPGGA,000208,03018.0859,N,09743.9106,W,1,8,1.1,1.718540029264771,M,24.5,M,,0000*5c
$GPGSA,A,3,,,,,,,,,,,,,1.500,2.121,2.121,*1a
$GPGSV,1,1,1,1,1,1,1,,,,,,,,,,,,*48
$GPGSV,1,1,1,1,1,1,1,,,,,,,,,,,,*48
$GPGGA,000209,03018.0846,N,09743.9079,W,1,8,1.1,0.7767418780833524,M,24.5,M,,0000*66
$GPGSA,A,3,,,,,,,,,,,,,1.500,2.121,2.121,*1a
$GPGSV,1,1,1,1,1,1,1,,,,,,,,,,,,*48
$GPGSV,1,1,1,1,1,1,1,,,,,,,,,,,,*48
$GPGGA,000210,03018.0844,N,09743.9095,W,1,8,1.1,4.2081801528067775,M,24.5,M,,0000*6b
$GPGSA,A,3,,,,,,,,,,,,,1.500,2.121,2.121,*1a
$GPGSV,1,1,1,1,1,1,1,,,,,,,,,,,,*48
$GPGSV,1,1,1,1,1,1,1,,,,,,,,,,,,*48
$GPGGA,000211,03018.0843,N,09743.9095,W,1,8,1.1,-0.6776929271908445,M,24.5,M,,0000*4f
$GPGSA,A,3,,,,,,,,,,,,,1.500,2.121,2.121,*1a
$GPGSV,1,1,1,1,1,1,1,,,,,,,,,,,,*48
$GPGSV,1,1,1,1,1,1,1,,,,,,,,,,,,*48
$GPGGA,000212,03018.0845,N,09743.9093,W,1,8,1.1,2.4852617217204633,M,24.5,M,,0000*6e
$GPGSA,A,3,,,,,,,,,,,,,1.500,2.121,2.121,*1a
$GPGSV,1,1,1,1,1,1,1,,,,,,,,,,,,*48
$GPGSV,1,1,1,1,1,1,1,,,,,,,,,,,,*48
$GPGGA,000213,03018.0849,N,09743.9100,W,1,8,1.1,2.93333870899924,M,24.5,M,,0000*66
$GPGSA,A,3,,,,,,,,,,,,,1.500,2.121,2.121,*1a
$GPGSV,1,1,1,1,1,1,1,,,,,,,,,,,,*48
$GPGSV,1,1,1,1,1,1,1,,,,,,,,,,,,*48
$GPGGA,000214,03018.0846,N,09743.9077,W,1,8,1.1,2.8795019543241254,M,24.5,M,,0000*63
$GPGSA,A,3,,,,,,,,,,,,,1.500,2.121,2.121,*1a
$GPGSV,1,1,1,1,1,1,1,,,,,,,,,,,,*48
$GPGSV,1,1,1,1,1,1,1,,,,,,,,,,,,*48
$GPGGA,000215,03018.0837,N,09743.9087,W,1,8,1.1,-1.0252018293611451,M,24.5,M,,0000*4a
$GPGSA,A,3,,,,,,,,,,,,,1.500,2.121,2.121,*1a
$GPGSV,1,1,1,1,1,1,1,,,,,,,,,,,,*48
$GPGSV,1,1,1,1,1,1,1,,,,,,,,,,,,*48
$GPGGA,000216,03018.0843,N,09743.9091,W,1,8,1.1,1.9369497607112809,M,24.5,M,,0000*6f
$GPGSA,A,3,,,,,,,,,,,,,1.500,2.121,2.121,*1a
$GPGSV,1,1,1,1,1,1,1,,,,,,,,,,,,*48
$GPGSV,1,1,1,1,1,1,1,,,,,,,,,,,,*48
$GPGGA,000217,03018.0845,N,09743.9097,W,1,8,1.1,1.4623163325610673,M,24.5,M,,0000*65
$GPGSA,A,3,,,,,,,,,,,,,1.500,2.121,2.121,*1a
$GPGSV,1,1,1,1,1,1,1,,,,,,,,,,,,*48
$GPGSV,1,1,1,1,1,1,1,,,,,,,,,,,,*48
$GPGGA,000218,03018.0852,N,09743.9091,W,1,8,1.1,1.2342021258875606,M,24.5,M,,0000*6d
$GPGSA,A,3,,,,,,,,,,,,,1.500,2.121,2.121,*1a
$GPGSV,1,1,1,1,1,1,1,,,,,,,,,,,,*48
$GPGSV,1,1,1,1,1,1,1,,,,,,,,,,,,*48
$GPGGA,000219,03018.0841,N,09743.9097,W,1,8,1.1,-0.36881215944373036,M,24.5,M,,0000*7c
$GPGSA,A,3,,,,,,,,,,,,,1.500,2.121,2.121,*1a
$GPGSV,1,1,1,1,1,1,1,,,,,,,,,,,,*48
$GPGSV,1,1,1,1,1,1,1,,,,,,,,,,,,*48
$GPGGA,000220,03018.0845,N,09743.9101,W,1,8,1.1,2.1986111433341256,M,24.5,M,,0000*6e
$GPGSA,A,3,,,,,,,,,,,,,1.500,2.121,2.121,*1a
$GPGSV,1,1,1,1,1,1,1,,,,,,,,,,,,*48
$GPGSV,1,1,1,1,1,1,1,,,,,,,,,,,,*48
$GPGGA,000221,03018.0860,N,09743.9097,W,1,8,1.1,1.987508325750412,M,24.5,M,,0000*5b
$GPGSA,A,3,,,,,,,,,,,,,1.500,2.121,2.121,*1a
$GPGSV,1,1,1,1,1,1,1,,,,,,,,,,,,*48
$GPGSV,1,1,1,1,1,1,1,,,,,,,,,,,,*48
$GPGGA,000222,03018.0841,N,09743.9096,W,1,8,1.1,1.662747470226484,M,24.5,M,,0000*5b
$GPGSA,A,3,,,,,,,,,,,,,1.500,2.121,2.121,*1a
$GPGSV,1,1,1,1,1,1,1,,,,,,,,,,,,*48
$GPGSV,1,1,1,1,1,1,1,,,,,,,,,,,,*48
$GPGGA,000223,03018.0846,N,09743.9102,W,1,8,1.1,2.832303538596344,M,24.5,M,,0000*57
$GPGSA,A,3,,,,,,,,,,,,,1.500,2.121,2.121,*1a
$GPGSV,1,1,1,1,1,1,1,,,,,,,,,,,,*48
$GPGSV,1,1,1,1,1,1,1,,,,,,,,,,,,*48
$GPGGA,000224,03018.0835,N,09743.9097,W,1,8,1.1,0.606960288078487,M,24.5,M,,0000*5c
$GPGSA,A,3,,,,,,,,,,,,,1.500,2.121,2.121,*1a
$GPGSV,1,1,1,1,1,1,1,,,,,,,,,,,,*48
$GPGSV,1,1,1,1,1,1,1,,,,,,,,,,,,*48
$GPGGA,000225,03018.0843,N,09743.9076,W,1,8,1.1,0.7057962425767959,M,24.5,M,,0000*62
$GPGSA,A,3,,,,,,,,,,,,,1.500,2.121,2.121,*1a
$GPGSV,1,1,1,1,1,1,1,,,,,,,,,,,,*48
$GPGSV,1,1,1,1,1,1,1,,,,,,,,,,,,*48
$GPGGA,000226,03018.0846,N,09743.9091,W,1,8,1.1,1.8476549550419339,M,24.5,M,,0000*64
$GPGSA,A,3,,,,,,,,,,,,,1.500,2.121,2.121,*1a
$GPGSV,1,1,1,1,1,1,1,,,,,,,,,,,,*48
$GPGSV,1,1,1,1,1,1,1,,,,,,,,,,,,*48
$GPGGA,000227,03018.0844,N,09743.9095,W,1,8,1.1,0.7571374481061863,M,24.5,M,,0000*61
$GPGSA,A,3,,,,,,,,,,,,,1.500,2.121,2.121,*1a
$GPGSV,1,1,1,1,1,1,1,,,,,,,,,,,,*48
$GPGSV,1,1,1,1,1,1,1,,,,,,,,,,,,*48
$GPGGA,000228,03018.0840,N,09743.9108,W,1,8,1.1,1.730420533290641,M,24.5,M,,0000*52
$GPGSA,A,3,,,,,,,,,,,,,1.500,2.121,2.121,*1a
$GPGSV,1,1,1,1,1,1,1,,,,,,,,,,,,*48
$GPGSV,1,1,1,1,1,1,1,,,,,,,,,,,,*48
$GPGGA,000229,03018.0844,N,09743.9096,W,1,8,1.1,1.5061602597942139,M,24.5,M,,0000*67
$GPGSA,A,3,,,,,,,,,,,,,1.500,2.121,2.121,*1a
$GPGSV,1,1,1,1,1,1,1,,,,,,,,,,,,*48
$GPGSV,1,1,1,1,1,1,1,,,,,,,,,,,,*48
$GPGGA,000230,03018.0840,N,09743.9101,W,1,8,1.1,0.198814054478897,M,24.5,M,,0000*5d
$GPGSA,A,3,,,,,,,,,,,,,1.500,2.121,2.121,*1a
$GPGSV,1,1,1,1,1,1,1,,,,,,,,,,,,*48
$GPGSV,1,1,1,1,1,1,1,,,,,,,,,,,,*48
$GPGGA,000231,03018.0837,N,09743.9097,W,1,8,1.1,3.0027322567473367,M,24.5,M,,0000*60
$GPGSA,A,3,,,,,,,,,,,,,1.500,2.121,2.121,*1a
$GPGSV,1,1,1,1,1,1,1,,,,,,,,,,,,*48
$GPGSV,1,1,1,1,1,1,1,,,,,,,,,,,,*48
$GPGGA,000232,03018.0842,N,09743.9106,W,1,8,1.1,-0.9055436532823329,M,24.5,M,,0000*4b
$GPGSA,A,3,,,,,,,,,,,,,1.500,2.121,2.121,*1a
$GPGSV,1,1,1,1,1,1,1,,,,,,,,,,,,*48
$GPGSV,1,1,1,1,1,1,1,,,,,,,,,,,,*48
$GPGGA,000233,03018.0841,N,09743.9102,W,1,8,1.1,-0.6692095210823026,M,24.5,M,,0000*49
$GPGSA,A,3,,,,,,,,,,,,,1.500,2.121,2.121,*1a
$GPGSV,1,1,1,1,1,1,1,,,,,,,,,,,,*48
$GPGSV,1,1,1,1,1,1,1,,,,,,,,,,,,*48
$GPGGA,000234,03018.0844,N,09743.9109,W,1,8,1.1,0.535138506460217,M,24.5,M,,0000*58
$GPGSA,A,3,,,,,,,,,,,,,1.500,2.121,2.121,*1a
$GPGSV,1,1,1,1,1,1,1,,,,,,,,,,,,*48
$GPGSV,1,1,1,1,1,1,1,,,,,,,,,,,,*48
$GPGGA,000235,03018.0840,N,09743.9081,W,1,8,1.1,1.9315883062188992,M,24.5,M,,0000*6b
$GPGSA,A,3,,,,,,,,,,,,,1.500,2.121,2.121,*1a
$GPGSV,1,1,1,1,1,1,1,,,,,,,,,,,,*48
$GPGSV,1,1,1,1,1,1,1,,,,,,,,,,,,*48
$GPGGA,000236,03018.0846,N,09743.9095,W,1,8,1.1,1.9871019053986334,M,24.5,M,,0000*6b
$GPGSA,A,3,,,,,,,,,,,,,1.500,2.121,2.121,*1a
$GPGSV,1,1,1,1,1,1,1,,,,,,,,,,,,*48
$GPGSV,1,1,1,1,1,1,1,,,,,,,,,,,,*48
$GPGGA,000237,03018.0845,N,09743.9098,W,1,8,1.1,0.6131076586968728,M,24.5,M,,0000*6a
$GPGSA,A,3,,,,,,,,,,,,,1.500,2.121,2.121,*1a
$GPGSV,1,1,1,1,1,1,1,,,,,,,,,,,,*48
$GPGSV,1,1,1,1,1,1,1,,,,,,,,,,,,*48
$GPGGA,000238,03018.0844,N,09743.9092,W,1,8,1.1,-0.47409985209906047,M,24.5,M,,0000*7b
$GPGSA,A,3,,,,,,,,,,,,,1.500,2.121,2.121,*1a
$GPGSV,1,1,1,1,1,1,1,,,,,,,,,,,,*48
$GPGSV,1,1,1,1,1,1,1,,,,,,,,,,,,*48
$GPGGA,000239,03018.0835,N,09743.9098,W,1,8,1.1,2.5143631968917894,M,24.5,M,,0000*6e
$GPGSA,A,3,,,,,,,,,,,,,1.500,2.121,2.121,*1a
$GPGSV,1,1,1,1,1,1,1,,,,,,,,,,,,*48
$GPGSV,1,1,1,1,1,1,1,,,,,,,,,,,,*48
$GPGGA,000240,03018.0838,N,09743.9089,W,1,8,1.1,3.626529744051663,M,24.5,M,,0000*5a
$GPGSA,A,3,,,,,,,,,,,,,1.500,2.121,2.121,*1a
$GPGSV,1,1,1,1,1,1,1,,,,,,,,,,,,*48
$GPGSV,1,1,1,1,1,1,1,,,,,,,,,,,,*48
$GPGGA,000241,03018.0846,N,09743.9098,W,1,8,1.1,3.2362969718079713,M,24.5,M,,0000*68
$GPGSA,A,3,,,,,,,,,,,,,1.500,2.121,2.121,*1a
$GPGSV,1,1,1,1,1,1,1,,,,,,,,,,,,*48
$GPGSV,1,1,1,1,1,1,1,,,,,,,,,,,,*48
$GPGGA,000242,03018.0842,N,09743.9089,W,1,8,1.1,2.132955791142346,M,24.5,M,,0000*58
$GPGSA,A,3,,,,,,,,,,,,,1.500,2.121,2.121,*1a
$GPGSV,1,1,1,1,1,1,1,,,,,,,,,,,,*48
$GPGSV,1,1,1,1,1,1,1,,,,,,,,,,,,*48
$GPGGA,000243,03018.0846,N,09743.9103,W,1,8,1.1,-0.31727100439461164,M,24.5,M,,0000*7e
$GPGSA,A,3,,,,,,,,,,,,,1.500,2.121,2.121,*1a
$GPGSV,1,1,1,1,1,1,1,,,,,,,,,,,,*48
$GPGSV,1,1,1,1,1,1,1,,,,,,,,,,,,*48
$GPGGA,000244,03018.0841,N,09743.9104,W,1,8,1.1,1.0588129359493426,M,24.5,M,,0000*64
$GPGSA,A,3,,,,,,,,,,,,,1.500,2.121,2.121,*1a
$GPGSV,1,1,1,1,1,1,1,,,,,,,,,,,,*48
$GPGSV,1,1,1,1,1,1,1,,,,,,,,,,,,*48
$GPGGA,000245,03018.0845,N,09743.9095,W,1,8,1.1,1.8665405892353597,M,24.5,M,,0000*67
$GPGSA,A,3,,,,,,,,,,,,,1.500,2.121,2.121,*1a
$GPGSV,1,1,1,1,1,1,1,,,,,,,,,,,,*48
$GPGSV,1,1,1,1,1,1,1,,,,,,,,,,,,*48
$GPGGA,000246,03018.0845,N,09743.9095,W,1,8,1.1,0.7444540029033853,M,24.5,M,,0000*63
$GPGSA,A,3,,,,,,,,,,,,,1.500,2.121,2.121,*1a
$GPGSV,1,1,1,1,1,1,1,,,,,,,,,,,,*48
$GPGSV,1,1,1,1,1,1,1,,,,,,,,,,,,*48
$GPGGA,000247,03018.0843,N,09743.9096,W,1,8,1.1,3.8733749639141206,M,24.5,M,,0000*6a
$GPGSA,A,3,,,,,,,,,,,,,1.500,2.121,2.121,*1a
$GPGSV,1,1,1,1,1,1,1,,,,,,,,,,,,*48
$GPGSV,1,1,1,1,1,1,1,,,,,,,,,,,,*48
$GPGGA,000248,03018.0845,N,09743.9095,W,1,8,1.1,-2.519599053613824,M,24.5,M,,0000*71
$GPGSA,A,3,,,,,,,,,,,,,1.500,2.121,2.121,*1a
$GPGSV,1,1,1,1,1,1,1,,,,,,,,,,,,*48
$GPGSV,1,1,1,1,1,1,1,,,,,,,,,,,,*48
$GPGGA,000249,03018.0845,N,09743.9089,W,1,8,1.1,0.2873260229272776,M,24.5,M,,0000*64
$GPGSA,A,3,,,,,,,,,,,,,1.500,2.121,2.121,*1a
$GPGSV,1,1,1,1,1,1,1,,,,,,,,,,,,*48
$GPGSV,1,1,1,1,1,1,1,,,,,,,,,,,,*48
$GPGGA,000250,03018.0841,N,09743.9090,W,1,8,1.1,4.711084792580678,M,24.5,M,,0000*55
$GPGSA,A,3,,,,,,,,,,,,,1.500,2.121,2.121,*1a
$GPGSV,1,1,1,1,1,1,1,,,,,,,,,,,,*48
$GPGSV,1,1,1,1,1,1,1,,,,,,,,,,,,*48
$GPGGA,000251,03018.0846,N,09743.9093,W,1,8,1.1,2.2191197749750753,M,24.5,M,,0000*68
$GPGSA,A,3,,,,,,,,,,,,,1.500,2.121,2.121,*1a
$GPGSV,1,1,1,1,1,1,1,,,,,,,,,,,,*48
$GPGSV,1,1,1,1,1,1,1,,,,,,,,,,,,*48
$GPGGA,000252,03018.0843,N,09743.9096,W,1,8,1.1,-1.4585448198175484,M,24.5,M,,0000*47
$GPGSA,A,3,,,,,,,,,,,,,1.500,2.121,2.121,*1a
$GPGSV,1,1,1,1,1,1,1,,,,,,,,,,,,*48
$GPGSV,1,1,1,1,1,1,1,,,,,,,,,,,,*48
$GPGGA,000253,03018.0844,N,09743.9095,W,1,8,1.1,5.569649539951851,M,24.5,M,,0000*5b
$GPGSA,A,3,,,,,,,,,,,,,1.500,2.121,2.121,*1a
$GPGSV,1,1,1,1,1,1,1,,,,,,,,,,,,*48
$GPGSV,1,1,1,1,1,1,1,,,,,,,,,,,,*48
$GPGGA,000254,03018.0844,N,09743.9093,W,1,8,1.1,2.178977102678825,M,24.5,M,,0000*50
$GPGSA,A,3,,,,,,,,,,,,,1.500,2.121,2.121,*1a
$GPGSV,1,1,1,1,1,1,1,,,,,,,,,,,,*48
$GPGSV,1,1,1,1,1,1,1,,,,,,,,,,,,*48
$GPGGA,000255,03018.0842,N,09743.9095,W,1,8,1.1,4.8249479610177834,M,24.5,M,,0000*61
$GPGSA,A,3,,,,,,,,,,,,,1.500,2.121,2.121,*1a
$GPGSV,1,1,1,1,1,1,1,,,,,,,,,,,,*48
$GPGSV,1,1,1,1,1,1,1,,,,,,,,,,,,*48
$GPGGA,000256,03018.0844,N,09743.9112,W,1,8,1.1,0.8590543736917843,M,24.5,M,,0000*6e
$GPGSA,A,3,,,,,,,,,,,,,1.500,2.121,2.121,*1a
$GPGSV,1,1,1,1,1,1,1,,,,,,,,,,,,*48
$GPGSV,1,1,1,1,1,1,1,,,,,,,,,,,,*48
$GPGGA,000257,03018.0842,N,09743.9102,W,1,8,1.1,0.26230471182436377,M,24.5,M,,0000*52
$GPGSA,A,3,,,,,,,,,,,,,1.500,2.121,2.121,*1a
$GPGSV,1,1,1,1,1,1,1,,,,,,,,,,,,*48
$GPGSV,1,1,1,1,1,1,1,,,,,,,,,,,,*48
$GPGGA,000258,03018.0824,N,09743.9086,W,1,8,1.1,0.1771574923274104,M,24.5,M,,0000*64
$GPGSA,A,3,,,,,,,,,,,,,1.500,2.121,2.121,*1a
$GPGSV,1,1,1,1,1,1,1,,,,,,,,,,,,*48
$GPGSV,1,1,1,1,1,1,1,,,,,,,,,,,,*48
$GPGGA,000259,03018.0854,N,09743.9106,W,1,8,1.1,1.462226243569728,M,24.5,M,,0000*54
$GPGSA,A,3,,,,,,,,,,,,,1.500,2.121,2.121,*1a
$GPGSV,1,1,1,1,1,1,1,,,,,,,,,,,,*48
$GPGSV,1,1,1,1,1,1,1,,,,,,,,,,,,*48
$GPGGA,000260,03018.0838,N,09743.9090,W,1,8,1.1,1.746508579716586,M,24.5,M,,0000*56
$GPGSA,A,3,,,,,,,,,,,,,1.500,2.121,2.121,*1a
$GPGSV,1,1,1,1,1,1,1,,,,,,,,,,,,*48
$GPGSV,1,1,1,1,1,1,1,,,,,,,,,,,,*48
$GPGGA,000261,03018.0842,N,09743.9098,W,1,8,1.1,2.206223848313098,M,24.5,M,,0000*5a
$GPGSA,A,3,,,,,,,,,,,,,1.500,2.121,2.121,*1a
$GPGSV,1,1,1,1,1,1,1,,,,,,,,,,,,*48
$GPGSV,1,1,1,1,1,1,1,,,,,,,,,,,,*48
$GPGGA,000262,03018.0845,N,09743.9094,W,1,8,1.1,1.5395689692118586,M,24.5,M,,0000*61
$GPGSA,A,3,,,,,,,,,,,,,1.500,2.121,2.121,*1a
$GPGSV,1,1,1,1,1,1,1,,,,,,,,,,,,*48
$GPGSV,1,1,1,1,1,1,1,,,,,,,,,,,,*48
$GPGGA,000263,03018.0846,N,09743.9095,W,1,8,1.1,2.425666272125535,M,24.5,M,,0000*55
$GPGSA,A,3,,,,,,,,,,,,,1.500,2.121,2.121,*1a
$GPGSV,1,1,1,1,1,1,1,,,,,,,,,,,,*48
$GPGSV,1,1,1,1,1,1,1,,,,,,,,,,,,*48
$GPGGA,000264,03018.0844,N,09743.9095,W,1,8,1.1,-1.7451846703281864,M,24.5,M,,0000*41
$GPGSA,A,3,,,,,,,,,,,,,1.500,2.121,2.121,*1a
$GPGSV,1,1,1,1,1,1,1,,,,,,,,,,,,*48
$GPGSV,1,1,1,1,1,1,1,,,,,,,,,,,,*48
$GPGGA,000265,03018.0843,N,09743.9092,W,1,8,1.1,1.8987440477165334,M,24.5,M,,0000*69
$GPGSA,A,3,,,,,,,,,,,,,1.500,2.121,2.121,*1a
$GPGSV,1,1,1,1,1,1,1,,,,,,,,,,,,*48
$GPGSV,1,1,1,1,1,1,1,,,,,,,,,,,,*48
$GPGGA,000266,03018.0842,N,09743.9088,W,1,8,1.1,3.55381323203118,M,24.5,M,,0000*6f
$GPGSA,A,3,,,,,,,,,,,,,1.500,2.121,2.121,*1a
$GPGSV,1,1,1,1,1,1,1,,,,,,,,,,,,*48
$GPGSV,1,1,1,1,1,1,1,,,,,,,,,,,,*48
$GPGGA,000267,03018.0841,N,09743.9095,W,1,8,1.1,2.5106063298269277,M,24.5,M,,0000*6a
$GPGSA,A,3,,,,,,,,,,,,,1.500,2.121,2.121,*1a
$GPGSV,1,1,1,1,1,1,1,,,,,,,,,,,,*48
$GPGSV,1,1,1,1,1,1,1,,,,,,,,,,,,*48
$GPGGA,000268,03018.0844,N,09743.9101,W,1,8,1.1,1.1043931739806685,M,24.5,M,,0000*61
$GPGSA,A,3,,,,,,,,,,,,,1.500,2.121,2.121,*1a
$GPGSV,1,1,1,1,1,1,1,,,,,,,,,,,,*48
$GPGSV,1,1,1,1,1,1,1,,,,,,,,,,,,*48
$GPGGA,000269,03018.0839,N,09743.9094,W,1,8,1.1,1.664330199941934,M,24.5,M,,0000*55
$GPGSA,A,3,,,,,,,,,,,,,1.500,2.121,2.121,*1a
$GPGSV,1,1,1,1,1,1,1,,,,,,,,,,,,*48
$GPGSV,1,1,1,1,1,1,1,,,,,,,,,,,,*48
$GPGGA,000270,03018.0837,N,09743.9100,W,1,8,1.1,0.49076502389315313,M,24.5,M,,0000*56
$GPGSA,A,3,,,,,,,,,,,,,1.500,2.121,2.121,*1a
$GPGSV,1,1,1,1,1,1,1,,,,,,,,,,,,*48
$GPGSV,1,1,1,1,1,1,1,,,,,,,,,,,,*48
$GPGGA,000271,03018.0842,N,09743.9091,W,1,8,1.1,1.8196462562385605,M,24.5,M,,0000*68
$GPGSA,A,3,,,,,,,,,,,,,1.500,2.121,2.121,*1a
$GPGSV,1,1,1,1,1,1,1,,,,,,,,,,,,*48
$GPGSV,1,1,1,1,1,1,1,,,,,,,,,,,,*48
$GPGGA,000272,03018.0841,N,09743.9086,W,1,8,1.1,1.8277013332902852,M,24.5,M,,0000*6a
$GPGSA,A,3,,,,,,,,,,,,,1.500,2.121,2.121,*1a
$GPGSV,1,1,1,1,1,1,1,,,,,,,,,,,,*48
$GPGSV,1,1,1,1,1,1,1,,,,,,,,,,,,*48
$GPGGA,000273,03018.0845,N,09743.9098,W,1,8,1.1,0.005628187369132176,M,24.5,M,,0000*64
$GPGSA,A,3,,,,,,,,,,,,,1.500,2.121,2.121,*1a
$GPGSV,1,1,1,1,1,1,1,,,,,,,,,,,,*48
$GPGSV,1,1,1,1,1,1,1,,,,,,,,,,,,*48
$GPGGA,000274,03018.0850,N,09743.9098,W,1,8,1.1,1.4281775270206927,M,24.5,M,,0000*6a
$GPGSA,A,3,,,,,,,,,,,,,1.500,2.121,2.121,*1a
$GPGSV,1,1,1,1,1,1,1,,,,,,,,,,,,*48
$GPGSV,1,1,1,1,1,1,1,,,,,,,,,,,,*48
$GPGGA,000275,03018.0840,N,09743.9095,W,1,8,1.1,3.8545473604284317,M,24.5,M,,0000*67
$GPGSA,A,3,,,,,,,,,,,,,1.500,2.121,2.121,*1a
$GPGSV,1,1,1,1,1,1,1,,,,,,,,,,,,*48
$GPGSV,1,1,1,1,1,1,1,,,,,,,,,,,,*48
$GPGGA,000276,03018.0860,N,09743.9098,W,1,8,1.1,-0.5277235137202747,M,24.5,M,,0000*42
$GPGSA,A,3,,,,,,,,,,,,,1.500,2.121,2.121,*1a
$GPGSV,1,1,1,1,1,1,1,,,,,,,,,,,,*48
$GPGSV,1,1,1,1,1,1,1,,,,,,,,,,,,*48
$GPGGA,000277,03018.0854,N,09743.9099,W,1,8,1.1,-0.8822140823650733,M,24.5,M,,0000*4f
$GPGSA,A,3,,,,,,,,,,,,,1.500,2.121,2.121,*1a
$GPGSV,1,1,1,1,1,1,1,,,,,,,,,,,,*48
$GPGSV,1,1,1,1,1,1,1,,,,,,,,,,,,*48
$GPGGA,000278,03018.0837,N,09743.9108,W,1,8,1.1,2.6822575274018567,M,24.5,M,,0000*6e
$GPGSA,A,3,,,,,,,,,,,,,1.500,2.121,2.121,*1a
$GPGSV,1,1,1,1,1,1,1,,,,,,,,,,,,*48
$GPGSV,1,1,1,1,1,1,1,,,,,,,,,,,,*48
$GPGGA,000279,03018.0845,N,09743.9097,W,1,8,1.1,-2.246978383130008,M,24.5,M,,0000*71
$GPGSA,A,3,,,,,,,,,,,,,1.500,2.121,2.121,*1a
$GPGSV,1,1,1,1,1,1,1,,,,,,,,,,,,*48
$GPGSV,1,1,1,1,1,1,1,,,,,,,,,,,,*48
$GPGGA,000280,03018.0839,N,09743.9086,W,1,8,1.1,0.9167188793434151,M,24.5,M,,0000*64
$GPGSA,A,3,,,,,,,,,,,,,1.500,2.121,2.121,*1a
$GPGSV,1,1,1,1,1,1,1,,,,,,,,,,,,*48
$GPGSV,1,1,1,1,1,1,1,,,,,,,,,,,,*48
$GPGGA,000281,03018.0843,N,09743.9093,W,1,8,1.1,0.855441523130358,M,24.5,M,,0000*5e
$GPGSA,A,3,,,,,,,,,,,,,1.500,2.121,2.121,*1a
$GPGSV,1,1,1,1,1,1,1,,,,,,,,,,,,*48
$GPGSV,1,1,1,1,1,1,1,,,,,,,,,,,,*48
$GPGGA,000282,03018.0854,N,09743.9077,W,1,8,1.1,2.5534070243609697,M,24.5,M,,0000*60
$GPGSA,A,3,,,,,,,,,,,,,1.500,2.121,2.121,*1a
$GPGSV,1,1,1,1,1,1,1,,,,,,,,,,,,*48
$GPGSV,1,1,1,1,1,1,1,,,,,,,,,,,,*48
$GPGGA,000283,03018.0844,N,09743.9095,W,1,8,1.1,2.1446511073620087,M,24.5,M,,0000*63
$GPGSA,A,3,,,,,,,,,,,,,1.500,2.121,2.121,*1a
$GPGSV,1,1,1,1,1,1,1,,,,,,,,,,,,*48
$GPGSV,1,1,1,1,1,1,1,,,,,,,,,,,,*48
$GPGGA,000284,03018.0846,N,09743.9097,W,1,8,1.1,1.698698913750537,M,24.5,M,,0000*52
$GPGSA,A,3,,,,,,,,,,,,,1.500,2.121,2.121,*1a
$GPGSV,1,1,1,1,1,1,1,,,,,,,,,,,,*48
$GPGSV,1,1,1,1,1,1,1,,,,,,,,,,,,*48
$GPGGA,000285,03018.0845,N,09743.9093,W,1,8,1.1,2.093294070133663,M,24.5,M,,0000*5f
$GPGSA,A,3,,,,,,,,,,,,,1.500,2.121,2.121,*1a
$GPGSV,1,1,1,1,1,1,1,,,,,,,,,,,,*48
$GPGSV,1,1,1,1,1,1,1,,,,,,,,,,,,*48
$GPGGA,000286,03018.0856,N,09743.9098,W,1,8,1.1,1.8636011626538038,M,24.5,M,,0000*6a
$GPGSA,A,3,,,,,,,,,,,,,1.500,2.121,2.121,*1a
$GPGSV,1,1,1,1,1,1,1,,,,,,,,,,,,*48
$GPGSV,1,1,1,1,1,1,1,,,,,,,,,,,,*48
$GPGGA,000287,03018.0849,N,09743.9102,W,1,8,1.1,-1.6183424894845926,M,24.5,M,,0000*49
$GPGSA,A,3,,,,,,,,,,,,,1.500,2.121,2.121,*1a
$GPGSV,1,1,1,1,1,1,1,,,,,,,,,,,,*48
$GPGSV,1,1,1,1,1,1,1,,,,,,,,,,,,*48
$GPGGA,000288,03018.0845,N,09743.9115,W,1,8,1.1,2.5269762101206252,M,24.5,M,,0000*67
$GPGSA,A,3,,,,,,,,,,,,,1.500,2.121,2.121,*1a
$GPGSV,1,1,1,1,1,1,1,,,,,,,,,,,,*48
$GPGSV,1,1,1,1,1,1,1,,,,,,,,,,,,*48
$GPGGA,000289,03018.0859,N,09743.9091,W,1,8,1.1,1.4522809652958661,M,24.5,M,,0000*6b
$GPGSA,A,3,,,,,,,,,,,,,1.500,2.121,2.121,*1a
$GPGSV,1,1,1,1,1,1,1,,,,,,,,,,,,*48
$GPGSV,1,1,1,1,1,1,1,,,,,,,,,,,,*48
$GPGGA,000290,03018.0841,N,09743.9098,W,1,8,1.1,4.330851525384139,M,24.5,M,,0000*58
$GPGSA,A,3,,,,,,,,,,,,,1.500,2.121,2.121,*1a
$GPGSV,1,1,1,1,1,1,1,,,,,,,,,,,,*48
$GPGSV,1,1,1,1,1,1,1,,,,,,,,,,,,*48
$GPGGA,000291,03018.0847,N,09743.9098,W,1,8,1.1,1.6242319467649353,M,24.5,M,,0000*62
$GPGSA,A,3,,,,,,,,,,,,,1.500,2.121,2.121,*1a
$GPGSV,1,1,1,1,1,1,1,,,,,,,,,,,,*48
$GPGSV,1,1,1,1,1,1,1,,,,,,,,,,,,*48
$GPGGA,000292,03018.0844,N,09743.9095,W,1,8,1.1,0.6279431689670536,M,24.5,M,,0000*66
$GPGSA,A,3,,,,,,,,,,,,,1.500,2.121,2.121,*1a
$GPGSV,1,1,1,1,1,1,1,,,,,,,,,,,,*48
$GPGSV,1,1,1,1,1,1,1,,,,,,,,,,,,*48
$GPGGA,000293,03018.0835,N,09743.9083,W,1,8,1.1,1.0377246299743232,M,24.5,M,,0000*6f
$GPGSA,A,3,,,,,,,,,,,,,1.500,2.121,2.121,*1a
$GPGSV,1,1,1,1,1,1,1,,,,,,,,,,,,*48
$GPGSV,1,1,1,1,1,1,1,,,,,,,,,,,,*48
$GPGGA,000294,03018.0849,N,09743.9094,W,1,8,1.1,1.4367998649126206,M,24.5,M,,0000*63
$GPGSA,A,3,,,,,,,,,,,,,1.500,2.121,2.121,*1a
$GPGSV,1,1,1,1,1,1,1,,,,,,,,,,,,*48
$GPGSV,1,1,1,1,1,1,1,,,,,,,,,,,,*48
$GPGGA,000295,03018.0855,N,09743.9103,W,1,8,1.1,-0.1610548216497678,M,24.5,M,,0000*41
$GPGSA,A,3,,,,,,,,,,,,,1.500,2.121,2.121,*1a
$GPGSV,1,1,1,1,1,1,1,,,,,,,,,,,,*48
$GPGSV,1,1,1,1,1,1,1,,,,,,,,,,,,*48
$GPGGA,000296,03018.0847,N,09743.9094,W,1,8,1.1,0.33732330545844924,M,24.5,M,,0000*5f
$GPGSA,A,3,,,,,,,,,,,,,1.500,2.121,2.121,*1a
$GPGSV,1,1,1,1,1,1,1,,,,,,,,,,,,*48
$GPGSV,1,1,1,1,1,1,1,,,,,,,,,,,,*48
