$GPGGA,000000,03018.1877,N,09744.1266,W,1,8,1.1,1.0227711147941547,M,24.5,M,,0000*6c
$GPGSA,A,3,,,,,,,,,,,,,1.500,2.121,2.121,*1a
$GPGSV,1,1,1,1,1,1,1,,,,,,,,,,,,*48
$GPGSV,1,1,1,1,1,1,1,,,,,,,,,,,,*48
$GPGGA,000001,03018.1876,N,09744.1283,W,1,8,1.1,-1.0453884648930005,M,24.5,M,,0000*41
$GPGSA,A,3,,,,,,,,,,,,,1.500,2.121,2.121,*1a
$GPGSV,1,1,1,1,1,1,1,,,,,,,,,,,,*48
$GPGSV,1,1,1,1,1,1,1,,,,,,,,,,,,*48
$GPGGA,000002,03018.1887,N,09744.1266,W,1,8,1.1,0.8552708811346256,M,24.5,M,,0000*65
$GPGSA,A,3,,,,,,,,,,,,,1.500,2.121,2.121,*1a
$GPGSV,1,1,1,1,1,1,1,,,,,,,,,,,,*48
$GPGSV,1,1,1,1,1,1,1,,,,,,,,,,,,*48
$GPGGA,000003,03018.1898,N,09744.1262,W,1,8,1.1,0.4497354297820597,M,24.5,M,,0000*62
$GPGSA,A,3,,,,,,,,,,,,,1.500,2.121,2.121,*1a
$GPGSV,1,1,1,1,1,1,1,,,,,,,,,,,,*48
$GPGSV,1,1,1,1,1,1,1,,,,,,,,,,,,*48
$GPGGA,000004,03018.1900,N,09744.1262,W,1,8,1.1,1.0990856844693506,M,24.5,M,,0000*69
$GPGSA,A,3,,,,,,,,,,,,,1.500,2.121,2.121,*1a
$GPGSV,1,1,1,1,1,1,1,,,,,,,,,,,,*48
$GPGSV,1,1,1,1,1,1,1,,,,,,,,,,,,*48
$GPGGA,000005,03018.1904,N,09744.1246,W,1,8,1.1,1.5355809977365844,M,24.5,M,,0000*60
$GPGSA,A,3,,,,,,,,,,,,,1.500,2.121,2.121,*1a
$GPGSV,1,1,1,1,1,1,1,,,,,,,,,,,,*48
$GPGSV,1,1,1,1,1,1,1,,,,,,,,,,,,*48
$GPGGA,000006,03018.1896,N,09744.1256,W,1,8,1.1,2.4785499626140677,M,24.5,M,,0000*66
$GPGSA,A,3,,,,,,,,,,,,,1.500,2.121,2.121,*1a
$GPGSV,1,1,1,1,1,1,1,,,,,,,,,,,,*48
$GPGSV,1,1,1,1,1,1,1,,,,,,,,,,,,*48
$GPGGA,000007,03018.1925,N,09744.1240,W,1,8,1.1,0.640338498611703,M,24.5,M,,0000*5d
$GPGSA,A,3,,,,,,,,,,,,,1.500,2.121,2.121,*1a
$GPGSV,1,1,1,1,1,1,1,,,,,,,,,,,,*48
$GPGSV,1,1,1,1,1,1,1,,,,,,,,,,,,*48
$GPGGA,000008,03018.1920,N,09744.1250,W,1,8,1.1,2.1340298881770936,M,24.5,M,,0000*61
$GPGSA,A,3,,,,,,,,,,,,,1.500,2.121,2.121,*1a
$GPGSV,1,1,1,1,1,1,1,,,,,,,,,,,,*48
$GPGSV,1,1,1,1,1,1,1,,,,,,,,,,,,*48
$GPGGA,000009,03018.1935,N,09744.1243,W,1,8,1.1,0.6377281701043322,M,24.5,M,,0000*60
$GPGSA,A,3,,,,,,,,,,,,,1.500,2.121,2.121,*1a
$GPGSV,1,1,1,1,1,1,1,,,,,,,,,,,,*48
$GPGSV,1,1,1,1,1,1,1,,,,,,,,,,,,*48
$GPGGA,000010,03018.1938,N,09744.1238,W,1,8,1.1,3.247494762537056,M,24.5,M,,0000*5f
$GPGSA,A,3,,,,,,,,,,,,,1.500,2.121,2.121,*1a
$GPGSV,1,1,1,1,1,1,1,,,,,,,,,,,,*48
$GPGSV,1,1,1,1,1,1,1,,,,,,,,,,,,*48
$GPGGA,000011,03018.1938,N,09744.1235,W,1,8,1.1,0.7693229097079407,M,24.5,M,,0000*68
$GPGSA,A,3,,,,,,,,,,,,,1.500,2.121,2.121,*1a
$GPGSV,1,1,1,1,1,1,1,,,,,,,,,,,,*48
$GPGSV,1,1,1,1,1,1,1,,,,,,,,,,,,*48
$GPGGA,000012,03018.1957,N,09744.1227,W,1,8,1.1,2.2904900186414787,M,24.5,M,,0000*62
$GPGSA,A,3,,,,,,,,,,,,,1.500,2.121,2.121,*1a
$GPGSV,1,1,1,1,1,1,1,,,,,,,,,,,,*48
$GPGSV,1,1,1,1,1,1,1,,,,,,,,,,,,*48
$GPGGA,000013,03018.1953,N,09744.1226,W,1,8,1.1,0.2512326321305596,M,24.5,M,,0000*6b
$GPGSA,A,3,,,,,,,,,,,,,1.500,2.121,2.121,*1a
$GPGSV,1,1,1,1,1,1,1,,,,,,,,,,,,*48
$GPGSV,1,1,1,1,1,1,1,,,,,,,,,,,,*48
$GPGGA,000014,03018.1951,N,09744.1224,W,1,8,1.1,2.2020900225551205,M,24.5,M,,0000*6b
$GPGSA,A,3,,,,,,,,,,,,,1.500,2.121,2.121,*1a
$GPGSV,1,1,1,1,1,1,1,,,,,,,,,,,,*48
$GPGSV,1,1,1,1,1,1,1,,,,,,,,,,,,*48
$GPGGA,000015,03018.1963,N,09744.1217,W,1,8,1.1,3.152231045476535,M,24.5,M,,0000*51
$GPGSA,A,3,,,,,,,,,,,,,1.500,2.121,2.121,*1a
$GPGSV,1,1,1,1,1,1,1,,,,,,,,,,,,*48
$GPGSV,1,1,1,1,1,1,1,,,,,,,,,,,,*48
$GPGGA,000016,03018.1968,N,09744.1214,W,1,8,1.1,4.949494201667256,M,24.5,M,,0000*54
$GPGSA,A,3,,,,,,,,,,,,,1.500,2.121,2.121,*1a
$GPGSV,1,1,1,1,1,1,1,,,,,,,,,,,,*48
$GPGSV,1,1,1,1,1,1,1,,,,,,,,,,,,*48
$GPGGA,000017,03018.1987,N,09744.1222,W,1,8,1.1,3.188459803012796,M,24.5,M,,0000*57
$GPGSA,A,3,,,,,,,,,,,,,1.500,2.121,2.121,*1a
$GPGSV,1,1,1,1,1,1,1,,,,,,,,,,,,*48
$GPGSV,1,1,1,1,1,1,1,,,,,,,,,,,,*48
$GPGGA,000018,03018.1974,N,09744.1212,W,1,8,1.1,0.8207537000059261,M,24.5,M,,0000*68
$GPGSA,A,3,,,,,,,,,,,,,1.500,2.121,2.121,*1a
$GPGSV,1,1,1,1,1,1,1,,,,,,,,,,,,*48
$GPGSV,1,1,1,1,1,1,1,,,,,,,,,,,,*48
$GPGGA,000019,03018.1982,N,09744.1209,W,1,8,1.1,-1.8603044727167122,M,24.5,M,,0000*4d
$GPGSA,A,3,,,,,,,,,,,,,1.500,2.121,2.121,*1a
$GPGSV,1,1,1,1,1,1,1,,,,,,,,,,,,*48
$GPGSV,1,1,1,1,1,1,1,,,,,,,,,,,,*48
$GPGGA,000020,03018.1987,N,09744.1206,W,1,8,1.1,3.0151985809849755,M,24.5,M,,0000*6e
$GPGSA,A,3,,,,,,,,,,,,,1.500,2.121,2.121,*1a
$GPGSV,1,1,1,1,1,1,1,,,,,,,,,,,,*48
$GPGSV,1,1,1,1,1,1,1,,,,,,,,,,,,*48
$GPGGA,000021,03018.1989,N,09744.1221,W,1,8,1.1,3.1701315314296536,M,24.5,M,,0000*6d
$GPGSA,A,3,,,,,,,,,,,,,1.500,2.121,2.121,*1a
$GPGSV,1,1,1,1,1,1,1,,,,,,,,,,,,*48
$GPGSV,1,1,1,1,1,1,1,,,,,,,,,,,,*48
$GPGGA,000022,03018.1999,N,09744.1201,W,1,8,1.1,0.8820415424886137,M,24.5,M,,0000*66
$GPGSA,A,3,,,,,,,,,,,,,1.500,2.121,2.121,*1a
$GPGSV,1,1,1,1,1,1,1,,,,,,,,,,,,*48
$GPGSV,1,1,1,1,1,1,1,,,,,,,,,,,,*48
$GPGGA,000023,03018.2014,N,09744.1186,W,1,8,1.1,-0.4370636574859086,M,24.5,M,,0000*45
$GPGSA,A,3,,,,,,,,,,,,,1.500,2.121,2.121,*1a
$GPGSV,1,1,1,1,1,1,1,,,,,,,,,,,,*48
$GPGSV,1,1,1,1,1,1,1,,,,,,,,,,,,*48
$GPGGA,000024,03018.2008,N,09744.1178,W,1,8,1.1,1.3329347657083892,M,24.5,M,,0000*6a
$GPGSA,A,3,,,,,,,,,,,,,1.500,2.121,2.121,*1a
$GPGSV,1,1,1,1,1,1,1,,,,,,,,,,,,*48
$GPGSV,1,1,1,1,1,1,1,,,,,,,,,,,,*48
$GPGGA,000025,03018.2014,N,09744.1187,W,1,8,1.1,3.1677892637567546,M,24.5,M,,0000*66
$GPGSA,A,3,,,,,,,,,,,,,1.500,2.121,2.121,*1a
$GPGSV,1,1,1,1,1,1,1,,,,,,,,,,,,*48
$GPGSV,1,1,1,1,1,1,1,,,,,,,,,,,,*48
$GPGGA,000026,03018.2020,N,09744.1194,W,1,8,1.1,1.3502308988668352,M,24.5,M,,0000*6d
$GPGSA,A,3,,,,,,,,,,,,,1.500,2.121,2.121,*1a
$GPGSV,1,1,1,1,1,1,1,,,,,,,,,,,,*48
$GPGSV,1,1,1,1,1,1,1,,,,,,,,,,,,*48
$GPGGA,000027,03018.2022,N,09744.1183,W,1,8,1.1,-1.1092997426800268,M,24.5,M,,0000*46
$GPGSA,A,3,,,,,,,,,,,,,1.500,2.121,2.121,*1a
$GPGSV,1,1,1,1,1,1,1,,,,,,,,,,,,*48
$GPGSV,1,1,1,1,1,1,1,,,,,,,,,,,,*48
$GPGGA,000028,03018.2029,N,09744.1177,W,1,8,1.1,3.8389738654848067,M,24.5,M,,0000*6b
$GPGSA,A,3,,,,,,,,,,,,,1.500,2.121,2.121,*1a
$GPGSV,1,1,1,1,1,1,1,,,,,,,,,,,,*48
$GPGSV,1,1,1,1,1,1,1,,,,,,,,,,,,*48
$GPGGA,000029,03018.2038,N,09744.1178,W,1,8,1.1,1.5891365711466077,M,24.5,M,,0000*65
$GPGSA,A,3,,,,,,,,,,,,,1.500,2.121,2.121,*1a
$GPGSV,1,1,1,1,1,1,1,,,,,,,,,,,,*48
$GPGSV,1,1,1,1,1,1,1,,,,,,,,,,,,*48
$GPGGA,000030,03018.2040,N,09744.1171,W,1,8,1.1,1.9999831376330874,M,24.5,M,,0000*6e
$GPGSA,A,3,,,,,,,,,,,,,1.500,2.121,2.121,*1a
$GPGSV,1,1,1,1,1,1,1,,,,,,,,,,,,*48
$GPGSV,1,1,1,1,1,1,1,,,,,,,,,,,,*48
$GPGGA,000031,03018.2045,N,09744.1169,W,1,8,1.1,0.4826285049986927,M,24.5,M,,0000*60
$GPGSA,A,3,,,,,,,,,,,,,1.500,2.121,2.121,*1a
$GPGSV,1,1,1,1,1,1,1,,,,,,,,,,,,*48
$GPGSV,1,1,1,1,1,1,1,,,,,,,,,,,,*48
$GPGGA,000032,03018.2048,N,09744.1166,W,1,8,1.1,-1.1798566040666816,M,24.5,M,,0000*43
$GPGSA,A,3,,,,,,,,,,,,,1.500,2.121,2.121,*1a
$GPGSV,1,1,1,1,1,1,1,,,,,,,,,,,,*48
$GPGSV,1,1,1,1,1,1,1,,,,,,,,,,,,*48
$GPGGA,000033,03018.2051,N,09744.1158,W,1,8,1.1,2.9672208717019153,M,24.5,M,,0000*68
$GPGSA,A,3,,,,,,,,,,,,,1.500,2.121,2.121,*1a
$GPGSV,1,1,1,1,1,1,1,,,,,,,,,,,,*48
$GPGSV,1,1,1,1,1,1,1,,,,,,,,,,,,*48
$GPGGA,000034,03018.2060,N,09744.1167,W,1,8,1.1,2.233113141069421,M,24.5,M,,0000*52
$GPGSA,A,3,,,,,,,,,,,,,1.500,2.121,2.121,*1a
$GPGSV,1,1,1,1,1,1,1,,,,,,,,,,,,*48
$GPGSV,1,1,1,1,1,1,1,,,,,,,,,,,,*48
$GPGGA,000035,03018.2062,N,09744.1158,W,1,8,1.1,2.350817756169631,M,24.5,M,,0000*56
$GPGSA,A,3,,,,,,,,,,,,,1.500,2.121,2.121,*1a
$GPGSV,1,1,1,1,1,1,1,,,,,,,,,,,,*48
$GPGSV,1,1,1,1,1,1,1,,,,,,,,,,,,*48
$GPGGA,000036,03018.2067,N,09744.1158,W,1,8,1.1,1.3513755146364843,M,24.5,M,,0000*6b
$GPGSA,A,3,,,,,,,,,,,,,1.500,2.121,2.121,*1a
$GPGSV,1,1,1,1,1,1,1,,,,,,,,,,,,*48
$GPGSV,1,1,1,1,1,1,1,,,,,,,,,,,,*48
$GPGGA,000037,03018.2077,N,09744.1151,W,1,8,1.1,2.503122651666903,M,24.5,M,,0000*56
$GPGSA,A,3,,,,,,,,,,,,,1.500,2.121,2.121,*1a
$GPGSV,1,1,1,1,1,1,1,,,,,,,,,,,,*48
$GPGSV,1,1,1,1,1,1,1,,,,,,,,,,,,*48
$GPGGA,000038,03018.2084,N,09744.1143,W,1,8,1.1,1.6415962219161346,M,24.5,M,,0000*6a
$GPGSA,A,3,,,,,,,,,,,,,1.500,2.121,2.121,*1a
$GPGSV,1,1,1,1,1,1,1,,,,,,,,,,,,*48
$GPGSV,1,1,1,1,1,1,1,,,,,,,,,,,,*48
$GPGGA,000039,03018.2097,N,09744.1151,W,1,8,1.1,0.851162521994015,M,24.5,M,,0000*52
$GPGSA,A,3,,,,,,,,,,,,,1.500,2.121,2.121,*1a
$GPGSV,1,1,1,1,1,1,1,,,,,,,,,,,,*48
$GPGSV,1,1,1,1,1,1,1,,,,,,,,,,,,*48
$GPGGA,000040,03018.2089,N,09744.1122,W,1,8,1.1,0.4419647943801157,M,24.5,M,,0000*61
$GPGSA,A,3,,,,,,,,,,,,,1.500,2.121,2.121,*1a
$GPGSV,1,1,1,1,1,1,1,,,,,,,,,,,,*48
$GPGSV,1,1,1,1,1,1,1,,,,,,,,,,,,*48
$GPGGA,000041,03018.2104,N,09744.1130,W,1,8,1.1,-0.1007975773684282,M,24.5,M,,0000*4f
$GPGSA,A,3,,,,,,,,,,,,,1.500,2.121,2.121,*1a
$GPGSV,1,1,1,1,1,1,1,,,,,,,,,,,,*48
$GPGSV,1,1,1,1,1,1,1,,,,,,,,,,,,*48
$GPGGA,000042,03018.2099,N,09744.1146,W,1,8,1.1,2.270910763674093,M,24.5,M,,0000*5b
$GPGSA,A,3,,,,,,,,,,,,,1.500,2.121,2.121,*1a
$GPGSV,1,1,1,1,1,1,1,,,,,,,,,,,,*48
$GPGSV,1,1,1,1,1,1,1,,,,,,,,,,,,*48
$GPGGA,000043,03018.2102,N,09744.1125,W,1,8,1.1,1.6197582540556983,M,24.5,M,,0000*6c
$GPGSA,A,3,,,,,,,,,,,,,1.500,2.121,2.121,*1a
$GPGSV,1,1,1,1,1,1,1,,,,,,,,,,,,*48
$GPGSV,1,1,1,1,1,1,1,,,,,,,,,,,,*48
$GPGGA,000044,03018.2114,N,09744.1125,W,1,8,1.1,0.8328375910146039,M,24.5,M,,0000*6f
$GPGSA,A,3,,,,,,,,,,,,,1.500,2.121,2.121,*1a
$GPGSV,1,1,1,1,1,1,1,,,,,,,,,,,,*48
$GPGSV,1,1,1,1,1,1,1,,,,,,,,,,,,*48
$GPGGA,000045,03018.2112,N,09744.1126,W,1,8,1.1,1.7969138516986471,M,24.5,M,,0000*67
$GPGSA,A,3,,,,,,,,,,,,,1.500,2.121,2.121,*1a
$GPGSV,1,1,1,1,1,1,1,,,,,,,,,,,,*48
$GPGSV,1,1,1,1,1,1,1,,,,,,,,,,,,*48
$GPGGA,000046,03018.2130,N,09744.1124,W,1,8,1.1,3.1476052520523288,M,24.5,M,,0000*6a
$GPGSA,A,3,,,,,,,,,,,,,1.500,2.121,2.121,*1a
$GPGSV,1,1,1,1,1,1,1,,,,,,,,,,,,*48
$GPGSV,1,1,1,1,1,1,1,,,,,,,,,,,,*48
$GPGGA,000047,03018.2135,N,09744.1126,W,1,8,1.1,-0.43003627809124034,M,24.5,M,,0000*76
$GPGSA,A,3,,,,,,,,,,,,,1.500,2.121,2.121,*1a
$GPGSV,1,1,1,1,1,1,1,,,,,,,,,,,,*48
$GPGSV,1,1,1,1,1,1,1,,,,,,,,,,,,*48
$GPGGA,000048,03018.2140,N,09744.1098,W,1,8,1.1,0.371959540483183,M,24.5,M,,0000*50
$GPGSA,A,3,,,,,,,,,,,,,1.500,2.121,2.121,*1a
$GPGSV,1,1,1,1,1,1,1,,,,,,,,,,,,*48
$GPGSV,1,1,1,1,1,1,1,,,,,,,,,,,,*48
$GPGGA,000049,03018.2134,N,09744.1106,W,1,8,1.1,1.7610537703453002,M,24.5,M,,0000*64
$GPGSA,A,3,,,,,,,,,,,,,1.500,2.121,2.121,*1a
$GPGSV,1,1,1,1,1,1,1,,,,,,,,,,,,*48
$GPGSV,1,1,1,1,1,1,1,,,,,,,,,,,,*48
$GPGGA,000050,03018.2144,N,09744.1108,W,1,8,1.1,1.358205517691696,M,24.5,M,,0000*5d
$GPGSA,A,3,,,,,,,,,,,,,1.500,2.121,2.121,*1a
$GPGSV,1,1,1,1,1,1,1,,,,,,,,,,,,*48
$GPGSV,1,1,1,1,1,1,1,,,,,,,,,,,,*48
$GPGGA,000051,03018.2141,N,09744.1115,W,1,8,1.1,1.1417112072110176,M,24.5,M,,0000*6c
$GPGSA,A,3,,,,,,,,,,,,,1.500,2.121,2.121,*1a
$GPGSV,1,1,1,1,1,1,1,,,,,,,,,,,,*48
$GPGSV,1,1,1,1,1,1,1,,,,,,,,,,,,*48
$GPGGA,000052,03018.2139,N,09744.1102,W,1,8,1.1,1.0353160644877373,M,24.5,M,,0000*69
$GPGSA,A,3,,,,,,,,,,,,,1.500,2.121,2.121,*1a
$GPGSV,1,1,1,1,1,1,1,,,,,,,,,,,,*48
$GPGSV,1,1,1,1,1,1,1,,,,,,,,,,,,*48
$GPGGA,000053,03018.2170,N,09744.1090,W,1,8,1.1,4.287862812788038,M,24.5,M,,0000*57
$GPGSA,A,3,,,,,,,,,,,,,1.500,2.121,2.121,*1a
$GPGSV,1,1,1,1,1,1,1,,,,,,,,,,,,*48
$GPGSV,1,1,1,1,1,1,1,,,,,,,,,,,,*48
$GPGGA,000054,03018.2163,N,09744.1088,W,1,8,1.1,0.3500649244609857,M,24.5,M,,0000*63
$GPGSA,A,3,,,,,,,,,,,,,1.500,2.121,2.121,*1a
$GPGSV,1,1,1,1,1,1,1,,,,,,,,,,,,*48
$GPGSV,1,1,1,1,1,1,1,,,,,,,,,,,,*48
$GPGGA,000055,03018.2159,N,09744.1088,W,1,8,1.1,2.030858701355441,M,24.5,M,,0000*51
$GPGSA,A,3,,,,,,,,,,,,,1.500,2.121,2.121,*1a
$GPGSV,1,1,1,1,1,1,1,,,,,,,,,,,,*48
$GPGSV,1,1,1,1,1,1,1,,,,,,,,,,,,*48
$GPGGA,000056,03018.2172,N,09744.1069,W,1,8,1.1,1.5086603316754545,M,24.5,M,,0000*6d
$GPGSA,A,3,,,,,,,,,,,,,1.500,2.121,2.121,*1a
$GPGSV,1,1,1,1,1,1,1,,,,,,,,,,,,*48
$GPGSV,1,1,1,1,1,1,1,,,,,,,,,,,,*48
$GPGGA,000057,03018.2185,N,09744.1091,W,1,8,1.1,2.415702005507466,M,24.5,M,,0000*5e
$GPGSA,A,3,,,,,,,,,,,,,1.500,2.121,2.121,*1a
$GPGSV,1,1,1,1,1,1,1,,,,,,,,,,,,*48
$GPGSV,1,1,1,1,1,1,1,,,,,,,,,,,,*48
$GPGGA,000058,03018.2186,N,09744.1080,W,1,8,1.1,1.6610923058593132,M,24.5,M,,0000*6c
$GPGSA,A,3,,,,,,,,,,,,,1.500,2.121,2.121,*1a
$GPGSV,1,1,1,1,1,1,1,,,,,,,,,,,,*48
$GPGSV,1,1,1,1,1,1,1,,,,,,,,,,,,*48
$GPGGA,000059,03018.2191,N,09744.1066,W,1,8,1.1,3.8140038340216593,M,24.5,M,,0000*61
$GPGSA,A,3,,,,,,,,,,,,,1.500,2.121,2.121,*1a
$GPGSV,1,1,1,1,1,1,1,,,,,,,,,,,,*48
$GPGSV,1,1,1,1,1,1,1,,,,,,,,,,,,*48
$GPGGA,000060,03018.2209,N,09744.1066,W,1,8,1.1,-1.1761661005895894,M,24.5,M,,0000*49
$GPGSA,A,3,,,,,,,,,,,,,1.500,2.121,2.121,*1a
$GPGSV,1,1,1,1,1,1,1,,,,,,,,,,,,*48
$GPGSV,1,1,1,1,1,1,1,,,,,,,,,,,,*48
$GPGGA,000061,03018.2191,N,09744.1061,W,1,8,1.1,1.9901291649880615,M,24.5,M,,0000*66
$GPGSA,A,3,,,,,,,,,,,,,1.500,2.121,2.121,*1a
$GPGSV,1,1,1,1,1,1,1,,,,,,,,,,,,*48
$GPGSV,1,1,1,1,1,1,1,,,,,,,,,,,,*48
$GPGGA,000062,03018.2205,N,09744.1059,W,1,8,1.1,1.802731478778326,M,24.5,M,,0000*59
$GPGSA,A,3,,,,,,,,,,,,,1.500,2.121,2.121,*1a
$GPGSV,1,1,1,1,1,1,1,,,,,,,,,,,,*48
$GPGSV,1,1,1,1,1,1,1,,,,,,,,,,,,*48
$GPGGA,000063,03018.2206,N,09744.1062,W,1,8,1.1,-0.1763140465119406,M,24.5,M,,0000*4e
$GPGSA,A,3,,,,,,,,,,,,,1.500,2.121,2.121,*1a
$GPGSV,1,1,1,1,1,1,1,,,,,,,,,,,,*48
$GPGSV,1,1,1,1,1,1,1,,,,,,,,,,,,*48
$GPGGA,000064,03018.2214,N,09744.1054,W,1,8,1.1,1.413739279692006,M,24.5,M,,0000*55
$GPGSA,A,3,,,,,,,,,,,,,1.500,2.121,2.121,*1a
$GPGSV,1,1,1,1,1,1,1,,,,,,,,,,,,*48
$GPGSV,1,1,1,1,1,1,1,,,,,,,,,,,,*48
$GPGGA,000065,03018.2218,N,09744.1060,W,1,8,1.1,-0.6647850655702627,M,24.5,M,,0000*41
$GPGSA,A,3,,,,,,,,,,,,,1.500,2.121,2.121,*1a
$GPGSV,1,1,1,1,1,1,1,,,,,,,,,,,,*48
$GPGSV,1,1,1,1,1,1,1,,,,,,,,,,,,*48
$GPGGA,000066,03018.2224,N,09744.1059,W,1,8,1.1,0.6130571542095611,M,24.5,M,,0000*6a
$GPGSA,A,3,,,,,,,,,,,,,1.500,2.121,2.121,*1a
$GPGSV,1,1,1,1,1,1,1,,,,,,,,,,,,*48
$GPGSV,1,1,1,1,1,1,1,,,,,,,,,,,,*48
$GPGGA,000067,03018.2234,N,09744.1061,W,1,8,1.1,1.680642968618735,M,24.5,M,,0000*59
$GPGSA,A,3,,,,,,,,,,,,,1.500,2.121,2.121,*1a
$GPGSV,1,1,1,1,1,1,1,,,,,,,,,,,,*48
$GPGSV,1,1,1,1,1,1,1,,,,,,,,,,,,*48
$GPGGA,000068,03018.2238,N,09744.1045,W,1,8,1.1,0.006386323720241283,M,24.5,M,,0000*68
$GPGSA,A,3,,,,,,,,,,,,,1.500,2.121,2.121,*1a
$GPGSV,1,1,1,1,1,1,1,,,,,,,,,,,,*48
$GPGSV,1,1,1,1,1,1,1,,,,,,,,,,,,*48
$GPGGA,000069,03018.2240,N,09744.1051,W,1,8,1.1,3.011886247892534,M,24.5,M,,0000*54
$GPGSA,A,3,,,,,,,,,,,,,1.500,2.121,2.121,*1a
$GPGSV,1,1,1,1,1,1,1,,,,,,,,,,,,*48
$GPGSV,1,1,1,1,1,1,1,,,,,,,,,,,,*48
$GPGGA,000070,03018.2260,N,09744.1040,W,1,8,1.1,2.261056646624202,M,24.5,M,,0000*5b
$GPGSA,A,3,,,,,,,,,,,,,1.500,2.121,2.121,*1a
$GPGSV,1,1,1,1,1,1,1,,,,,,,,,,,,*48
$GPGSV,1,1,1,1,1,1,1,,,,,,,,,,,,*48
$GPGGA,000071,03018.2255,N,09744.1036,W,1,8,1.1,2.833740554633595,M,24.5,M,,0000*5f
$GPGSA,A,3,,,,,,,,,,,,,1.500,2.121,2.121,*1a
$GPGSV,1,1,1,1,1,1,1,,,,,,,,,,,,*48
$GPGSV,1,1,1,1,1,1,1,,,,,,,,,,,,*48
$GPGGA,000072,03018.2263,N,09744.1030,W,1,8,1.1,-1.2080930366225364,M,24.5,M,,0000*46
$GPGSA,A,3,,,,,,,,,,,,,1.500,2.121,2.121,*1a
$GPGSV,1,1,1,1,1,1,1,,,,,,,,,,,,*48
$GPGSV,1,1,1,1,1,1,1,,,,,,,,,,,,*48
$GPGGA,000073,03018.2263,N,09744.1032,W,1,8,1.1,2.42374852890392,M,24.5,M,,0000*6c
$GPGSA,A,3,,,,,,,,,,,,,1.500,2.121,2.121,*1a
$GPGSV,1,1,1,1,1,1,1,,,,,,,,,,,,*48
$GPGSV,1,1,1,1,1,1,1,,,,,,,,,,,,*48
$GPGGA,000074,03018.2275,N,09744.1032,W,1,8,1.1,1.0965120317764194,M,24.5,M,,0000*6a
$GPGSA,A,3,,,,,,,,,,,,,1.500,2.121,2.121,*1a
$GPGSV,1,1,1,1,1,1,1,,,,,,,,,,,,*48
$GPGSV,1,1,1,1,1,1,1,,,,,,,,,,,,*48
$GPGGA,000075,03018.2272,N,09744.1028,W,1,8,1.1,2.7880178842817753,M,24.5,M,,0000*69
$GPGSA,A,3,,,,,,,,,,,,,1.500,2.121,2.121,*1a
$GPGSV,1,1,1,1,1,1,1,,,,,,,,,,,,*48
$GPGSV,1,1,1,1,1,1,1,,,,,,,,,,,,*48
$GPGGA,000076,03018.2288,N,09744.1023,W,1,8,1.1,0.2037519031412156,M,24.5,M,,0000*62
$GPGSA,A,3,,,,,,,,,,,,,1.500,2.121,2.121,*1a
$GPGSV,1,1,1,1,1,1,1,,,,,,,,,,,,*48
$GPGSV,1,1,1,1,1,1,1,,,,,,,,,,,,*48
$GPGGA,000077,03018.2275,N,09744.1009,W,1,8,1.1,3.4794382584094223,M,24.5,M,,0000*66
$GPGSA,A,3,,,,,,,,,,,,,1.500,2.121,2.121,*1a
$GPGSV,1,1,1,1,1,1,1,,,,,,,,,,,,*48
$GPGSV,1,1,1,1,1,1,1,,,,,,,,,,,,*48
$GPGGA,000078,03018.2299,N,09744.1022,W,1,8,1.1,3.171083392442749,M,24.5,M,,0000*5e
$GPGSA,A,3,,,,,,,,,,,,,1.500,2.121,2.121,*1a
$GPGSV,1,1,1,1,1,1,1,,,,,,,,,,,,*48
$GPGSV,1,1,1,1,1,1,1,,,,,,,,,,,,*48
$GPGGA,000079,03018.2297,N,09744.1012,W,1,8,1.1,1.8359024461892468,M,24.5,M,,0000*67
$GPGSA,A,3,,,,,,,,,,,,,1.500,2.121,2.121,*1a
$GPGSV,1,1,1,1,1,1,1,,,,,,,,,,,,*48
$GPGSV,1,1,1,1,1,1,1,,,,,,,,,,,,*48
$GPGGA,000080,03018.2303,N,09744.0995,W,1,8,1.1,0.8294108918175669,M,24.5,M,,0000*64
$GPGSA,A,3,,,,,,,,,,,,,1.500,2.121,2.121,*1a
$GPGSV,1,1,1,1,1,1,1,,,,,,,,,,,,*48
$GPGSV,1,1,1,1,1,1,1,,,,,,,,,,,,*48
$GPGGA,000081,03018.2307,N,09744.1009,W,1,8,1.1,-0.7776736320670818,M,24.5,M,,0000*47
$GPGSA,A,3,,,,,,,,,,,,,1.500,2.121,2.121,*1a
$GPGSV,1,1,1,1,1,1,1,,,,,,,,,,,,*48
$GPGSV,1,1,1,1,1,1,1,,,,,,,,,,,,*48
$GPGGA,000082,03018.2312,N,09744.1001,W,1,8,1.1,0.3971996086597429,M,24.5,M,,0000*67
$GPGSA,A,3,,,,,,,,,,,,,1.500,2.121,2.121,*1a
$GPGSV,1,1,1,1,1,1,1,,,,,,,,,,,,*48
$GPGSV,1,1,1,1,1,1,1,,,,,,,,,,,,*48
$GPGGA,000083,03018.2317,N,09744.0996,W,1,8,1.1,4.116087378179486,M,24.5,M,,0000*51
$GPGSA,A,3,,,,,,,,,,,,,1.500,2.121,2.121,*1a
$GPGSV,1,1,1,1,1,1,1,,,,,,,,,,,,*48
$GPGSV,1,1,1,1,1,1,1,,,,,,,,,,,,*48
$GPGGA,000084,03018.2305,N,09744.1000,W,1,8,1.1,2.572885402135838,M,24.5,M,,0000*53
$GPGSA,A,3,,,,,,,,,,,,,1.500,2.121,2.121,*1a
$GPGSV,1,1,1,1,1,1,1,,,,,,,,,,,,*48
$GPGSV,1,1,1,1,1,1,1,,,,,,,,,,,,*48
$GPGGA,000085,03018.2337,N,09744.0992,W,1,8,1.1,1.176057901471902,M,24.5,M,,0000*57
$GPGSA,A,3,,,,,,,,,,,,,1.500,2.121,2.121,*1a
$GPGSV,1,1,1,1,1,1,1,,,,,,,,,,,,*48
$GPGSV,1,1,1,1,1,1,1,,,,,,,,,,,,*48
$GPGGA,000086,03018.2335,N,09744.0987,W,1,8,1.1,0.9725413618680283,M,24.5,M,,0000*67
$GPGSA,A,3,,,,,,,,,,,,,1.500,2.121,2.121,*1a
$GPGSV,1,1,1,1,1,1,1,,,,,,,,,,,,*48
$GPGSV,1,1,1,1,1,1,1,,,,,,,,,,,,*48
$GPGGA,000087,03018.2352,N,09744.0983,W,1,8,1.1,4.146589025698069,M,24.5,M,,0000*58
$GPGSA,A,3,,,,,,,,,,,,,1.500,2.121,2.121,*1a
$GPGSV,1,1,1,1,1,1,1,,,,,,,,,,,,*48
$GPGSV,1,1,1,1,1,1,1,,,,,,,,,,,,*48
$GPGGA,000088,03018.2346,N,09744.0986,W,1,8,1.1,1.1683622915516008,M,24.5,M,,0000*67
$GPGSA,A,3,,,,,,,,,,,,,1.500,2.121,2.121,*1a
$GPGSV,1,1,1,1,1,1,1,,,,,,,,,,,,*48
$GPGSV,1,1,1,1,1,1,1,,,,,,,,,,,,*48
$GPGGA,000089,03018.2350,N,09744.0979,W,1,8,1.1,2.21373563613851,M,24.5,M,,0000*63
$GPGSA,A,3,,,,,,,,,,,,,1.500,2.121,2.121,*1a
$GPGSV,1,1,1,1,1,1,1,,,,,,,,,,,,*48
$GPGSV,1,1,1,1,1,1,1,,,,,,,,,,,,*48
$GPGGA,000090,03018.2354,N,09744.0976,W,1,8,1.1,1.6617670720753421,M,24.5,M,,0000*6b
$GPGSA,A,3,,,,,,,,,,,,,1.500,2.121,2.121,*1a
$GPGSV,1,1,1,1,1,1,1,,,,,,,,,,,,*48
$GPGSV,1,1,1,1,1,1,1,,,,,,,,,,,,*48
$GPGGA,000091,03018.2358,N,09744.0973,W,1,8,1.1,0.577395403131295,M,24.5,M,,0000*56
$GPGSA,A,3,,,,,,,,,,,,,1.500,2.121,2.121,*1a
$GPGSV,1,1,1,1,1,1,1,,,,,,,,,,,,*48
$GPGSV,1,1,1,1,1,1,1,,,,,,,,,,,,*48
$GPGGA,000092,03018.2370,N,09744.0965,W,1,8,1.1,0.9875835798383172,M,24.5,M,,0000*6f
$GPGSA,A,3,,,,,,,,,,,,,1.500,2.121,2.121,*1a
$GPGSV,1,1,1,1,1,1,1,,,,,,,,,,,,*48
$GPGSV,1,1,1,1,1,1,1,,,,,,,,,,,,*48
$GPGGA,000093,03018.2357,N,09744.0971,W,1,8,1.1,-0.7564602668297571,M,24.5,M,,0000*47
$GPGSA,A,3,,,,,,,,,,,,,1.500,2.121,2.121,*1a
$GPGSV,1,1,1,1,1,1,1,,,,,,,,,,,,*48
$GPGSV,1,1,1,1,1,1,1,,,,,,,,,,,,*48
$GPGGA,000094,03018.2377,N,09744.0966,W,1,8,1.1,2.6447543758402743,M,24.5,M,,0000*67
$GPGSA,A,3,,,,,,,,,,,,,1.500,2.121,2.121,*1a
$GPGSV,1,1,1,1,1,1,1,,,,,,,,,,,,*48
$GPGSV,1,1,1,1,1,1,1,,,,,,,,,,,,*48
$GPGGA,000095,03018.2374,N,09744.0970,W,1,8,1.1,1.3588986432848515,M,24.5,M,,0000*6f
$GPGSA,A,3,,,,,,,,,,,,,1.500,2.121,2.121,*1a
$GPGSV,1,1,1,1,1,1,1,,,,,,,,,,,,*48
$GPGSV,1,1,1,1,1,1,1,,,,,,,,,,,,*48
$GPGGA,000096,03018.2389,N,09744.0946,W,1,8,1.1,-1.070533098033704,M,24.5,M,,0000*77
$GPGSA,A,3,,,,,,,,,,,,,1.500,2.121,2.121,*1a
$GPGSV,1,1,1,1,1,1,1,,,,,,,,,,,,*48
$GPGSV,1,1,1,1,1,1,1,,,,,,,,,,,,*48
$GPGGA,000097,03018.2393,N,09744.0951,W,1,8,1.1,3.209855307088782,M,24.5,M,,0000*5e
$GPGSA,A,3,,,,,,,,,,,,,1.500,2.121,2.121,*1a
$GPGSV,1,1,1,1,1,1,1,,,,,,,,,,,,*48
$GPGSV,1,1,1,1,1,1,1,,,,,,,,,,,,*48
$GPGGA,000098,03018.2397,N,09744.0949,W,1,8,1.1,-1.7509608873521927,M,24.5,M,,0000*4a
$GPGSA,A,3,,,,,,,,,,,,,1.500,2.121,2.121,*1a
$GPGSV,1,1,1,1,1,1,1,,,,,,,,,,,,*48
$GPGSV,1,1,1,1,1,1,1,,,,,,,,,,,,*48
$GPGGA,000099,03018.2403,N,09744.0937,W,1,8,1.1,0.6478829274007627,M,24.5,M,,0000*6c
$GPGSA,A,3,,,,,,,,,,,,,1.500,2.121,2.121,*1a
$GPGSV,1,1,1,1,1,1,1,,,,,,,,,,,,*48
$GPGSV,1,1,1,1,1,1,1,,,,,,,,,,,,*48
$GPGGA,000100,03018.2401,N,09744.0940,W,1,8,1.1,0.06153302579529596,M,24.5,M,,0000*5b
$GPGSA,A,3,,,,,,,,,,,,,1.500,2.121,2.121,*1a
$GPGSV,1,1,1,1,1,1,1,,,,,,,,,,,,*48
$GPGSV,1,1,1,1,1,1,1,,,,,,,,,,,,*48
$GPGGA,000101,03018.2411,N,09744.0938,W,1,8,1.1,-0.3655009302937231,M,24.5,M,,0000*46
$GPGSA,A,3,,,,,,,,,,,,,1.500,2.121,2.121,*1a
$GPGSV,1,1,1,1,1,1,1,,,,,,,,,,,,*48
$GPGSV,1,1,1,1,1,1,1,,,,,,,,,,,,*48
$GPGGA,000102,03018.2418,N,09744.0937,W,1,8,1.1,2.2129334995838956,M,24.5,M,,0000*6c
$GPGSA,A,3,,,,,,,,,,,,,1.500,2.121,2.121,*1a
$GPGSV,1,1,1,1,1,1,1,,,,,,,,,,,,*48
$GPGSV,1,1,1,1,1,1,1,,,,,,,,,,,,*48
$GPGGA,000103,03018.2421,N,09744.0938,W,1,8,1.1,2.761596844346141,M,24.5,M,,0000*5f
$GPGSA,A,3,,,,,,,,,,,,,1.500,2.121,2.121,*1a
$GPGSV,1,1,1,1,1,1,1,,,,,,,,,,,,*48
$GPGSV,1,1,1,1,1,1,1,,,,,,,,,,,,*48
$GPGGA,000104,03018.2428,N,09744.0931,W,1,8,1.1,5.744621601308947,M,24.5,M,,0000*5c
$GPGSA,A,3,,,,,,,,,,,,,1.500,2.121,2.121,*1a
$GPGSV,1,1,1,1,1,1,1,,,,,,,,,,,,*48
$GPGSV,1,1,1,1,1,1,1,,,,,,,,,,,,*48
$GPGGA,000105,03018.2439,N,09744.0936,W,1,8,1.1,3.642458230165503,M,24.5,M,,0000*54
$GPGSA,A,3,,,,,,,,,,,,,1.500,2.121,2.121,*1a
$GPGSV,1,1,1,1,1,1,1,,,,,,,,,,,,*48
$GPGSV,1,1,1,1,1,1,1,,,,,,,,,,,,*48
$GPGGA,000106,03018.2438,N,09744.0922,W,1,8,1.1,0.3615454969602756,M,24.5,M,,0000*6e
$GPGSA,A,3,,,,,,,,,,,,,1.500,2.121,2.121,*1a
$GPGSV,1,1,1,1,1,1,1,,,,,,,,,,,,*48
$GPGSV,1,1,1,1,1,1,1,,,,,,,,,,,,*48
$GPGGA,000107,03018.2437,N,09744.0925,W,1,8,1.1,0.7121383208156439,M,24.5,M,,0000*6e
$GPGSA,A,3,,,,,,,,,,,,,1.500,2.121,2.121,*1a
$GPGSV,1,1,1,1,1,1,1,,,,,,,,,,,,*48
$GPGSV,1,1,1,1,1,1,1,,,,,,,,,,,,*48
$GPGGA,000108,03018.2448,N,09744.0914,W,1,8,1.1,1.9733584983607664,M,24.5,M,,0000*61
$GPGSA,A,3,,,,,,,,,,,,,1.500,2.121,2.121,*1a
$GPGSV,1,1,1,1,1,1,1,,,,,,,,,,,,*48
$GPGSV,1,1,1,1,1,1,1,,,,,,,,,,,,*48
$GPGGA,000109,03018.2455,N,09744.0919,W,1,8,1.1,3.0519768964199088,M,24.5,M,,0000*6d
$GPGSA,A,3,,,,,,,,,,,,,1.500,2.121,2.121,*1a
$GPGSV,1,1,1,1,1,1,1,,,,,,,,,,,,*48
$GPGSV,1,1,1,1,1,1,1,,,,,,,,,,,,*48
$GPGGA,000110,03018.2453,N,09744.0918,W,1,8,1.1,0.9152978720446656,M,24.5,M,,0000*60
$GPGSA,A,3,,,,,,,,,,,,,1.500,2.121,2.121,*1a
$GPGSV,1,1,1,1,1,1,1,,,,,,,,,,,,*48
$GPGSV,1,1,1,1,1,1,1,,,,,,,,,,,,*48
$GPGGA,000111,03018.2474,N,09744.0916,W,1,8,1.1,2.0463893962410085,M,24.5,M,,0000*61
$GPGSA,A,3,,,,,,,,,,,,,1.500,2.121,2.121,*1a
$GPGSV,1,1,1,1,1,1,1,,,,,,,,,,,,*48
$GPGSV,1,1,1,1,1,1,1,,,,,,,,,,,,*48
$GPGGA,000112,03018.2470,N,09744.0907,W,1,8,1.1,3.72848067907009,M,24.5,M,,0000*66
$GPGSA,A,3,,,,,,,,,,,,,1.500,2.121,2.121,*1a
$GPGSV,1,1,1,1,1,1,1,,,,,,,,,,,,*48
$GPGSV,1,1,1,1,1,1,1,,,,,,,,,,,,*48
$GPGGA,000113,03018.2478,N,09744.0905,W,1,8,1.1,4.550988220696659,M,24.5,M,,0000*57
$GPGSA,A,3,,,,,,,,,,,,,1.500,2.121,2.121,*1a
$GPGSV,1,1,1,1,1,1,1,,,,,,,,,,,,*48
$GPGSV,1,1,1,1,1,1,1,,,,,,,,,,,,*48
$GPGGA,000114,03018.2484,N,09744.0893,W,1,8,1.1,1.28000771178784,M,24.5,M,,0000*6c
$GPGSA,A,3,,,,,,,,,,,,,1.500,2.121,2.121,*1a
$GPGSV,1,1,1,1,1,1,1,,,,,,,,,,,,*48
$GPGSV,1,1,1,1,1,1,1,,,,,,,,,,,,*48
$GPGGA,000115,03018.2481,N,09744.0895,W,1,8,1.1,2.0161265004614246,M,24.5,M,,0000*63
$GPGSA,A,3,,,,,,,,,,,,,1.500,2.121,2.121,*1a
$GPGSV,1,1,1,1,1,1,1,,,,,,,,,,,,*48
$GPGSV,1,1,1,1,1,1,1,,,,,,,,,,,,*48
$GPGGA,000116,03018.2496,N,09744.0888,W,1,8,1.1,0.5545075604296735,M,24.5,M,,0000*65
$GPGSA,A,3,,,,,,,,,,,,,1.500,2.121,2.121,*1a
$GPGSV,1,1,1,1,1,1,1,,,,,,,,,,,,*48
$GPGSV,1,1,1,1,1,1,1,,,,,,,,,,,,*48
$GPGGA,000117,03018.2491,N,09744.0892,W,1,8,1.1,1.3969680462352756,M,24.5,M,,0000*6f
$GPGSA,A,3,,,,,,,,,,,,,1.500,2.121,2.121,*1a
$GPGSV,1,1,1,1,1,1,1,,,,,,,,,,,,*48
$GPGSV,1,1,1,1,1,1,1,,,,,,,,,,,,*48
$GPGGA,000118,03018.2502,N,09744.0885,W,1,8,1.1,0.45985249131731853,M,24.5,M,,0000*55
$GPGSA,A,3,,,,,,,,,,,,,1.500,2.121,2.121,*1a
$GPGSV,1,1,1,1,1,1,1,,,,,,,,,,,,*48
$GPGSV,1,1,1,1,1,1,1,,,,,,,,,,,,*48
$GPGGA,000119,03018.2506,N,09744.0883,W,1,8,1.1,0.31820171184635826,M,24.5,M,,0000*5a
$GPGSA,A,3,,,,,,,,,,,,,1.500,2.121,2.121,*1a
$GPGSV,1,1,1,1,1,1,1,,,,,,,,,,,,*48
$GPGSV,1,1,1,1,1,1,1,,,,,,,,,,,,*48
$GPGGA,000120,03018.2515,N,09744.0871,W,1,8,1.1,1.0502485763015539,M,24.5,M,,0000*67
$GPGSA,A,3,,,,,,,,,,,,,1.500,2.121,2.121,*1a
$GPGSV,1,1,1,1,1,1,1,,,,,,,,,,,,*48
$GPGSV,1,1,1,1,1,1,1,,,,,,,,,,,,*48
$GPGGA,000121,03018.2501,N,09744.0855,W,1,8,1.1,2.78380317094512,M,24.5,M,,0000*6b
$GPGSA,A,3,,,,,,,,,,,,,1.500,2.121,2.121,*1a
$GPGSV,1,1,1,1,1,1,1,,,,,,,,,,,,*48
$GPGSV,1,1,1,1,1,1,1,,,,,,,,,,,,*48
$GPGGA,000122,03018.2527,N,09744.0869,W,1,8,1.1,2.8409713571712025,M,24.5,M,,0000*69
$GPGSA,A,3,,,,,,,,,,,,,1.500,2.121,2.121,*1a
$GPGSV,1,1,1,1,1,1,1,,,,,,,,,,,,*48
$GPGSV,1,1,1,1,1,1,1,,,,,,,,,,,,*48
$GPGGA,000123,03018.2529,N,09744.0867,W,1,8,1.1,0.0051109275733729476,M,24.5,M,,0000*58
$GPGSA,A,3,,,,,,,,,,,,,1.500,2.121,2.121,*1a
$GPGSV,1,1,1,1,1,1,1,,,,,,,,,,,,*48
$GPGSV,1,1,1,1,1,1,1,,,,,,,,,,,,*48
$GPGGA,000124,03018.2538,N,09744.0872,W,1,8,1.1,1.9799844642962354,M,24.5,M,,0000*61
$GPGSA,A,3,,,,,,,,,,,,,1.500,2.121,2.121,*1a
$GPGSV,1,1,1,1,1,1,1,,,,,,,,,,,,*48
$GPGSV,1,1,1,1,1,1,1,,,,,,,,,,,,*48
$GPGGA,000125,03018.2537,N,09744.0874,W,1,8,1.1,1.5783704975222235,M,24.5,M,,0000*67
$GPGSA,A,3,,,,,,,,,,,,,1.500,2.121,2.121,*1a
$GPGSV,1,1,1,1,1,1,1,,,,,,,,,,,,*48
$GPGSV,1,1,1,1,1,1,1,,,,,,,,,,,,*48
$GPGGA,000126,03018.2536,N,09744.0867,W,1,8,1.1,1.9411277243044291,M,24.5,M,,0000*60
$GPGSA,A,3,,,,,,,,,,,,,1.500,2.121,2.121,*1a
$GPGSV,1,1,1,1,1,1,1,,,,,,,,,,,,*48
$GPGSV,1,1,1,1,1,1,1,,,,,,,,,,,,*48
$GPGGA,000127,03018.2549,N,09744.0855,W,1,8,1.1,2.8206470751677717,M,24.5,M,,0000*60
$GPGSA,A,3,,,,,,,,,,,,,1.500,2.121,2.121,*1a
$GPGSV,1,1,1,1,1,1,1,,,,,,,,,,,,*48
$GPGSV,1,1,1,1,1,1,1,,,,,,,,,,,,*48
$GPGGA,000128,03018.2555,N,09744.0849,W,1,8,1.1,2.3480871496086357,M,24.5,M,,0000*61
$GPGSA,A,3,,,,,,,,,,,,,1.500,2.121,2.121,*1a
$GPGSV,1,1,1,1,1,1,1,,,,,,,,,,,,*48
$GPGSV,1,1,1,1,1,1,1,,,,,,,,,,,,*48
$GPGGA,000129,03018.2550,N,09744.0849,W,1,8,1.1,0.13919553217844394,M,24.5,M,,0000*50
$GPGSA,A,3,,,,,,,,,,,,,1.500,2.121,2.121,*1a
$GPGSV,1,1,1,1,1,1,1,,,,,,,,,,,,*48
$GPGSV,1,1,1,1,1,1,1,,,,,,,,,,,,*48
$GPGGA,000130,03018.2566,N,09744.0844,W,1,8,1.1,1.246860412138361,M,24.5,M,,0000*54
$GPGSA,A,3,,,,,,,,,,,,,1.500,2.121,2.121,*1a
$GPGSV,1,1,1,1,1,1,1,,,,,,,,,,,,*48
$GPGSV,1,1,1,1,1,1,1,,,,,,,,,,,,*48
$GPGGA,000131,03018.2564,N,09744.0838,W,1,8,1.1,1.0643996118940269,M,24.5,M,,0000*64
$GPGSA,A,3,,,,,,,,,,,,,1.500,2.121,2.121,*1a
$GPGSV,1,1,1,1,1,1,1,,,,,,,,,,,,*48
$GPGSV,1,1,1,1,1,1,1,,,,,,,,,,,,*48
$GPGGA,000132,03018.2574,N,09744.0844,W,1,8,1.1,0.5038240815918853,M,24.5,M,,0000*69
$GPGSA,A,3,,,,,,,,,,,,,1.500,2.121,2.121,*1a
$GPGSV,1,1,1,1,1,1,1,,,,,,,,,,,,*48
$GPGSV,1,1,1,1,1,1,1,,,,,,,,,,,,*48
$GPGGA,000133,03018.2582,N,09744.0836,W,1,8,1.1,2.4583951037940324,M,24.5,M,,0000*67
$GPGSA,A,3,,,,,,,,,,,,,1.500,2.121,2.121,*1a
$GPGSV,1,1,1,1,1,1,1,,,,,,,,,,,,*48
$GPGSV,1,1,1,1,1,1,1,,,,,,,,,,,,*48
$GPGGA,000134,03018.2594,N,09744.0827,W,1,8,1.1,1.1223967351297346,M,24.5,M,,0000*6f
$GPGSA,A,3,,,,,,,,,,,,,1.500,2.121,2.121,*1a
$GPGSV,1,1,1,1,1,1,1,,,,,,,,,,,,*48
$GPGSV,1,1,1,1,1,1,1,,,,,,,,,,,,*48
$GPGGA,000135,03018.2583,N,09744.0818,W,1,8,1.1,2.195700208625996,M,24.5,M,,0000*50
$GPGSA,A,3,,,,,,,,,,,,,1.500,2.121,2.121,*1a
$GPGSV,1,1,1,1,1,1,1,,,,,,,,,,,,*48
$GPGSV,1,1,1,1,1,1,1,,,,,,,,,,,,*48
$GPGGA,000136,03018.2594,N,09744.0813,W,1,8,1.1,1.3588888841801345,M,24.5,M,,0000*62
$GPGSA,A,3,,,,,,,,,,,,,1.500,2.121,2.121,*1a
$GPGSV,1,1,1,1,1,1,1,,,,,,,,,,,,*48
$GPGSV,1,1,1,1,1,1,1,,,,,,,,,,,,*48
$GPGGA,000137,03018.2603,N,09744.0820,W,1,8,1.1,1.1011460635534323,M,24.5,M,,0000*65
$GPGSA,A,3,,,,,,,,,,,,,1.500,2.121,2.121,*1a
$GPGSV,1,1,1,1,1,1,1,,,,,,,,,,,,*48
$GPGSV,1,1,1,1,1,1,1,,,,,,,,,,,,*48
$GPGGA,000138,03018.2597,N,09744.0822,W,1,8,1.1,1.9899477567309922,M,24.5,M,,0000*67
$GPGSA,A,3,,,,,,,,,,,,,1.500,2.121,2.121,*1a
$GPGSV,1,1,1,1,1,1,1,,,,,,,,,,,,*48
$GPGSV,1,1,1,1,1,1,1,,,,,,,,,,,,*48
$GPGGA,000139,03018.2612,N,09744.0816,W,1,8,1.1,3.955193555475742,M,24.5,M,,0000*5f
$GPGSA,A,3,,,,,,,,,,,,,1.500,2.121,2.121,*1a
$GPGSV,1,1,1,1,1,1,1,,,,,,,,,,,,*48
$GPGSV,1,1,1,1,1,1,1,,,,,,,,,,,,*48
$GPGGA,000140,03018.2627,N,09744.0813,W,1,8,1.1,-0.6257330033388073,M,24.5,M,,0000*4d
$GPGSA,A,3,,,,,,,,,,,,,1.500,2.121,2.121,*1a
$GPGSV,1,1,1,1,1,1,1,,,,,,,,,,,,*48
$GPGSV,1,1,1,1,1,1,1,,,,,,,,,,,,*48
$GPGGA,000141,03018.2619,N,09744.0799,W,1,8,1.1,2.5209610473032122,M,24.5,M,,0000*6b
$GPGSA,A,3,,,,,,,,,,,,,1.500,2.121,2.121,*1a
$GPGSV,1,1,1,1,1,1,1,,,,,,,,,,,,*48
$GPGSV,1,1,1,1,1,1,1,,,,,,,,,,,,*48
$GPGGA,000142,03018.2632,N,09744.0802,W,1,8,1.1,0.635141462106567,M,24.5,M,,0000*50
$GPGSA,A,3,,,,,,,,,,,,,1.500,2.121,2.121,*1a
$GPGSV,1,1,1,1,1,1,1,,,,,,,,,,,,*48
$GPGSV,1,1,1,1,1,1,1,,,,,,,,,,,,*48
$GPGGA,000143,03018.2616,N,09744.0825,W,1,8,1.1,2.3880515254565493,M,24.5,M,,0000*6e
$GPGSA,A,3,,,,,,,,,,,,,1.500,2.121,2.121,*1a
$GPGSV,1,1,1,1,1,1,1,,,,,,,,,,,,*48
$GPGSV,1,1,1,1,1,1,1,,,,,,,,,,,,*48
$GPGGA,000144,03018.2638,N,09744.0798,W,1,8,1.1,-1.3472141257115524,M,24.5,M,,0000*4b
$GPGSA,A,3,,,,,,,,,,,,,1.500,2.121,2.121,*1a
$GPGSV,1,1,1,1,1,1,1,,,,,,,,,,,,*48
$GPGSV,1,1,1,1,1,1,1,,,,,,,,,,,,*48
$GPGGA,000145,03018.2650,N,09744.0775,W,1,8,1.1,1.8594880204773137,M,24.5,M,,0000*6a
$GPGSA,A,3,,,,,,,,,,,,,1.500,2.121,2.121,*1a
$GPGSV,1,1,1,1,1,1,1,,,,,,,,,,,,*48
$GPGSV,1,1,1,1,1,1,1,,,,,,,,,,,,*48
$GPGGA,000146,03018.2648,N,09744.0780,W,1,8,1.1,2.625987879476157,M,24.5,M,,0000*5e
$GPGSA,A,3,,,,,,,,,,,,,1.500,2.121,2.121,*1a
$GPGSV,1,1,1,1,1,1,1,,,,,,,,,,,,*48
$GPGSV,1,1,1,1,1,1,1,,,,,,,,,,,,*48
$GPGGA,000147,03018.2656,N,09744.0790,W,1,8,1.1,3.958188478819293,M,24.5,M,,0000*51
$GPGSA,A,3,,,,,,,,,,,,,1.500,2.121,2.121,*1a
$GPGSV,1,1,1,1,1,1,1,,,,,,,,,,,,*48
$GPGSV,1,1,1,1,1,1,1,,,,,,,,,,,,*48
$GPGGA,000148,03018.2660,N,09744.0788,W,1,8,1.1,-0.41205276171753713,M,24.5,M,,0000*78
$GPGSA,A,3,,,,,,,,,,,,,1.500,2.121,2.121,*1a
$GPGSV,1,1,1,1,1,1,1,,,,,,,,,,,,*48
$GPGSV,1,1,1,1,1,1,1,,,,,,,,,,,,*48
$GPGGA,000149,03018.2667,N,09744.0780,W,1,8,1.1,2.8466710375584996,M,24.5,M,,0000*6f
$GPGSA,A,3,,,,,,,,,,,,,1.500,2.121,2.121,*1a
$GPGSV,1,1,1,1,1,1,1,,,,,,,,,,,,*48
$GPGSV,1,1,1,1,1,1,1,,,,,,,,,,,,*48
$GPGGA,000150,03018.2666,N,09744.0775,W,1,8,1.1,2.399077964097784,M,24.5,M,,0000*55
$GPGSA,A,3,,,,,,,,,,,,,1.500,2.121,2.121,*1a
$GPGSV,1,1,1,1,1,1,1,,,,,,,,,,,,*48
$GPGSV,1,1,1,1,1,1,1,,,,,,,,,,,,*48
$GPGGA,000151,03018.2675,N,09744.0777,W,1,8,1.1,2.2630534272950955,M,24.5,M,,0000*6e
$GPGSA,A,3,,,,,,,,,,,,,1.500,2.121,2.121,*1a
$GPGSV,1,1,1,1,1,1,1,,,,,,,,,,,,*48
$GPGSV,1,1,1,1,1,1,1,,,,,,,,,,,,*48
$GPGGA,000152,03018.2684,N,09744.0771,W,1,8,1.1,2.551330689646062,M,24.5,M,,0000*54
$GPGSA,A,3,,,,,,,,,,,,,1.500,2.121,2.121,*1a
$GPGSV,1,1,1,1,1,1,1,,,,,,,,,,,,*48
$GPGSV,1,1,1,1,1,1,1,,,,,,,,,,,,*48
$GPGGA,000153,03018.2686,N,09744.0767,W,1,8,1.1,3.2849963472771604,M,24.5,M,,0000*6e
$GPGSA,A,3,,,,,,,,,,,,,1.500,2.121,2.121,*1a
$GPGSV,1,1,1,1,1,1,1,,,,,,,,,,,,*48
$GPGSV,1,1,1,1,1,1,1,,,,,,,,,,,,*48
$GPGGA,000154,03018.2705,N,09744.0769,W,1,8,1.1,2.162492569262675,M,24.5,M,,0000*57
$GPGSA,A,3,,,,,,,,,,,,,1.500,2.121,2.121,*1a
$GPGSV,1,1,1,1,1,1,1,,,,,,,,,,,,*48
$GPGSV,1,1,1,1,1,1,1,,,,,,,,,,,,*48
$GPGGA,000155,03018.2693,N,09744.0755,W,1,8,1.1,0.06520375074779206,M,24.5,M,,0000*59
$GPGSA,A,3,,,,,,,,,,,,,1.500,2.121,2.121,*1a
$GPGSV,1,1,1,1,1,1,1,,,,,,,,,,,,*48
$GPGSV,1,1,1,1,1,1,1,,,,,,,,,,,,*48
$GPGGA,000156,03018.2697,N,09744.0762,W,1,8,1.1,1.618880197645783,M,24.5,M,,0000*5e
$GPGSA,A,3,,,,,,,,,,,,,1.500,2.121,2.121,*1a
$GPGSV,1,1,1,1,1,1,1,,,,,,,,,,,,*48
$GPGSV,1,1,1,1,1,1,1,,,,,,,,,,,,*48
$GPGGA,000157,03018.2702,N,09744.0755,W,1,8,1.1,-0.915217186307983,M,24.5,M,,0000*71
$GPGSA,A,3,,,,,,,,,,,,,1.500,2.121,2.121,*1a
$GPGSV,1,1,1,1,1,1,1,,,,,,,,,,,,*48
$GPGSV,1,1,1,1,1,1,1,,,,,,,,,,,,*48
$GPGGA,000158,03018.2725,N,09744.0755,W,1,8,1.1,0.09553244330511523,M,24.5,M,,0000*5f
$GPGSA,A,3,,,,,,,,,,,,,1.500,2.121,2.121,*1a
$GPGSV,1,1,1,1,1,1,1,,,,,,,,,,,,*48
$GPGSV,1,1,1,1,1,1,1,,,,,,,,,,,,*48
$GPGGA,000159,03018.2718,N,09744.0768,W,1,8,1.1,2.4056936604622976,M,24.5,M,,0000*62
$GPGSA,A,3,,,,,,,,,,,,,1.500,2.121,2.121,*1a
$GPGSV,1,1,1,1,1,1,1,,,,,,,,,,,,*48
$GPGSV,1,1,1,1,1,1,1,,,,,,,,,,,,*48
$GPGGA,000160,03018.2722,N,09744.0749,W,1,8,1.1,3.0366674034792664,M,24.5,M,,0000*6d
$GPGSA,A,3,,,,,,,,,,,,,1.500,2.121,2.121,*1a
$GPGSV,1,1,1,1,1,1,1,,,,,,,,,,,,*48
$GPGSV,1,1,1,1,1,1,1,,,,,,,,,,,,*48
$GPGGA,000161,03018.2727,N,09744.0743,W,1,8,1.1,-0.5091663606172618,M,24.5,M,,0000*41
$GPGSA,A,3,,,,,,,,,,,,,1.500,2.121,2.121,*1a
$GPGSV,1,1,1,1,1,1,1,,,,,,,,,,,,*48
$GPGSV,1,1,1,1,1,1,1,,,,,,,,,,,,*48
$GPGGA,000162,03018.2731,N,09744.0743,W,1,8,1.1,1.9145659001722355,M,24.5,M,,0000*6a
$GPGSA,A,3,,,,,,,,,,,,,1.500,2.121,2.121,*1a
$GPGSV,1,1,1,1,1,1,1,,,,,,,,,,,,*48
$GPGSV,1,1,1,1,1,1,1,,,,,,,,,,,,*48
$GPGGA,000163,03018.2740,N,09744.0737,W,1,8,1.1,1.7597653367865302,M,24.5,M,,0000*6c
$GPGSA,A,3,,,,,,,,,,,,,1.500,2.121,2.121,*1a
$GPGSV,1,1,1,1,1,1,1,,,,,,,,,,,,*48
$GPGSV,1,1,1,1,1,1,1,,,,,,,,,,,,*48
$GPGGA,000164,03018.2739,N,09744.0757,W,1,8,1.1,-0.7708165247180201,M,24.5,M,,0000*4a
$GPGSA,A,3,,,,,,,,,,,,,1.500,2.121,2.121,*1a
$GPGSV,1,1,1,1,1,1,1,,,,,,,,,,,,*48
$GPGSV,1,1,1,1,1,1,1,,,,,,,,,,,,*48
$GPGGA,000165,03018.2757,N,09744.0729,W,1,8,1.1,1.812613297956486,M,24.5,M,,0000*54
$GPGSA,A,3,,,,,,,,,,,,,1.500,2.121,2.121,*1a
$GPGSV,1,1,1,1,1,1,1,,,,,,,,,,,,*48
$GPGSV,1,1,1,1,1,1,1,,,,,,,,,,,,*48
$GPGGA,000166,03018.2761,N,09744.0730,W,1,8,1.1,1.0287295681875286,M,24.5,M,,0000*63
$GPGSA,A,3,,,,,,,,,,,,,1.500,2.121,2.121,*1a
$GPGSV,1,1,1,1,1,1,1,,,,,,,,,,,,*48
$GPGSV,1,1,1,1,1,1,1,,,,,,,,,,,,*48
$GPGGA,000167,03018.2763,N,09744.0719,W,1,8,1.1,1.8420512155005522,M,24.5,M,,0000*68
$GPGSA,A,3,,,,,,,,,,,,,1.500,2.121,2.121,*1a
$GPGSV,1,1,1,1,1,1,1,,,,,,,,,,,,*48
$GPGSV,1,1,1,1,1,1,1,,,,,,,,,,,,*48
$GPGGA,000168,03018.2758,N,09744.0731,W,1,8,1.1,0.5277717224051645,M,24.5,M,,0000*6c
$GPGSA,A,3,,,,,,,,,,,,,1.500,2.121,2.121,*1a
$GPGSV,1,1,1,1,1,1,1,,,,,,,,,,,,*48
$GPGSV,1,1,1,1,1,1,1,,,,,,,,,,,,*48
$GPGGA,000169,03018.2769,N,09744.0721,W,1,8,1.1,5.264063713710926,M,24.5,M,,0000*51
$GPGSA,A,3,,,,,,,,,,,,,1.500,2.121,2.121,*1a
$GPGSV,1,1,1,1,1,1,1,,,,,,,,,,,,*48
$GPGSV,1,1,1,1,1,1,1,,,,,,,,,,,,*48
$GPGGA,000170,03018.2773,N,09744.0719,W,1,8,1.1,-0.22219088663048514,M,24.5,M,,0000*7f
$GPGSA,A,3,,,,,,,,,,,,,1.500,2.121,2.121,*1a
$GPGSV,1,1,1,1,1,1,1,,,,,,,,,,,,*48
$GPGSV,1,1,1,1,1,1,1,,,,,,,,,,,,*48
$GPGGA,000171,03018.2780,N,09744.0710,W,1,8,1.1,1.41713344736246,M,24.5,M,,0000*63
$GPGSA,A,3,,,,,,,,,,,,,1.500,2.121,2.121,*1a
$GPGSV,1,1,1,1,1,1,1,,,,,,,,,,,,*48
$GPGSV,1,1,1,1,1,1,1,,,,,,,,,,,,*48
$GPGGA,000172,03018.2781,N,09744.0711,W,1,8,1.1,5.173301308559629,M,24.5,M,,0000*5d
$GPGSA,A,3,,,,,,,,,,,,,1.500,2.121,2.121,*1a
$GPGSV,1,1,1,1,1,1,1,,,,,,,,,,,,*48
$GPGSV,1,1,1,1,1,1,1,,,,,,,,,,,,*48
$GPGGA,000173,03018.2805,N,09744.0692,W,1,8,1.1,2.947017256249808,M,24.5,M,,0000*58
$GPGSA,A,3,,,,,,,,,,,,,1.500,2.121,2.121,*1a
$GPGSV,1,1,1,1,1,1,1,,,,,,,,,,,,*48
$GPGSV,1,1,1,1,1,1,1,,,,,,,,,,,,*48
$GPGGA,000174,03018.2797,N,09744.0694,W,1,8,1.1,0.33796872960711455,M,24.5,M,,0000*54
$GPGSA,A,3,,,,,,,,,,,,,1.500,2.121,2.121,*1a
$GPGSV,1,1,1,1,1,1,1,,,,,,,,,,,,*48
$GPGSV,1,1,1,1,1,1,1,,,,,,,,,,,,*48
$GPGGA,000175,03018.2800,N,09744.0700,W,1,8,1.1,-0.31653085861527996,M,24.5,M,,0000*7a
$GPGSA,A,3,,,,,,,,,,,,,1.500,2.121,2.121,*1a
$GPGSV,1,1,1,1,1,1,1,,,,,,,,,,,,*48
$GPGSV,1,1,1,1,1,1,1,,,,,,,,,,,,*48
$GPGGA,000176,03018.2808,N,09744.0689,W,1,8,1.1,3.4412940710782034,M,24.5,M,,0000*6b
$GPGSA,A,3,,,,,,,,,,,,,1.500,2.121,2.121,*1a
$GPGSV,1,1,1,1,1,1,1,,,,,,,,,,,,*48
$GPGSV,1,1,1,1,1,1,1,,,,,,,,,,,,*48
$GPGGA,000177,03018.2813,N,09744.0690,W,1,8,1.1,1.8595250251542383,M,24.5,M,,0000*63
$GPGSA,A,3,,,,,,,,,,,,,1.500,2.121,2.121,*1a
$GPGSV,1,1,1,1,1,1,1,,,,,,,,,,,,*48
$GPGSV,1,1,1,1,1,1,1,,,,,,,,,,,,*48
$GPGGA,000178,03018.2820,N,09744.0688,W,1,8,1.1,-1.3554509712118081,M,24.5,M,,0000*4d
$GPGSA,A,3,,,,,,,,,,,,,1.500,2.121,2.121,*1a
$GPGSV,1,1,1,1,1,1,1,,,,,,,,,,,,*48
$GPGSV,1,1,1,1,1,1,1,,,,,,,,,,,,*48
$GPGGA,000179,03018.2828,N,09744.0700,W,1,8,1.1,1.1096287766241923,M,24.5,M,,0000*6d
$GPGSA,A,3,,,,,,,,,,,,,1.500,2.121,2.121,*1a
$GPGSV,1,1,1,1,1,1,1,,,,,,,,,,,,*48
$GPGSV,1,1,1,1,1,1,1,,,,,,,,,,,,*48
$GPGGA,000180,03018.2827,N,09744.0678,W,1,8,1.1,2.8132748736491555,M,24.5,M,,0000*6a
$GPGSA,A,3,,,,,,,,,,,,,1.500,2.121,2.121,*1a
$GPGSV,1,1,1,1,1,1,1,,,,,,,,,,,,*48
$GPGSV,1,1,1,1,1,1,1,,,,,,,,,,,,*48
$GPGGA,000181,03018.2841,N,09744.0678,W,1,8,1.1,1.6481407637009826,M,24.5,M,,0000*6f
$GPGSA,A,3,,,,,,,,,,,,,1.500,2.121,2.121,*1a
$GPGSV,1,1,1,1,1,1,1,,,,,,,,,,,,*48
$GPGSV,1,1,1,1,1,1,1,,,,,,,,,,,,*48
$GPGGA,000182,03018.2841,N,09744.0675,W,1,8,1.1,2.195207904014822,M,24.5,M,,0000*55
$GPGSA,A,3,,,,,,,,,,,,,1.500,2.121,2.121,*1a
$GPGSV,1,1,1,1,1,1,1,,,,,,,,,,,,*48
$GPGSV,1,1,1,1,1,1,1,,,,,,,,,,,,*48
$GPGGA,000183,03018.2848,N,09744.0686,W,1,8,1.1,1.2622753834326417,M,24.5,M,,0000*65
$GPGSA,A,3,,,,,,,,,,,,,1.500,2.121,2.121,*1a
$GPGSV,1,1,1,1,1,1,1,,,,,,,,,,,,*48
$GPGSV,1,1,1,1,1,1,1,,,,,,,,,,,,*48
$GPGGA,000184,03018.2852,N,09744.0666,W,1,8,1.1,3.314949647439154,M,24.5,M,,0000*53
$GPGSA,A,3,,,,,,,,,,,,,1.500,2.121,2.121,*1a
$GPGSV,1,1,1,1,1,1,1,,,,,,,,,,,,*48
$GPGSV,1,1,1,1,1,1,1,,,,,,,,,,,,*48
$GPGGA,000185,03018.2854,N,09744.0658,W,1,8,1.1,1.9445966706738225,M,24.5,M,,0000*6f
$GPGSA,A,3,,,,,,,,,,,,,1.500,2.121,2.121,*1a
$GPGSV,1,1,1,1,1,1,1,,,,,,,,,,,,*48
$GPGSV,1,1,1,1,1,1,1,,,,,,,,,,,,*48
$GPGGA,000186,03018.2858,N,09744.0667,W,1,8,1.1,1.7749112623637058,M,24.5,M,,0000*66
$GPGSA,A,3,,,,,,,,,,,,,1.500,2.121,2.121,*1a
$GPGSV,1,1,1,1,1,1,1,,,,,,,,,,,,*48
$GPGSV,1,1,1,1,1,1,1,,,,,,,,,,,,*48
$GPGGA,000187,03018.2855,N,09744.0666,W,1,8,1.1,4.117328191459627,M,24.5,M,,0000*55
$GPGSA,A,3,,,,,,,,,,,,,1.500,2.121,2.121,*1a
$GPGSV,1,1,1,1,1,1,1,,,,,,,,,,,,*48
$GPGSV,1,1,1,1,1,1,1,,,,,,,,,,,,*48
$GPGGA,000188,03018.2870,N,09744.0656,W,1,8,1.1,-1.7828069027944382,M,24.5,M,,0000*45
$GPGSA,A,3,,,,,,,,,,,,,1.500,2.121,2.121,*1a
$GPGSV,1,1,1,1,1,1,1,,,,,,,,,,,,*48
$GPGSV,1,1,1,1,1,1,1,,,,,,,,,,,,*48
$GPGGA,000189,03018.2882,N,09744.0635,W,1,8,1.1,3.4657225451227376,M,24.5,M,,0000*6c
$GPGSA,A,3,,,,,,,,,,,,,1.500,2.121,2.121,*1a
$GPGSV,1,1,1,1,1,1,1,,,,,,,,,,,,*48
$GPGSV,1,1,1,1,1,1,1,,,,,,,,,,,,*48
$GPGGA,000190,03018.2900,N,09744.0654,W,1,8,1.1,-0.5941107670444161,M,24.5,M,,0000*4a
$GPGSA,A,3,,,,,,,,,,,,,1.500,2.121,2.121,*1a
$GPGSV,1,1,1,1,1,1,1,,,,,,,,,,,,*48
$GPGSV,1,1,1,1,1,1,1,,,,,,,,,,,,*48
$GPGGA,000191,03018.2882,N,09744.0645,W,1,8,1.1,-0.018712082221923776,M,24.5,M,,0000*44
$GPGSA,A,3,,,,,,,,,,,,,1.500,2.121,2.121,*1a
$GPGSV,1,1,1,1,1,1,1,,,,,,,,,,,,*48
$GPGSV,1,1,1,1,1,1,1,,,,,,,,,,,,*48
$GPGGA,000192,03018.2885,N,09744.0634,W,1,8,1.1,-0.5352738965045987,M,24.5,M,,0000*4e
$GPGSA,A,3,,,,,,,,,,,,,1.500,2.121,2.121,*1a
$GPGSV,1,1,1,1,1,1,1,,,,,,,,,,,,*48
$GPGSV,1,1,1,1,1,1,1,,,,,,,,,,,,*48
$GPGGA,000193,03018.2912,N,09744.0649,W,1,8,1.1,0.5278166402307212,M,24.5,M,,0000*6d
$GPGSA,A,3,,,,,,,,,,,,,1.500,2.121,2.121,*1a
$GPGSV,1,1,1,1,1,1,1,,,,,,,,,,,,*48
$GPGSV,1,1,1,1,1,1,1,,,,,,,,,,,,*48
$GPGGA,000194,03018.2900,N,09744.0635,W,1,8,1.1,-1.3205639130403206,M,24.5,M,,0000*4d
$GPGSA,A,3,,,,,,,,,,,,,1.500,2.121,2.121,*1a
$GPGSV,1,1,1,1,1,1,1,,,,,,,,,,,,*48
$GPGSV,1,1,1,1,1,1,1,,,,,,,,,,,,*48
$GPGGA,000195,03018.2904,N,09744.0630,W,1,8,1.1,1.2483782947421103,M,24.5,M,,0000*66
$GPGSA,A,3,,,,,,,,,,,,,1.500,2.121,2.121,*1a
$GPGSV,1,1,1,1,1,1,1,,,,,,,,,,,,*48
$GPGSV,1,1,1,1,1,1,1,,,,,,,,,,,,*48
$GPGGA,000196,03018.2912,N,09744.0629,W,1,8,1.1,2.050525524117394,M,24.5,M,,0000*5b
$GPGSA,A,3,,,,,,,,,,,,,1.500,2.121,2.121,*1a
$GPGSV,1,1,1,1,1,1,1,,,,,,,,,,,,*48
$GPGSV,1,1,1,1,1,1,1,,,,,,,,,,,,*48
$GPGGA,000197,03018.2917,N,09744.0633,W,1,8,1.1,1.0080794383976293,M,24.5,M,,0000*60
$GPGSA,A,3,,,,,,,,,,,,,1.500,2.121,2.121,*1a
$GPGSV,1,1,1,1,1,1,1,,,,,,,,,,,,*48
$GPGSV,1,1,1,1,1,1,1,,,,,,,,,,,,*48
$GPGGA,000198,03018.2920,N,09744.0621,W,1,8,1.1,0.45431647846549694,M,24.5,M,,0000*58
$GPGSA,A,3,,,,,,,,,,,,,1.500,2.121,2.121,*1a
$GPGSV,1,1,1,1,1,1,1,,,,,,,,,,,,*48
$GPGSV,1,1,1,1,1,1,1,,,,,,,,,,,,*48
$GPGGA,000199,03018.2925,N,09744.0629,W,1,8,1.1,2.808787724515568,M,24.5,M,,0000*5e
$GPGSA,A,3,,,,,,,,,,,,,1.500,2.121,2.121,*1a
$GPGSV,1,1,1,1,1,1,1,,,,,,,,,,,,*48
$GPGSV,1,1,1,1,1,1,1,,,,,,,,,,,,*48
$GPGGA,000200,03018.2931,N,09744.0613,W,1,8,1.1,2.6552890477628868,M,24.5,M,,0000*69
$GPGSA,A,3,,,,,,,,,,,,,1.500,2.121,2.121,*1a
$GPGSV,1,1,1,1,1,1,1,,,,,,,,,,,,*48
$GPGSV,1,1,1,1,1,1,1,,,,,,,,,,,,*48
$GPGGA,000201,03018.2939,N,09744.0610,W,1,8,1.1,0.8789191726396672,M,24.5,M,,0000*61
$GPGSA,A,3,,,,,,,,,,,,,1.500,2.121,2.121,*1a
$GPGSV,1,1,1,1,1,1,1,,,,,,,,,,,,*48
$GPGSV,1,1,1,1,1,1,1,,,,,,,,,,,,*48
$GPGGA,000202,03018.2940,N,09744.0609,W,1,8,1.1,0.5770217040370829,M,24.5,M,,0000*6d
$GPGSA,A,3,,,,,,,,,,,,,1.500,2.121,2.121,*1a
$GPGSV,1,1,1,1,1,1,1,,,,,,,,,,,,*48
$GPGSV,1,1,1,1,1,1,1,,,,,,,,,,,,*48
$GPGGA,000203,03018.2948,N,09744.0604,W,1,8,1.1,1.6703723472390513,M,24.5,M,,0000*62
$GPGSA,A,3,,,,,,,,,,,,,1.500,2.121,2.121,*1a
$GPGSV,1,1,1,1,1,1,1,,,,,,,,,,,,*48
$GPGSV,1,1,1,1,1,1,1,,,,,,,,,,,,*48
$GPGGA,000204,03018.2950,N,09744.0601,W,1,8,1.1,-2.727482171985141,M,24.5,M,,0000*74
$GPGSA,A,3,,,,,,,,,,,,,1.500,2.121,2.121,*1a
$GPGSV,1,1,1,1,1,1,1,,,,,,,,,,,,*48
$GPGSV,1,1,1,1,1,1,1,,,,,,,,,,,,*48
$GPGGA,000205,03018.2960,N,09744.0597,W,1,8,1.1,3.1024734760964416,M,24.5,M,,0000*63
$GPGSA,A,3,,,,,,,,,,,,,1.500,2.121,2.121,*1a
$GPGSV,1,1,1,1,1,1,1,,,,,,,,,,,,*48
$GPGSV,1,1,1,1,1,1,1,,,,,,,,,,,,*48
$GPGGA,000206,03018.2958,N,09744.0597,W,1,8,1.1,1.7234265212776614,M,24.5,M,,0000*60
$GPGSA,A,3,,,,,,,,,,,,,1.500,2.121,2.121,*1a
$GPGSV,1,1,1,1,1,1,1,,,,,,,,,,,,*48
$GPGSV,1,1,1,1,1,1,1,,,,,,,,,,,,*48
$GPGGA,000207,03018.2978,N,09744.0591,W,1,8,1.1,2.2024376311676197,M,24.5,M,,0000*6c
$GPGSA,A,3,,,,,,,,,,,,,1.500,2.121,2.121,*1a
$GPGSV,1,1,1,1,1,1,1,,,,,,,,,,,,*48
$GPGSV,1,1,1,1,1,1,1,,,,,,,,,,,,*48
$GPGGA,000208,03018.2974,N,09744.0588,W,1,8,1.1,2.1247766952598512,M,24.5,M,,0000*61
$GPGSA,A,3,,,,,,,,,,,,,1.500,2.121,2.121,*1a
$GPGSV,1,1,1,1,1,1,1,,,,,,,,,,,,*48
$GPGSV,1,1,1,1,1,1,1,,,,,,,,,,,,*48
$GPGGA,000209,03018.2979,N,09744.0587,W,1,8,1.1,2.534897255880421,M,24.5,M,,0000*58
$GPGSA,A,3,,,,,,,,,,,,,1.500,2.121,2.121,*1a
$GPGSV,1,1,1,1,1,1,1,,,,,,,,,,,,*48
$GPGSV,1,1,1,1,1,1,1,,,,,,,,,,,,*48
$GPGGA,000210,03018.2980,N,09744.0579,W,1,8,1.1,0.7983497935894446,M,24.5,M,,0000*67
$GPGSA,A,3,,,,,,,,,,,,,1.500,2.121,2.121,*1a
$GPGSV,1,1,1,1,1,1,1,,,,,,,,,,,,*48
$GPGSV,1,1,1,1,1,1,1,,,,,,,,,,,,*48
$GPGGA,000211,03018.3001,N,09744.0562,W,1,8,1.1,-0.40388990832794414,M,24.5,M,,0000*76
$GPGSA,A,3,,,,,,,,,,,,,1.500,2.121,2.121,*1a
$GPGSV,1,1,1,1,1,1,1,,,,,,,,,,,,*48
$GPGSV,1,1,1,1,1,1,1,,,,,,,,,,,,*48
$GPGGA,000212,03018.2995,N,09744.0569,W,1,8,1.1,2.6785261341049664,M,24.5,M,,0000*67
$GPGSA,A,3,,,,,,,,,,,,,1.500,2.121,2.121,*1a
$GPGSV,1,1,1,1,1,1,1,,,,,,,,,,,,*48
$GPGSV,1,1,1,1,1,1,1,,,,,,,,,,,,*48
$GPGGA,000213,03018.3007,N,09744.0559,W,1,8,1.1,0.34924419206598367,M,24.5,M,,0000*54
$GPGSA,A,3,,,,,,,,,,,,,1.500,2.121,2.121,*1a
$GPGSV,1,1,1,1,1,1,1,,,,,,,,,,,,*48
$GPGSV,1,1,1,1,1,1,1,,,,,,,,,,,,*48
$GPGGA,000214,03018.3005,N,09744.0569,W,1,8,1.1,0.6198447912386541,M,24.5,M,,0000*62
$GPGSA,A,3,,,,,,,,,,,,,1.500,2.121,2.121,*1a
$GPGSV,1,1,1,1,1,1,1,,,,,,,,,,,,*48
$GPGSV,1,1,1,1,1,1,1,,,,,,,,,,,,*48
$GPGGA,000215,03018.3011,N,09744.0571,W,1,8,1.1,2.3062819633268434,M,24.5,M,,0000*65
$GPGSA,A,3,,,,,,,,,,,,,1.500,2.121,2.121,*1a
$GPGSV,1,1,1,1,1,1,1,,,,,,,,,,,,*48
$GPGSV,1,1,1,1,1,1,1,,,,,,,,,,,,*48
$GPGGA,000216,03018.3015,N,09744.0565,W,1,8,1.1,2.7849568297406813,M,24.5,M,,0000*64
$GPGSA,A,3,,,,,,,,,,,,,1.500,2.121,2.121,*1a
$GPGSV,1,1,1,1,1,1,1,,,,,,,,,,,,*48
$GPGSV,1,1,1,1,1,1,1,,,,,,,,,,,,*48
$GPGGA,000217,03018.3033,N,09744.0562,W,1,8,1.1,1.9469917947252682,M,24.5,M,,0000*66
$GPGSA,A,3,,,,,,,,,,,,,1.500,2.121,2.121,*1a
$GPGSV,1,1,1,1,1,1,1,,,,,,,,,,,,*48
$GPGSV,1,1,1,1,1,1,1,,,,,,,,,,,,*48
$GPGGA,000218,03018.3026,N,09744.0555,W,1,8,1.1,3.047689808971675,M,24.5,M,,0000*5a
$GPGSA,A,3,,,,,,,,,,,,,1.500,2.121,2.121,*1a
$GPGSV,1,1,1,1,1,1,1,,,,,,,,,,,,*48
$GPGSV,1,1,1,1,1,1,1,,,,,,,,,,,,*48
$GPGGA,000219,03018.3032,N,09744.0552,W,1,8,1.1,1.726688714982877,M,24.5,M,,0000*58
$GPGSA,A,3,,,,,,,,,,,,,1.500,2.121,2.121,*1a
$GPGSV,1,1,1,1,1,1,1,,,,,,,,,,,,*48
$GPGSV,1,1,1,1,1,1,1,,,,,,,,,,,,*48
$GPGGA,000220,03018.3044,N,09744.0547,W,1,8,1.1,2.353225909321096,M,24.5,M,,0000*57
$GPGSA,A,3,,,,,,,,,,,,,1.500,2.121,2.121,*1a
$GPGSV,1,1,1,1,1,1,1,,,,,,,,,,,,*48
$GPGSV,1,1,1,1,1,1,1,,,,,,,,,,,,*48
$GPGGA,000221,03018.3057,N,09744.0541,W,1,8,1.1,-0.6279472761253562,M,24.5,M,,0000*4c
$GPGSA,A,3,,,,,,,,,,,,,1.500,2.121,2.121,*1a
$GPGSV,1,1,1,1,1,1,1,,,,,,,,,,,,*48
$GPGSV,1,1,1,1,1,1,1,,,,,,,,,,,,*48
$GPGGA,000222,03018.3044,N,09744.0538,W,1,8,1.1,2.90932142480085,M,24.5,M,,0000*65
$GPGSA,A,3,,,,,,,,,,,,,1.500,2.121,2.121,*1a
$GPGSV,1,1,1,1,1,1,1,,,,,,,,,,,,*48
$GPGSV,1,1,1,1,1,1,1,,,,,,,,,,,,*48
$GPGGA,000223,03018.3069,N,09744.0545,W,1,8,1.1,2.218984297626327,M,24.5,M,,0000*50
$GPGSA,A,3,,,,,,,,,,,,,1.500,2.121,2.121,*1a
$GPGSV,1,1,1,1,1,1,1,,,,,,,,,,,,*48
$GPGSV,1,1,1,1,1,1,1,,,,,,,,,,,,*48
$GPGGA,000224,03018.3072,N,09744.0529,W,1,8,1.1,0.38030042186097535,M,24.5,M,,0000*5f
$GPGSA,A,3,,,,,,,,,,,,,1.500,2.121,2.121,*1a
$GPGSV,1,1,1,1,1,1,1,,,,,,,,,,,,*48
$GPGSV,1,1,1,1,1,1,1,,,,,,,,,,,,*48
$GPGGA,000225,03018.3060,N,09744.0531,W,1,8,1.1,2.404706892379448,M,24.5,M,,0000*5d
$GPGSA,A,3,,,,,,,,,,,,,1.500,2.121,2.121,*1a
$GPGSV,1,1,1,1,1,1,1,,,,,,,,,,,,*48
$GPGSV,1,1,1,1,1,1,1,,,,,,,,,,,,*48
$GPGGA,000226,03018.3060,N,09744.0525,W,1,8,1.1,-0.8144649133422956,M,24.5,M,,0000*4e
$GPGSA,A,3,,,,,,,,,,,,,1.500,2.121,2.121,*1a
$GPGSV,1,1,1,1,1,1,1,,,,,,,,,,,,*48
$GPGSV,1,1,1,1,1,1,1,,,,,,,,,,,,*48
$GPGGA,000227,03018.3073,N,09744.0525,W,1,8,1.1,2.7182028887361445,M,24.5,M,,0000*6f
$GPGSA,A,3,,,,,,,,,,,,,1.500,2.121,2.121,*1a
$GPGSV,1,1,1,1,1,1,1,,,,,,,,,,,,*48
$GPGSV,1,1,1,1,1,1,1,,,,,,,,,,,,*48
$GPGGA,000228,03018.3073,N,09744.0532,W,1,8,1.1,2.0844884151872893,M,24.5,M,,0000*60
$GPGSA,A,3,,,,,,,,,,,,,1.500,2.121,2.121,*1a
$GPGSV,1,1,1,1,1,1,1,,,,,,,,,,,,*48
$GPGSV,1,1,1,1,1,1,1,,,,,,,,,,,,*48
$GPGGA,000229,03018.3072,N,09744.0520,W,1,8,1.1,3.585956014991792,M,24.5,M,,0000*5e
$GPGSA,A,3,,,,,,,,,,,,,1.500,2.121,2.121,*1a
$GPGSV,1,1,1,1,1,1,1,,,,,,,,,,,,*48
$GPGSV,1,1,1,1,1,1,1,,,,,,,,,,,,*48
$GPGGA,000230,03018.3084,N,09744.0518,W,1,8,1.1,5.264076712131489,M,24.5,M,,0000*5b
$GPGSA,A,3,,,,,,,,,,,,,1.500,2.121,2.121,*1a
$GPGSV,1,1,1,1,1,1,1,,,,,,,,,,,,*48
$GPGSV,1,1,1,1,1,1,1,,,,,,,,,,,,*48
$GPGGA,000231,03018.3086,N,09744.0515,W,1,8,1.1,-0.13554454596030663,M,24.5,M,,0000*77
$GPGSA,A,3,,,,,,,,,,,,,1.500,2.121,2.121,*1a
$GPGSV,1,1,1,1,1,1,1,,,,,,,,,,,,*48
$GPGSV,1,1,1,1,1,1,1,,,,,,,,,,,,*48
$GPGGA,000232,03018.3091,N,09744.0511,W,1,8,1.1,-0.29730278211545036,M,24.5,M,,0000*7e
$GPGSA,A,3,,,,,,,,,,,,,1.500,2.121,2.121,*1a
$GPGSV,1,1,1,1,1,1,1,,,,,,,,,,,,*48
$GPGSV,1,1,1,1,1,1,1,,,,,,,,,,,,*48
$GPGGA,000233,03018.3103,N,09744.0505,W,1,8,1.1,1.548942195569616,M,24.5,M,,0000*5d
$GPGSA,A,3,,,,,,,,,,,,,1.500,2.121,2.121,*1a
$GPGSV,1,1,1,1,1,1,1,,,,,,,,,,,,*48
$GPGSV,1,1,1,1,1,1,1,,,,,,,,,,,,*48
$GPGGA,000234,03018.3118,N,09744.0499,W,1,8,1.1,2.174366649915425,M,24.5,M,,0000*53
$GPGSA,A,3,,,,,,,,,,,,,1.500,2.121,2.121,*1a
$GPGSV,1,1,1,1,1,1,1,,,,,,,,,,,,*48
$GPGSV,1,1,1,1,1,1,1,,,,,,,,,,,,*48
$GPGGA,000235,03018.3117,N,09744.0509,W,1,8,1.1,-0.4698308177003083,M,24.5,M,,0000*4f
$GPGSA,A,3,,,,,,,,,,,,,1.500,2.121,2.121,*1a
$GPGSV,1,1,1,1,1,1,1,,,,,,,,,,,,*48
$GPGSV,1,1,1,1,1,1,1,,,,,,,,,,,,*48
$GPGGA,000236,03018.3116,N,09744.0496,W,1,8,1.1,3.0763832720466486,M,24.5,M,,0000*65
$GPGSA,A,3,,,,,,,,,,,,,1.500,2.121,2.121,*1a
$GPGSV,1,1,1,1,1,1,1,,,,,,,,,,,,*48
$GPGSV,1,1,1,1,1,1,1,,,,,,,,,,,,*48
$GPGGA,000237,03018.3130,N,09744.0477,W,1,8,1.1,1.3039352968416198,M,24.5,M,,0000*64
$GPGSA,A,3,,,,,,,,,,,,,1.500,2.121,2.121,*1a
$GPGSV,1,1,1,1,1,1,1,,,,,,,,,,,,*48
$GPGSV,1,1,1,1,1,1,1,,,,,,,,,,,,*48
$GPGGA,000238,03018.3139,N,09744.0498,W,1,8,1.1,0.26142491642422305,M,24.5,M,,0000*56
$GPGSA,A,3,,,,,,,,,,,,,1.500,2.121,2.121,*1a
$GPGSV,1,1,1,1,1,1,1,,,,,,,,,,,,*48
$GPGSV,1,1,1,1,1,1,1,,,,,,,,,,,,*48
$GPGGA,000239,03018.3136,N,09744.0486,W,1,8,1.1,2.785236869935421,M,24.5,M,,0000*5a
$GPGSA,A,3,,,,,,,,,,,,,1.500,2.121,2.121,*1a
$GPGSV,1,1,1,1,1,1,1,,,,,,,,,,,,*48
$GPGSV,1,1,1,1,1,1,1,,,,,,,,,,,,*48
$GPGGA,000240,03018.3142,N,09744.0485,W,1,8,1.1,0.05404808349780743,M,24.5,M,,0000*50
$GPGSA,A,3,,,,,,,,,,,,,1.500,2.121,2.121,*1a
$GPGSV,1,1,1,1,1,1,1,,,,,,,,,,,,*48
$GPGSV,1,1,1,1,1,1,1,,,,,,,,,,,,*48
$GPGGA,000241,03018.3139,N,09744.0462,W,1,8,1.1,1.1835783387869296,M,24.5,M,,0000*64
$GPGSA,A,3,,,,,,,,,,,,,1.500,2.121,2.121,*1a
$GPGSV,1,1,1,1,1,1,1,,,,,,,,,,,,*48
$GPGSV,1,1,1,1,1,1,1,,,,,,,,,,,,*48
$GPGGA,000242,03018.3162,N,09744.0474,W,1,8,1.1,1.1796785474784102,M,24.5,M,,0000*67
$GPGSA,A,3,,,,,,,,,,,,,1.500,2.121,2.121,*1a
$GPGSV,1,1,1,1,1,1,1,,,,,,,,,,,,*48
$GPGSV,1,1,1,1,1,1,1,,,,,,,,,,,,*48
$GPGGA,000243,03018.3157,N,09744.0472,W,1,8,1.1,-0.6488431161729329,M,24.5,M,,0000*40
$GPGSA,A,3,,,,,,,,,,,,,1.500,2.121,2.121,*1a
$GPGSV,1,1,1,1,1,1,1,,,,,,,,,,,,*48
$GPGSV,1,1,1,1,1,1,1,,,,,,,,,,,,*48
$GPGGA,000244,03018.3164,N,09744.0469,W,1,8,1.1,2.8626640758594064,M,24.5,M,,0000*6c
$GPGSA,A,3,,,,,,,,,,,,,1.500,2.121,2.121,*1a
$GPGSV,1,1,1,1,1,1,1,,,,,,,,,,,,*48
$GPGSV,1,1,1,1,1,1,1,,,,,,,,,,,,*48
$GPGGA,000245,03018.3165,N,09744.0465,W,1,8,1.1,3.0620320414824147,M,24.5,M,,0000*61
$GPGSA,A,3,,,,,,,,,,,,,1.500,2.121,2.121,*1a
$GPGSV,1,1,1,1,1,1,1,,,,,,,,,,,,*48
$GPGSV,1,1,1,1,1,1,1,,,,,,,,,,,,*48
$GPGGA,000246,03018.3173,N,09744.0465,W,1,8,1.1,2.0973332641494555,M,24.5,M,,0000*6c
$GPGSA,A,3,,,,,,,,,,,,,1.500,2.121,2.121,*1a
$GPGSV,1,1,1,1,1,1,1,,,,,,,,,,,,*48
$GPGSV,1,1,1,1,1,1,1,,,,,,,,,,,,*48
$GPGGA,000247,03018.3177,N,09744.0463,W,1,8,1.1,-0.3655275058586065,M,24.5,M,,0000*40
$GPGSA,A,3,,,,,,,,,,,,,1.500,2.121,2.121,*1a
$GPGSV,1,1,1,1,1,1,1,,,,,,,,,,,,*48
$GPGSV,1,1,1,1,1,1,1,,,,,,,,,,,,*48
$GPGGA,000248,03018.3175,N,09744.0454,W,1,8,1.1,1.1500321605586972,M,24.5,M,,0000*65
$GPGSA,A,3,,,,,,,,,,,,,1.500,2.121,2.121,*1a
$GPGSV,1,1,1,1,1,1,1,,,,,,,,,,,,*48
$GPGSV,1,1,1,1,1,1,1,,,,,,,,,,,,*48
$GPGGA,000249,03018.3181,N,09744.0441,W,1,8,1.1,2.896167613884911,M,24.5,M,,0000*56
$GPGSA,A,3,,,,,,,,,,,,,1.500,2.121,2.121,*1a
$GPGSV,1,1,1,1,1,1,1,,,,,,,,,,,,*48
$GPGSV,1,1,1,1,1,1,1,,,,,,,,,,,,*48
$GPGGA,000250,03018.3192,N,09744.0450,W,1,8,1.1,-0.7587305201747188,M,24.5,M,,0000*40
$GPGSA,A,3,,,,,,,,,,,,,1.500,2.121,2.121,*1a
$GPGSV,1,1,1,1,1,1,1,,,,,,,,,,,,*48
$GPGSV,1,1,1,1,1,1,1,,,,,,,,,,,,*48
$GPGGA,000251,03018.3207,N,09744.0461,W,1,8,1.1,0.26167508715435384,M,24.5,M,,0000*5b
$GPGSA,A,3,,,,,,,,,,,,,1.500,2.121,2.121,*1a
$GPGSV,1,1,1,1,1,1,1,,,,,,,,,,,,*48
$GPGSV,1,1,1,1,1,1,1,,,,,,,,,,,,*48
$GPGGA,000252,03018.3214,N,09744.0444,W,1,8,1.1,1.667486831408341,M,24.5,M,,0000*56
$GPGSA,A,3,,,,,,,,,,,,,1.500,2.121,2.121,*1a
$GPGSV,1,1,1,1,1,1,1,,,,,,,,,,,,*48
$GPGSV,1,1,1,1,1,1,1,,,,,,,,,,,,*48
$GPGGA,000253,03018.3215,N,09744.0436,W,1,8,1.1,3.5121204616862696,M,24.5,M,,0000*69
$GPGSA,A,3,,,,,,,,,,,,,1.500,2.121,2.121,*1a
$GPGSV,1,1,1,1,1,1,1,,,,,,,,,,,,*48
$GPGSV,1,1,1,1,1,1,1,,,,,,,,,,,,*48
$GPGGA,000254,03018.3219,N,09744.0424,W,1,8,1.1,2.6194090443936338,M,24.5,M,,0000*61
$GPGSA,A,3,,,,,,,,,,,,,1.500,2.121,2.121,*1a
$GPGSV,1,1,1,1,1,1,1,,,,,,,,,,,,*48
$GPGSV,1,1,1,1,1,1,1,,,,,,,,,,,,*48
$GPGGA,000255,03018.3220,N,09744.0434,W,1,8,1.1,0.962006081545018,M,24.5,M,,0000*52
$GPGSA,A,3,,,,,,,,,,,,,1.500,2.121,2.121,*1a
$GPGSV,1,1,1,1,1,1,1,,,,,,,,,,,,*48
$GPGSV,1,1,1,1,1,1,1,,,,,,,,,,,,*48
$GPGGA,000256,03018.3222,N,09744.0430,W,1,8,1.1,2.1042567500691747,M,24.5,M,,0000*66
$GPGSA,A,3,,,,,,,,,,,,,1.500,2.121,2.121,*1a
$GPGSV,1,1,1,1,1,1,1,,,,,,,,,,,,*48
$GPGSV,1,1,1,1,1,1,1,,,,,,,,,,,,*48
$GPGGA,000257,03018.3235,N,09744.0422,W,1,8,1.1,2.9386625889044957,M,24.5,M,,0000*69
$GPGSA,A,3,,,,,,,,,,,,,1.500,2.121,2.121,*1a
$GPGSV,1,1,1,1,1,1,1,,,,,,,,,,,,*48
$GPGSV,1,1,1,1,1,1,1,,,,,,,,,,,,*48
$GPGGA,000258,03018.3232,N,09744.0426,W,1,8,1.1,1.4844881829138097,M,24.5,M,,0000*6b
$GPGSA,A,3,,,,,,,,,,,,,1.500,2.121,2.121,*1a
$GPGSV,1,1,1,1,1,1,1,,,,,,,,,,,,*48
$GPGSV,1,1,1,1,1,1,1,,,,,,,,,,,,*48
$GPGGA,000259,03018.3242,N,09744.0414,W,1,8,1.1,1.3405102856248625,M,24.5,M,,0000*63
$GPGSA,A,3,,,,,,,,,,,,,1.500,2.121,2.121,*1a
$GPGSV,1,1,1,1,1,1,1,,,,,,,,,,,,*48
$GPGSV,1,1,1,1,1,1,1,,,,,,,,,,,,*48
$GPGGA,000260,03018.3247,N,09744.0427,W,1,8,1.1,3.4354261123318133,M,24.5,M,,0000*63
$GPGSA,A,3,,,,,,,,,,,,,1.500,2.121,2.121,*1a
$GPGSV,1,1,1,1,1,1,1,,,,,,,,,,,,*48
$GPGSV,1,1,1,1,1,1,1,,,,,,,,,,,,*48
$GPGGA,000261,03018.3254,N,09744.0417,W,1,8,1.1,1.4102313963097466,M,24.5,M,,0000*69
$GPGSA,A,3,,,,,,,,,,,,,1.500,2.121,2.121,*1a
$GPGSV,1,1,1,1,1,1,1,,,,,,,,,,,,*48
$GPGSV,1,1,1,1,1,1,1,,,,,,,,,,,,*48
$GPGGA,000262,03018.3257,N,09744.0413,W,1,8,1.1,1.630252043836928,M,24.5,M,,0000*54
$GPGSA,A,3,,,,,,,,,,,,,1.500,2.121,2.121,*1a
$GPGSV,1,1,1,1,1,1,1,,,,,,,,,,,,*48
$GPGSV,1,1,1,1,1,1,1,,,,,,,,,,,,*48
$GPGGA,000263,03018.3266,N,09744.0408,W,1,8,1.1,0.40929790267814115,M,24.5,M,,0000*56
$GPGSA,A,3,,,,,,,,,,,,,1.500,2.121,2.121,*1a
$GPGSV,1,1,1,1,1,1,1,,,,,,,,,,,,*48
$GPGSV,1,1,1,1,1,1,1,,,,,,,,,,,,*48
$GPGGA,000264,03018.3263,N,09744.0401,W,1,8,1.1,2.0591449677080154,M,24.5,M,,0000*66
$GPGSA,A,3,,,,,,,,,,,,,1.500,2.121,2.121,*1a
$GPGSV,1,1,1,1,1,1,1,,,,,,,,,,,,*48
$GPGSV,1,1,1,1,1,1,1,,,,,,,,,,,,*48
$GPGGA,000265,03018.3272,N,09744.0409,W,1,8,1.1,0.7394889273078571,M,24.5,M,,0000*6d
$GPGSA,A,3,,,,,,,,,,,,,1.500,2.121,2.121,*1a
$GPGSV,1,1,1,1,1,1,1,,,,,,,,,,,,*48
$GPGSV,1,1,1,1,1,1,1,,,,,,,,,,,,*48
$GPGGA,000266,03018.3285,N,09744.0388,W,1,8,1.1,1.295979365301209,M,24.5,M,,0000*53
$GPGSA,A,3,,,,,,,,,,,,,1.500,2.121,2.121,*1a
$GPGSV,1,1,1,1,1,1,1,,,,,,,,,,,,*48
$GPGSV,1,1,1,1,1,1,1,,,,,,,,,,,,*48
$GPGGA,000267,03018.3294,N,09744.0402,W,1,8,1.1,2.918958663810447,M,24.5,M,,0000*5d
$GPGSA,A,3,,,,,,,,,,,,,1.500,2.121,2.121,*1a
$GPGSV,1,1,1,1,1,1,1,,,,,,,,,,,,*48
$GPGSV,1,1,1,1,1,1,1,,,,,,,,,,,,*48
$GPGGA,000268,03018.3289,N,09744.0390,W,1,8,1.1,2.028067933061476,M,24.5,M,,0000*5b
$GPGSA,A,3,,,,,,,,,,,,,1.500,2.121,2.121,*1a
$GPGSV,1,1,1,1,1,1,1,,,,,,,,,,,,*48
$GPGSV,1,1,1,1,1,1,1,,,,,,,,,,,,*48
$GPGGA,000269,03018.3292,N,09744.0389,W,1,8,1.1,0.3758101590876586,M,24.5,M,,0000*6d
$GPGSA,A,3,,,,,,,,,,,,,1.500,2.121,2.121,*1a
$GPGSV,1,1,1,1,1,1,1,,,,,,,,,,,,*48
$GPGSV,1,1,1,1,1,1,1,,,,,,,,,,,,*48
$GPGGA,000270,03018.3293,N,09744.0392,W,1,8,1.1,2.654568127157983,M,24.5,M,,0000*52
$GPGSA,A,3,,,,,,,,,,,,,1.500,2.121,2.121,*1a
$GPGSV,1,1,1,1,1,1,1,,,,,,,,,,,,*48
$GPGSV,1,1,1,1,1,1,1,,,,,,,,,,,,*48
$GPGGA,000271,03018.3292,N,09744.0392,W,1,8,1.1,-1.5351073511888735,M,24.5,M,,0000*4f
$GPGSA,A,3,,,,,,,,,,,,,1.500,2.121,2.121,*1a
$GPGSV,1,1,1,1,1,1,1,,,,,,,,,,,,*48
$GPGSV,1,1,1,1,1,1,1,,,,,,,,,,,,*48
$GPGGA,000272,03018.3309,N,09744.0378,W,1,8,1.1,-0.5827114918303029,M,24.5,M,,0000*47
$GPGSA,A,3,,,,,,,,,,,,,1.500,2.121,2.121,*1a
$GPGSV,1,1,1,1,1,1,1,,,,,,,,,,,,*48
$GPGSV,1,1,1,1,1,1,1,,,,,,,,,,,,*48
$GPGGA,000273,03018.3317,N,09744.0380,W,1,8,1.1,0.21947749513374637,M,24.5,M,,0000*52
$GPGSA,A,3,,,,,,,,,,,,,1.500,2.121,2.121,*1a
$GPGSV,1,1,1,1,1,1,1,,,,,,,,,,,,*48
$GPGSV,1,1,1,1,1,1,1,,,,,,,,,,,,*48
$GPGGA,000274,03018.3321,N,09744.0370,W,1,8,1.1,1.6284288301140941,M,24.5,M,,0000*69
$GPGSA,A,3,,,,,,,,,,,,,1.500,2.121,2.121,*1a
$GPGSV,1,1,1,1,1,1,1,,,,,,,,,,,,*48
$GPGSV,1,1,1,1,1,1,1,,,,,,,,,,,,*48
$GPGGA,000275,03018.3323,N,09744.0389,W,1,8,1.1,3.5579279755581497,M,24.5,M,,0000*6c
$GPGSA,A,3,,,,,,,,,,,,,1.500,2.121,2.121,*1a
$GPGSV,1,1,1,1,1,1,1,,,,,,,,,,,,*48
$GPGSV,1,1,1,1,1,1,1,,,,,,,,,,,,*48
$GPGGA,000276,03018.3329,N,09744.0377,W,1,8,1.1,1.7837528090348544,M,24.5,M,,0000*62
$GPGSA,A,3,,,,,,,,,,,,,1.500,2.121,2.121,*1a
$GPGSV,1,1,1,1,1,1,1,,,,,,,,,,,,*48
$GPGSV,1,1,1,1,1,1,1,,,,,,,,,,,,*48
$GPGGA,000277,03018.3336,N,09744.0363,W,1,8,1.1,4.658544389433493,M,24.5,M,,0000*5c
$GPGSA,A,3,,,,,,,,,,,,,1.500,2.121,2.121,*1a
$GPGSV,1,1,1,1,1,1,1,,,,,,,,,,,,*48
$GPGSV,1,1,1,1,1,1,1,,,,,,,,,,,,*48
$GPGGA,000278,03018.3340,N,09744.0358,W,1,8,1.1,-0.07831938237199054,M,24.5,M,,0000*7c
$GPGSA,A,3,,,,,,,,,,,,,1.500,2.121,2.121,*1a
$GPGSV,1,1,1,1,1,1,1,,,,,,,,,,,,*48
$GPGSV,1,1,1,1,1,1,1,,,,,,,,,,,,*48
$GPGGA,000279,03018.3347,N,09744.0358,W,1,8,1.1,0.14838650994494484,M,24.5,M,,0000*5e
$GPGSA,A,3,,,,,,,,,,,,,1.500,2.121,2.121,*1a
$GPGSV,1,1,1,1,1,1,1,,,,,,,,,,,,*48
$GPGSV,1,1,1,1,1,1,1,,,,,,,,,,,,*48
$GPGGA,000280,03018.3359,N,09744.0337,W,1,8,1.1,-0.3146229684390487,M,24.5,M,,0000*41
$GPGSA,A,3,,,,,,,,,,,,,1.500,2.121,2.121,*1a
$GPGSV,1,1,1,1,1,1,1,,,,,,,,,,,,*48
$GPGSV,1,1,1,1,1,1,1,,,,,,,,,,,,*48
$GPGGA,000281,03018.3354,N,09744.0351,W,1,8,1.1,2.777916897060084,M,24.5,M,,0000*55
$GPGSA,A,3,,,,,,,,,,,,,1.500,2.121,2.121,*1a
$GPGSV,1,1,1,1,1,1,1,,,,,,,,,,,,*48
$GPGSV,1,1,1,1,1,1,1,,,,,,,,,,,,*48
$GPGGA,000282,03018.3372,N,09744.0338,W,1,8,1.1,3.24300366397543,M,24.5,M,,0000*60
$GPGSA,A,3,,,,,,,,,,,,,1.500,2.121,2.121,*1a
$GPGSV,1,1,1,1,1,1,1,,,,,,,,,,,,*48
$GPGSV,1,1,1,1,1,1,1,,,,,,,,,,,,*48
$GPGGA,000283,03018.3358,N,09744.0330,W,1,8,1.1,0.9194059682681892,M,24.5,M,,0000*62
$GPGSA,A,3,,,,,,,,,,,,,1.500,2.121,2.121,*1a
$GPGSV,1,1,1,1,1,1,1,,,,,,,,,,,,*48
$GPGSV,1,1,1,1,1,1,1,,,,,,,,,,,,*48
$GPGGA,000284,03018.3370,N,09744.0338,W,1,8,1.1,-2.3699057493625872,M,24.5,M,,0000*44
$GPGSA,A,3,,,,,,,,,,,,,1.500,2.121,2.121,*1a
$GPGSV,1,1,1,1,1,1,1,,,,,,,,,,,,*48
$GPGSV,1,1,1,1,1,1,1,,,,,,,,,,,,*48
$GPGGA,000285,03018.3377,N,09744.0337,W,1,8,1.1,2.5966131124356147,M,24.5,M,,0000*6f
$GPGSA,A,3,,,,,,,,,,,,,1.500,2.121,2.121,*1a
$GPGSV,1,1,1,1,1,1,1,,,,,,,,,,,,*48
$GPGSV,1,1,1,1,1,1,1,,,,,,,,,,,,*48
$GPGGA,000286,03018.3383,N,09744.0329,W,1,8,1.1,1.8396726339569762,M,24.5,M,,0000*66
$GPGSA,A,3,,,,,,,,,,,,,1.500,2.121,2.121,*1a
$GPGSV,1,1,1,1,1,1,1,,,,,,,,,,,,*48
$GPGSV,1,1,1,1,1,1,1,,,,,,,,,,,,*48
$GPGGA,000287,03018.3377,N,09744.0331,W,1,8,1.1,-0.6580716846426147,M,24.5,M,,0000*4d
$GPGSA,A,3,,,,,,,,,,,,,1.500,2.121,2.121,*1a
$GPGSV,1,1,1,1,1,1,1,,,,,,,,,,,,*48
$GPGSV,1,1,1,1,1,1,1,,,,,,,,,,,,*48
$GPGGA,000288,03018.3401,N,09744.0321,W,1,8,1.1,4.004205460651702,M,24.5,M,,0000*59
$GPGSA,A,3,,,,,,,,,,,,,1.500,2.121,2.121,*1a
$GPGSV,1,1,1,1,1,1,1,,,,,,,,,,,,*48
$GPGSV,1,1,1,1,1,1,1,,,,,,,,,,,,*48
$GPGGA,000289,03018.3403,N,09744.0325,W,1,8,1.1,2.160956654850669,M,24.5,M,,0000*50
$GPGSA,A,3,,,,,,,,,,,,,1.500,2.121,2.121,*1a
$GPGSV,1,1,1,1,1,1,1,,,,,,,,,,,,*48
$GPGSV,1,1,1,1,1,1,1,,,,,,,,,,,,*48
$GPGGA,000290,03018.3404,N,09744.0327,W,1,8,1.1,2.098141188783826,M,24.5,M,,0000*57
$GPGSA,A,3,,,,,,,,,,,,,1.500,2.121,2.121,*1a
$GPGSV,1,1,1,1,1,1,1,,,,,,,,,,,,*48
$GPGSV,1,1,1,1,1,1,1,,,,,,,,,,,,*48
$GPGGA,000291,03018.3401,N,09744.0313,W,1,8,1.1,0.8613923088907723,M,24.5,M,,0000*6e
$GPGSA,A,3,,,,,,,,,,,,,1.500,2.121,2.121,*1a
$GPGSV,1,1,1,1,1,1,1,,,,,,,,,,,,*48
$GPGSV,1,1,1,1,1,1,1,,,,,,,,,,,,*48
$GPGGA,000292,03018.3408,N,09744.0295,W,1,8,1.1,1.0506068950322565,M,24.5,M,,0000*62
$GPGSA,A,3,,,,,,,,,,,,,1.500,2.121,2.121,*1a
$GPGSV,1,1,1,1,1,1,1,,,,,,,,,,,,*48
$GPGSV,1,1,1,1,1,1,1,,,,,,,,,,,,*48
$GPGGA,000293,03018.3422,N,09744.0295,W,1,8,1.1,0.3787992449753457,M,24.5,M,,0000*69
$GPGSA,A,3,,,,,,,,,,,,,1.500,2.121,2.121,*1a
$GPGSV,1,1,1,1,1,1,1,,,,,,,,,,,,*48
$GPGSV,1,1,1,1,1,1,1,,,,,,,,,,,,*48
$GPGGA,000294,03018.3424,N,09744.0299,W,1,8,1.1,1.763404249837362,M,24.5,M,,0000*54
$GPGSA,A,3,,,,,,,,,,,,,1.500,2.121,2.121,*1a
$GPGSV,1,1,1,1,1,1,1,,,,,,,,,,,,*48
$GPGSV,1,1,1,1,1,1,1,,,,,,,,,,,,*48
$GPGGA,000295,03018.3415,N,09744.0305,W,1,8,1.1,2.0094315637229485,M,24.5,M,,0000*6e
$GPGSA,A,3,,,,,,,,,,,,,1.500,2.121,2.121,*1a
$GPGSV,1,1,1,1,1,1,1,,,,,,,,,,,,*48
$GPGSV,1,1,1,1,1,1,1,,,,,,,,,,,,*48
$GPGGA,000296,03018.3433,N,09744.0302,W,1,8,1.1,2.0280535290190485,M,24.5,M,,0000*65
$GPGSA,A,3,,,,,,,,,,,,,1.500,2.121,2.121,*1a
$GPGSV,1,1,1,1,1,1,1,,,,,,,,,,,,*48
$GPGSV,1,1,1,1,1,1,1,,,,,,,,,,,,*48
