$GPGGA,000000,03018.1130,N,09743.9655,W,1,8,1.1,0.3268925675036054,M,24.5,M,,0000*65
$GPGSA,A,3,,,,,,,,,,,,,1.500,2.121,2.121,*1a
$GPGSV,1,1,1,1,1,1,1,,,,,,,,,,,,*48
$GPGSV,1,1,1,1,1,1,1,,,,,,,,,,,,*48
$GPGGA,000001,03018.1122,N,09743.9657,W,1,8,1.1,1.8553820049250436,M,24.5,M,,0000*6f
$GPGSA,A,3,,,,,,,,,,,,,1.500,2.121,2.121,*1a
$GPGSV,1,1,1,1,1,1,1,,,,,,,,,,,,*48
$GPGSV,1,1,1,1,1,1,1,,,,,,,,,,,,*48
$GPGGA,000002,03018.1127,N,09743.9651,W,1,8,1.1,-0.2447279203559165,M,24.5,M,,0000*4a
$GPGSA,A,3,,,,,,,,,,,,,1.500,2.121,2.121,*1a
$GPGSV,1,1,1,1,1,1,1,,,,,,,,,,,,*48
$GPGSV,1,1,1,1,1,1,1,,,,,,,,,,,,*48
$GPGGA,000003,03018.1134,N,09743.9654,W,1,8,1.1,2.3400303667125666,M,24.5,M,,0000*60
$GPGSA,A,3,,,,,,,,,,,,,1.500,2.121,2.121,*1a
$GPGSV,1,1,1,1,1,1,1,,,,,,,,,,,,*48
$GPGSV,1,1,1,1,1,1,1,,,,,,,,,,,,*48
$GPGGA,000004,03018.1129,N,09743.9653,W,1,8,1.1,-0.7929199932609556,M,24.5,M,,0000*46
$GPGSA,A,3,,,,,,,,,,,,,1.500,2.121,2.121,*1a
$GPGSV,1,1,1,1,1,1,1,,,,,,,,,,,,*48
$GPGSV,1,1,1,1,1,1,1,,,,,,,,,,,,*48
$GPGGA,000005,03018.1129,N,09743.9652,W,1,8,1.1,4.730402055114348,M,24.5,M,,0000*53
$GPGSA,A,3,,,,,,,,,,,,,1.500,2.121,2.121,*1a
$GPGSV,1,1,1,1,1,1,1,,,,,,,,,,,,*48
$GPGSV,1,1,1,1,1,1,1,,,,,,,,,,,,*48
$GPGGA,000006,03018.1126,N,09743.9655,W,1,8,1.1,-0.5019225043923052,M,24.5,M,,0000*48
$GPGSA,A,3,,,,,,,,,,,,,1.500,2.121,2.121,*1a
$GPGSV,1,1,1,1,1,1,1,,,,,,,,,,,,*48
$GPGSV,1,1,1,1,1,1,1,,,,,,,,,,,,*48
$GPGGA,000007,03018.1130,N,09743.9652,W,1,8,1.1,3.005976527557438,M,24.5,M,,0000*52
$GPGSA,A,3,,,,,,,,,,,,,1.500,2.121,2.121,*1a
$GPGSV,1,1,1,1,1,1,1,,,,,,,,,,,,*48
$GPGSV,1,1,1,1,1,1,1,,,,,,,,,,,,*48
$GPGGA,000008,03018.1132,N,09743.9644,W,1,8,1.1,0.3160225863168893,M,24.5,M,,0000*6f
$GPGSA,A,3,,,,,,,,,,,,,1.500,2.121,2.121,*1a
$GPGSV,1,1,1,1,1,1,1,,,,,,,,,,,,*48
$GPGSV,1,1,1,1,1,1,1,,,,,,,,,,,,*48
$GPGGA,000009,03018.1132,N,09743.9652,W,1,8,1.1,3.8963500272143907,M,24.5,M,,0000*65
$GPGSA,A,3,,,,,,,,,,,,,1.500,2.121,2.121,*1a
$GPGSV,1,1,1,1,1,1,1,,,,,,,,,,,,*48
$GPGSV,1,1,1,1,1,1,1,,,,,,,,,,,,*48
$GPGGA,000010,03018.1121,N,09743.9653,W,1,8,1.1,3.441745200505689,M,24.5,M,,0000*52
$GPGSA,A,3,,,,,,,,,,,,,1.500,2.121,2.121,*1a
$GPGSV,1,1,1,1,1,1,1,,,,,,,,,,,,*48
$GPGSV,1,1,1,1,1,1,1,,,,,,,,,,,,*48
$GPGGA,000011,03018.1118,N,09743.9655,W,1,8,1.1,0.9379473584279926,M,24.5,M,,0000*62
$GPGSA,A,3,,,,,,,,,,,,,1.500,2.121,2.121,*1a
$GPGSV,1,1,1,1,1,1,1,,,,,,,,,,,,*48
$GPGSV,1,1,1,1,1,1,1,,,,,,,,,,,,*48
$GPGGA,000012,03018.1138,N,09743.9650,W,1,8,1.1,-3.164564416567993,M,24.5,M,,0000*74
$GPGSA,A,3,,,,,,,,,,,,,1.500,2.121,2.121,*1a
$GPGSV,1,1,1,1,1,1,1,,,,,,,,,,,,*48
$GPGSV,1,1,1,1,1,1,1,,,,,,,,,,,,*48
$GPGGA,000013,03018.1124,N,09743.9659,W,1,8,1.1,1.403317004164097,M,24.5,M,,0000*55
$GPGSA,A,3,,,,,,,,,,,,,1.500,2.121,2.121,*1a
$GPGSV,1,1,1,1,1,1,1,,,,,,,,,,,,*48
$GPGSV,1,1,1,1,1,1,1,,,,,,,,,,,,*48
$GPGGA,000014,03018.1127,N,09743.9649,W,1,8,1.1,3.0327993482103293,M,24.5,M,,0000*68
$GPGSA,A,3,,,,,,,,,,,,,1.500,2.121,2.121,*1a
$GPGSV,1,1,1,1,1,1,1,,,,,,,,,,,,*48
$GPGSV,1,1,1,1,1,1,1,,,,,,,,,,,,*48
$GPGGA,000015,03018.1132,N,09743.9652,W,1,8,1.1,1.5970574637358763,M,24.5,M,,0000*67
$GPGSA,A,3,,,,,,,,,,,,,1.500,2.121,2.121,*1a
$GPGSV,1,1,1,1,1,1,1,,,,,,,,,,,,*48
$GPGSV,1,1,1,1,1,1,1,,,,,,,,,,,,*48
$GPGGA,000016,03018.1141,N,09743.9647,W,1,8,1.1,0.6889302354933388,M,24.5,M,,0000*60
$GPGSA,A,3,,,,,,,,,,,,,1.500,2.121,2.121,*1a
$GPGSV,1,1,1,1,1,1,1,,,,,,,,,,,,*48
$GPGSV,1,1,1,1,1,1,1,,,,,,,,,,,,*48
$GPGGA,000017,03018.1138,N,09743.9639,W,1,8,1.1,1.7982606906480787,M,24.5,M,,0000*6e
$GPGSA,A,3,,,,,,,,,,,,,1.500,2.121,2.121,*1a
$GPGSV,1,1,1,1,1,1,1,,,,,,,,,,,,*48
$GPGSV,1,1,1,1,1,1,1,,,,,,,,,,,,*48
$GPGGA,000018,03018.1156,N,09743.9644,W,1,8,1.1,0.5954043840352452,M,24.5,M,,0000*6c
$GPGSA,A,3,,,,,,,,,,,,,1.500,2.121,2.121,*1a
$GPGSV,1,1,1,1,1,1,1,,,,,,,,,,,,*48
$GPGSV,1,1,1,1,1,1,1,,,,,,,,,,,,*48
$GPGGA,000019,03018.1154,N,09743.9641,W,1,8,1.1,0.05158077855829957,M,24.5,M,,0000*52
$GPGSA,A,3,,,,,,,,,,,,,1.500,2.121,2.121,*1a
$GPGSV,1,1,1,1,1,1,1,,,,,,,,,,,,*48
$GPGSV,1,1,1,1,1,1,1,,,,,,,,,,,,*48
$GPGGA,000020,03018.1168,N,09743.9622,W,1,8,1.1,-0.3973025571073301,M,24.5,M,,0000*4a
$GPGSA,A,3,,,,,,,,,,,,,1.500,2.121,2.121,*1a
$GPGSV,1,1,1,1,1,1,1,,,,,,,,,,,,*48
$GPGSV,1,1,1,1,1,1,1,,,,,,,,,,,,*48
$GPGGA,000021,03018.1162,N,09743.9632,W,1,8,1.1,2.0317050681905497,M,24.5,M,,0000*6a
$GPGSA,A,3,,,,,,,,,,,,,1.500,2.121,2.121,*1a
$GPGSV,1,1,1,1,1,1,1,,,,,,,,,,,,*48
$GPGSV,1,1,1,1,1,1,1,,,,,,,,,,,,*48
$GPGGA,000022,03018.1175,N,09743.9624,W,1,8,1.1,-0.33128837304628833,M,24.5,M,,0000*7a
$GPGSA,A,3,,,,,,,,,,,,,1.500,2.121,2.121,*1a
$GPGSV,1,1,1,1,1,1,1,,,,,,,,,,,,*48
$GPGSV,1,1,1,1,1,1,1,,,,,,,,,,,,*48
$GPGGA,000023,03018.1170,N,09743.9627,W,1,8,1.1,2.89118545846614,M,24.5,M,,0000*62
$GPGSA,A,3,,,,,,,,,,,,,1.500,2.121,2.121,*1a
$GPGSV,1,1,1,1,1,1,1,,,,,,,,,,,,*48
$GPGSV,1,1,1,1,1,1,1,,,,,,,,,,,,*48
$GPGGA,000024,03018.1170,N,09743.9618,W,1,8,1.1,1.8093681438670908,M,24.5,M,,0000*6c
$GPGSA,A,3,,,,,,,,,,,,,1.500,2.121,2.121,*1a
$GPGSV,1,1,1,1,1,1,1,,,,,,,,,,,,*48
$GPGSV,1,1,1,1,1,1,1,,,,,,,,,,,,*48
$GPGGA,000025,03018.1176,N,09743.9621,W,1,8,1.1,3.0815451678636254,M,24.5,M,,0000*64
$GPGSA,A,3,,,,,,,,,,,,,1.500,2.121,2.121,*1a
$GPGSV,1,1,1,1,1,1,1,,,,,,,,,,,,*48
$GPGSV,1,1,1,1,1,1,1,,,,,,,,,,,,*48
$GPGGA,000026,03018.1179,N,09743.9627,W,1,8,1.1,0.5076870951122581,M,24.5,M,,0000*63
$GPGSA,A,3,,,,,,,,,,,,,1.500,2.121,2.121,*1a
$GPGSV,1,1,1,1,1,1,1,,,,,,,,,,,,*48
$GPGSV,1,1,1,1,1,1,1,,,,,,,,,,,,*48
$GPGGA,000027,03018.1193,N,09743.9617,W,1,8,1.1,-1.5555357514597468,M,24.5,M,,0000*42
$GPGSA,A,3,,,,,,,,,,,,,1.500,2.121,2.121,*1a
$GPGSV,1,1,1,1,1,1,1,,,,,,,,,,,,*48
$GPGSV,1,1,1,1,1,1,1,,,,,,,,,,,,*48
$GPGGA,000028,03018.1181,N,09743.9613,W,1,8,1.1,0.9488411290083515,M,24.5,M,,0000*6e
$GPGSA,A,3,,,,,,,,,,,,,1.500,2.121,2.121,*1a
$GPGSV,1,1,1,1,1,1,1,,,,,,,,,,,,*48
$GPGSV,1,1,1,1,1,1,1,,,,,,,,,,,,*48
$GPGGA,000029,03018.1199,N,09743.9609,W,1,8,1.1,0.5511375779823721,M,24.5,M,,0000*60
$GPGSA,A,3,,,,,,,,,,,,,1.500,2.121,2.121,*1a
$GPGSV,1,1,1,1,1,1,1,,,,,,,,,,,,*48
$GPGSV,1,1,1,1,1,1,1,,,,,,,,,,,,*48
$GPGGA,000030,03018.1200,N,09743.9588,W,1,8,1.1,1.8369706060255817,M,24.5,M,,0000*6a
$GPGSA,A,3,,,,,,,,,,,,,1.500,2.121,2.121,*1a
$GPGSV,1,1,1,1,1,1,1,,,,,,,,,,,,*48
$GPGSV,1,1,1,1,1,1,1,,,,,,,,,,,,*48
$GPGGA,000031,03018.1209,N,09743.9603,W,1,8,1.1,-0.15200741342148305,M,24.5,M,,0000*7b
$GPGSA,A,3,,,,,,,,,,,,,1.500,2.121,2.121,*1a
$GPGSV,1,1,1,1,1,1,1,,,,,,,,,,,,*48
$GPGSV,1,1,1,1,1,1,1,,,,,,,,,,,,*48
$GPGGA,000032,03018.1214,N,09743.9598,W,1,8,1.1,1.266985589192061,M,24.5,M,,0000*5c
$GPGSA,A,3,,,,,,,,,,,,,1.500,2.121,2.121,*1a
$GPGSV,1,1,1,1,1,1,1,,,,,,,,,,,,*48
$GPGSV,1,1,1,1,1,1,1,,,,,,,,,,,,*48
$GPGGA,000033,03018.1219,N,09743.9603,W,1,8,1.1,1.820643155915892,M,24.5,M,,0000*5a
$GPGSA,A,3,,,,,,,,,,,,,1.500,2.121,2.121,*1a
$GPGSV,1,1,1,1,1,1,1,,,,,,,,,,,,*48
$GPGSV,1,1,1,1,1,1,1,,,,,,,,,,,,*48
$GPGGA,000034,03018.1230,N,09743.9594,W,1,8,1.1,2.396352500562334,M,24.5,M,,0000*54
$GPGSA,A,3,,,,,,,,,,,,,1.500,2.121,2.121,*1a
$GPGSV,1,1,1,1,1,1,1,,,,,,,,,,,,*48
$GPGSV,1,1,1,1,1,1,1,,,,,,,,,,,,*48
$GPGGA,000035,03018.1228,N,09743.9588,W,1,8,1.1,-0.2396701379793944,M,24.5,M,,0000*47
$GPGSA,A,3,,,,,,,,,,,,,1.500,2.121,2.121,*1a
$GPGSV,1,1,1,1,1,1,1,,,,,,,,,,,,*48
$GPGSV,1,1,1,1,1,1,1,,,,,,,,,,,,*48
$GPGGA,000036,03018.1233,N,09743.9597,W,1,8,1.1,1.0795077100780608,M,24.5,M,,0000*66
$GPGSA,A,3,,,,,,,,,,,,,1.500,2.121,2.121,*1a
$GPGSV,1,1,1,1,1,1,1,,,,,,,,,,,,*48
$GPGSV,1,1,1,1,1,1,1,,,,,,,,,,,,*48
$GPGGA,000037,03018.1233,N,09743.9583,W,1,8,1.1,3.9497633713387303,M,24.5,M,,0000*67
$GPGSA,A,3,,,,,,,,,,,,,1.500,2.121,2.121,*1a
$GPGSV,1,1,1,1,1,1,1,,,,,,,,,,,,*48
$GPGSV,1,1,1,1,1,1,1,,,,,,,,,,,,*48
$GPGGA,000038,03018.1242,N,09743.9585,W,1,8,1.1,-0.07290384767900315,M,24.5,M,,0000*71
$GPGSA,A,3,,,,,,,,,,,,,1.500,2.121,2.121,*1a
$GPGSV,1,1,1,1,1,1,1,,,,,,,,,,,,*48
$GPGSV,1,1,1,1,1,1,1,,,,,,,,,,,,*48
$GPGGA,000039,03018.1248,N,09743.9565,W,1,8,1.1,-1.087957803661678,M,24.5,M,,0000*79
$GPGSA,A,3,,,,,,,,,,,,,1.500,2.121,2.121,*1a
$GPGSV,1,1,1,1,1,1,1,,,,,,,,,,,,*48
$GPGSV,1,1,1,1,1,1,1,,,,,,,,,,,,*48
$GPGGA,000040,03018.1263,N,09743.9580,W,1,8,1.1,0.4704876063463026,M,24.5,M,,0000*60
$GPGSA,A,3,,,,,,,,,,,,,1.500,2.121,2.121,*1a
$GPGSV,1,1,1,1,1,1,1,,,,,,,,,,,,*48
$GPGSV,1,1,1,1,1,1,1,,,,,,,,,,,,*48
$GPGGA,000041,03018.1257,N,09743.9575,W,1,8,1.1,2.503030978943185,M,24.5,M,,0000*51
$GPGSA,A,3,,,,,,,,,,,,,1.500,2.121,2.121,*1a
$GPGSV,1,1,1,1,1,1,1,,,,,,,,,,,,*48
$GPGSV,1,1,1,1,1,1,1,,,,,,,,,,,,*48
$GPGGA,000042,03018.1258,N,09743.9571,W,1,8,1.1,3.7203362260953194,M,24.5,M,,0000*6f
$GPGSA,A,3,,,,,,,,,,,,,1.500,2.121,2.121,*1a
$GPGSV,1,1,1,1,1,1,1,,,,,,,,,,,,*48
$GPGSV,1,1,1,1,1,1,1,,,,,,,,,,,,*48
$GPGGA,000043,03018.1276,N,09743.9577,W,1,8,1.1,3.0953713935094656,M,24.5,M,,0000*6f
$GPGSA,A,3,,,,,,,,,,,,,1.500,2.121,2.121,*1a
$GPGSV,1,1,1,1,1,1,1,,,,,,,,,,,,*48
$GPGSV,1,1,1,1,1,1,1,,,,,,,,,,,,*48
$GPGGA,000044,03018.1268,N,09743.9570,W,1,8,1.1,2.910344095612069,M,24.5,M,,0000*51
$GPGSA,A,3,,,,,,,,,,,,,1.500,2.121,2.121,*1a
$GPGSV,1,1,1,1,1,1,1,,,,,,,,,,,,*48
$GPGSV,1,1,1,1,1,1,1,,,,,,,,,,,,*48
$GPGGA,000045,03018.1283,N,09743.9569,W,1,8,1.1,1.215450847233476,M,24.5,M,,0000*58
$GPGSA,A,3,,,,,,,,,,,,,1.500,2.121,2.121,*1a
$GPGSV,1,1,1,1,1,1,1,,,,,,,,,,,,*48
$GPGSV,1,1,1,1,1,1,1,,,,,,,,,,,,*48
$GPGGA,000046,03018.1286,N,09743.9558,W,1,8,1.1,0.8362823455633479,M,24.5,M,,0000*68
$GPGSA,A,3,,,,,,,,,,,,,1.500,2.121,2.121,*1a
$GPGSV,1,1,1,1,1,1,1,,,,,,,,,,,,*48
$GPGSV,1,1,1,1,1,1,1,,,,,,,,,,,,*48
$GPGGA,000047,03018.1282,N,09743.9555,W,1,8,1.1,0.49228323208620584,M,24.5,M,,0000*5e
$GPGSA,A,3,,,,,,,,,,,,,1.500,2.121,2.121,*1a
$GPGSV,1,1,1,1,1,1,1,,,,,,,,,,,,*48
$GPGSV,1,1,1,1,1,1,1,,,,,,,,,,,,*48
$GPGGA,000048,03018.1290,N,09743.9552,W,1,8,1.1,2.1869176789559255,M,24.5,M,,0000*6c
$GPGSA,A,3,,,,,,,,,,,,,1.500,2.121,2.121,*1a
$GPGSV,1,1,1,1,1,1,1,,,,,,,,,,,,*48
$GPGSV,1,1,1,1,1,1,1,,,,,,,,,,,,*48
$GPGGA,000049,03018.1296,N,09743.9539,W,1,8,1.1,0.0011692513219396794,M,24.5,M,,0000*59
$GPGSA,A,3,,,,,,,,,,,,,1.500,2.121,2.121,*1a
$GPGSV,1,1,1,1,1,1,1,,,,,,,,,,,,*48
$GPGSV,1,1,1,1,1,1,1,,,,,,,,,,,,*48
$GPGGA,000050,03018.1311,N,09743.9548,W,1,8,1.1,0.598041085241097,M,24.5,M,,0000*5a
$GPGSA,A,3,,,,,,,,,,,,,1.500,2.121,2.121,*1a
$GPGSV,1,1,1,1,1,1,1,,,,,,,,,,,,*48
$GPGSV,1,1,1,1,1,1,1,,,,,,,,,,,,*48
$GPGGA,000051,03018.1302,N,09743.9551,W,1,8,1.1,2.0619757731968367,M,24.5,M,,0000*6d
$GPGSA,A,3,,,,,,,,,,,,,1.500,2.121,2.121,*1a
$GPGSV,1,1,1,1,1,1,1,,,,,,,,,,,,*48
$GPGSV,1,1,1,1,1,1,1,,,,,,,,,,,,*48
$GPGGA,000052,03018.1304,N,09743.9543,W,1,8,1.1,2.7787359465439367,M,24.5,M,,0000*6b
$GPGSA,A,3,,,,,,,,,,,,,1.500,2.121,2.121,*1a
$GPGSV,1,1,1,1,1,1,1,,,,,,,,,,,,*48
$GPGSV,1,1,1,1,1,1,1,,,,,,,,,,,,*48
$GPGGA,000053,03018.1310,N,09743.9530,W,1,8,1.1,-3.1401355430351607,M,24.5,M,,0000*4a
$GPGSA,A,3,,,,,,,,,,,,,1.500,2.121,2.121,*1a
$GPGSV,1,1,1,1,1,1,1,,,,,,,,,,,,*48
$GPGSV,1,1,1,1,1,1,1,,,,,,,,,,,,*48
$GPGGA,000054,03018.1315,N,09743.9535,W,1,8,1.1,-0.8228626222389899,M,24.5,M,,0000*42
$GPGSA,A,3,,,,,,,,,,,,,1.500,2.121,2.121,*1a
$GPGSV,1,1,1,1,1,1,1,,,,,,,,,,,,*48
$GPGSV,1,1,1,1,1,1,1,,,,,,,,,,,,*48
$GPGGA,000055,03018.1322,N,09743.9539,W,1,8,1.1,-0.23005075399228825,M,24.5,M,,0000*73
$GPGSA,A,3,,,,,,,,,,,,,1.500,2.121,2.121,*1a
$GPGSV,1,1,1,1,1,1,1,,,,,,,,,,,,*48
$GPGSV,1,1,1,1,1,1,1,,,,,,,,,,,,*48
$GPGGA,000056,03018.1323,N,09743.9523,W,1,8,1.1,0.21173610708978408,M,24.5,M,,0000*51
$GPGSA,A,3,,,,,,,,,,,,,1.500,2.121,2.121,*1a
$GPGSV,1,1,1,1,1,1,1,,,,,,,,,,,,*48
$GPGSV,1,1,1,1,1,1,1,,,,,,,,,,,,*48
$GPGGA,000057,03018.1332,N,09743.9528,W,1,8,1.1,3.2218601062229952,M,24.5,M,,0000*61
$GPGSA,A,3,,,,,,,,,,,,,1.500,2.121,2.121,*1a
$GPGSV,1,1,1,1,1,1,1,,,,,,,,,,,,*48
$GPGSV,1,1,1,1,1,1,1,,,,,,,,,,,,*48
$GPGGA,000058,03018.1334,N,09743.9532,W,1,8,1.1,1.2114373015318756,M,24.5,M,,0000*67
$GPGSA,A,3,,,,,,,,,,,,,1.500,2.121,2.121,*1a
$GPGSV,1,1,1,1,1,1,1,,,,,,,,,,,,*48
$GPGSV,1,1,1,1,1,1,1,,,,,,,,,,,,*48
$GPGGA,000059,03018.1331,N,09743.9527,W,1,8,1.1,0.37218705122453,M,24.5,M,,0000*63
$GPGSA,A,3,,,,,,,,,,,,,1.500,2.121,2.121,*1a
$GPGSV,1,1,1,1,1,1,1,,,,,,,,,,,,*48
$GPGSV,1,1,1,1,1,1,1,,,,,,,,,,,,*48
$GPGGA,000060,03018.1353,N,09743.9521,W,1,8,1.1,-0.2496534181419563,M,24.5,M,,0000*47
$GPGSA,A,3,,,,,,,,,,,,,1.500,2.121,2.121,*1a
$GPGSV,1,1,1,1,1,1,1,,,,,,,,,,,,*48
$GPGSV,1,1,1,1,1,1,1,,,,,,,,,,,,*48
$GPGGA,000061,03018.1351,N,09743.9526,W,1,8,1.1,0.5014235072143369,M,24.5,M,,0000*6a
$GPGSA,A,3,,,,,,,,,,,,,1.500,2.121,2.121,*1a
$GPGSV,1,1,1,1,1,1,1,,,,,,,,,,,,*48
$GPGSV,1,1,1,1,1,1,1,,,,,,,,,,,,*48
$GPGGA,000062,03018.1353,N,09743.9513,W,1,8,1.1,0.8101484564858575,M,24.5,M,,0000*63
$GPGSA,A,3,,,,,,,,,,,,,1.500,2.121,2.121,*1a
$GPGSV,1,1,1,1,1,1,1,,,,,,,,,,,,*48
$GPGSV,1,1,1,1,1,1,1,,,,,,,,,,,,*48
$GPGGA,000063,03018.1365,N,09743.9520,W,1,8,1.1,1.7643038270607896,M,24.5,M,,0000*6d
$GPGSA,A,3,,,,,,,,,,,,,1.500,2.121,2.121,*1a
$GPGSV,1,1,1,1,1,1,1,,,,,,,,,,,,*48
$GPGSV,1,1,1,1,1,1,1,,,,,,,,,,,,*48
$GPGGA,000064,03018.1364,N,09743.9507,W,1,8,1.1,-0.0667775410575473,M,24.5,M,,0000*4c
$GPGSA,A,3,,,,,,,,,,,,,1.500,2.121,2.121,*1a
$GPGSV,1,1,1,1,1,1,1,,,,,,,,,,,,*48
$GPGSV,1,1,1,1,1,1,1,,,,,,,,,,,,*48
$GPGGA,000065,03018.1374,N,09743.9495,W,1,8,1.1,0.9242095102197775,M,24.5,M,,0000*63
$GPGSA,A,3,,,,,,,,,,,,,1.500,2.121,2.121,*1a
$GPGSV,1,1,1,1,1,1,1,,,,,,,,,,,,*48
$GPGSV,1,1,1,1,1,1,1,,,,,,,,,,,,*48
$GPGGA,000066,03018.1370,N,09743.9502,W,1,8,1.1,2.272311205470647,M,24.5,M,,0000*54
$GPGSA,A,3,,,,,,,,,,,,,1.500,2.121,2.121,*1a
$GPGSV,1,1,1,1,1,1,1,,,,,,,,,,,,*48
$GPGSV,1,1,1,1,1,1,1,,,,,,,,,,,,*48
$GPGGA,000067,03018.1382,N,09743.9494,W,1,8,1.1,0.2328368965602836,M,24.5,M,,0000*64
$GPGSA,A,3,,,,,,,,,,,,,1.500,2.121,2.121,*1a
$GPGSV,1,1,1,1,1,1,1,,,,,,,,,,,,*48
$GPGSV,1,1,1,1,1,1,1,,,,,,,,,,,,*48
$GPGGA,000068,03018.1384,N,09743.9495,W,1,8,1.1,-0.9961043353138868,M,24.5,M,,0000*4d
$GPGSA,A,3,,,,,,,,,,,,,1.500,2.121,2.121,*1a
$GPGSV,1,1,1,1,1,1,1,,,,,,,,,,,,*48
$GPGSV,1,1,1,1,1,1,1,,,,,,,,,,,,*48
$GPGGA,000069,03018.1387,N,09743.9496,W,1,8,1.1,-0.321181291535074,M,24.5,M,,0000*77
$GPGSA,A,3,,,,,,,,,,,,,1.500,2.121,2.121,*1a
$GPGSV,1,1,1,1,1,1,1,,,,,,,,,,,,*48
$GPGSV,1,1,1,1,1,1,1,,,,,,,,,,,,*48
$GPGGA,000070,03018.1392,N,09743.9489,W,1,8,1.1,-0.26364000432945023,M,24.5,M,,0000*7e
$GPGSA,A,3,,,,,,,,,,,,,1.500,2.121,2.121,*1a
$GPGSV,1,1,1,1,1,1,1,,,,,,,,,,,,*48
$GPGSV,1,1,1,1,1,1,1,,,,,,,,,,,,*48
$GPGGA,000071,03018.1402,N,09743.9485,W,1,8,1.1,-0.6328061827800155,M,24.5,M,,0000*48
$GPGSA,A,3,,,,,,,,,,,,,1.500,2.121,2.121,*1a
$GPGSV,1,1,1,1,1,1,1,,,,,,,,,,,,*48
$GPGSV,1,1,1,1,1,1,1,,,,,,,,,,,,*48
$GPGGA,000072,03018.1394,N,09743.9483,W,1,8,1.1,-0.19309349408518584,M,24.5,M,,0000*7c
$GPGSA,A,3,,,,,,,,,,,,,1.500,2.121,2.121,*1a
$GPGSV,1,1,1,1,1,1,1,,,,,,,,,,,,*48
$GPGSV,1,1,1,1,1,1,1,,,,,,,,,,,,*48
$GPGGA,000073,03018.1400,N,09743.9493,W,1,8,1.1,-0.5543110674268035,M,24.5,M,,0000*4b
$GPGSA,A,3,,,,,,,,,,,,,1.500,2.121,2.121,*1a
$GPGSV,1,1,1,1,1,1,1,,,,,,,,,,,,*48
$GPGSV,1,1,1,1,1,1,1,,,,,,,,,,,,*48
$GPGGA,000074,03018.1410,N,09743.9479,W,1,8,1.1,-2.6395755070470575,M,24.5,M,,0000*4e
$GPGSA,A,3,,,,,,,,,,,,,1.500,2.121,2.121,*1a
$GPGSV,1,1,1,1,1,1,1,,,,,,,,,,,,*48
$GPGSV,1,1,1,1,1,1,1,,,,,,,,,,,,*48
$GPGGA,000075,03018.1417,N,09743.9474,W,1,8,1.1,1.6285593846615167,M,24.5,M,,0000*68
$GPGSA,A,3,,,,,,,,,,,,,1.500,2.121,2.121,*1a
$GPGSV,1,1,1,1,1,1,1,,,,,,,,,,,,*48
$GPGSV,1,1,1,1,1,1,1,,,,,,,,,,,,*48
$GPGGA,000076,03018.1418,N,09743.9465,W,1,8,1.1,2.967203936157391,M,24.5,M,,0000*54
$GPGSA,A,3,,,,,,,,,,,,,1.500,2.121,2.121,*1a
$GPGSV,1,1,1,1,1,1,1,,,,,,,,,,,,*48
$GPGSV,1,1,1,1,1,1,1,,,,,,,,,,,,*48
$GPGGA,000077,03018.1438,N,09743.9468,W,1,8,1.1,-0.08308579854684561,M,24.5,M,,0000*71
$GPGSA,A,3,,,,,,,,,,,,,1.500,2.121,2.121,*1a
$GPGSV,1,1,1,1,1,1,1,,,,,,,,,,,,*48
$GPGSV,1,1,1,1,1,1,1,,,,,,,,,,,,*48
$GPGGA,000078,03018.1427,N,09743.9468,W,1,8,1.1,2.5120711650707577,M,24.5,M,,0000*61
$GPGSA,A,3,,,,,,,,,,,,,1.500,2.121,2.121,*1a
$GPGSV,1,1,1,1,1,1,1,,,,,,,,,,,,*48
$GPGSV,1,1,1,1,1,1,1,,,,,,,,,,,,*48
$GPGGA,000079,03018.1439,N,09743.9464,W,1,8,1.1,5.415964531690424,M,24.5,M,,0000*52
$GPGSA,A,3,,,,,,,,,,,,,1.500,2.121,2.121,*1a
$GPGSV,1,1,1,1,1,1,1,,,,,,,,,,,,*48
$GPGSV,1,1,1,1,1,1,1,,,,,,,,,,,,*48
$GPGGA,000080,03018.1441,N,09743.9456,W,1,8,1.1,-0.05080414306593051,M,24.5,M,,0000*71
$GPGSA,A,3,,,,,,,,,,,,,1.500,2.121,2.121,*1a
$GPGSV,1,1,1,1,1,1,1,,,,,,,,,,,,*48
$GPGSV,1,1,1,1,1,1,1,,,,,,,,,,,,*48
$GPGGA,000081,03018.1439,N,09743.9458,W,1,8,1.1,0.13305381050469967,M,24.5,M,,0000*56
$GPGSA,A,3,,,,,,,,,,,,,1.500,2.121,2.121,*1a
$GPGSV,1,1,1,1,1,1,1,,,,,,,,,,,,*48
$GPGSV,1,1,1,1,1,1,1,,,,,,,,,,,,*48
$GPGGA,000082,03018.1457,N,09743.9456,W,1,8,1.1,2.818597896934344,M,24.5,M,,0000*59
$GPGSA,A,3,,,,,,,,,,,,,1.500,2.121,2.121,*1a
$GPGSV,1,1,1,1,1,1,1,,,,,,,,,,,,*48
$GPGSV,1,1,1,1,1,1,1,,,,,,,,,,,,*48
$GPGGA,000083,03018.1448,N,09743.9455,W,1,8,1.1,5.923646978614457,M,24.5,M,,0000*5d
$GPGSA,A,3,,,,,,,,,,,,,1.500,2.121,2.121,*1a
$GPGSV,1,1,1,1,1,1,1,,,,,,,,,,,,*48
$GPGSV,1,1,1,1,1,1,1,,,,,,,,,,,,*48
$GPGGA,000084,03018.1461,N,09743.9450,W,1,8,1.1,0.9320059840820594,M,24.5,M,,0000*64
$GPGSA,A,3,,,,,,,,,,,,,1.500,2.121,2.121,*1a
$GPGSV,1,1,1,1,1,1,1,,,,,,,,,,,,*48
$GPGSV,1,1,1,1,1,1,1,,,,,,,,,,,,*48
$GPGGA,000085,03018.1462,N,09743.9440,W,1,8,1.1,-0.031331254384089346,M,24.5,M,,0000*4f
$GPGSA,A,3,,,,,,,,,,,,,1.500,2.121,2.121,*1a
$GPGSV,1,1,1,1,1,1,1,,,,,,,,,,,,*48
$GPGSV,1,1,1,1,1,1,1,,,,,,,,,,,,*48
$GPGGA,000086,03018.1469,N,09743.9442,W,1,8,1.1,1.247599383154025,M,24.5,M,,0000*5d
$GPGSA,A,3,,,,,,,,,,,,,1.500,2.121,2.121,*1a
$GPGSV,1,1,1,1,1,1,1,,,,,,,,,,,,*48
$GPGSV,1,1,1,1,1,1,1,,,,,,,,,,,,*48
$GPGGA,000087,03018.1476,N,09743.9438,W,1,8,1.1,0.2350295289301303,M,24.5,M,,0000*6e
$GPGSA,A,3,,,,,,,,,,,,,1.500,2.121,2.121,*1a
$GPGSV,1,1,1,1,1,1,1,,,,,,,,,,,,*48
$GPGSV,1,1,1,1,1,1,1,,,,,,,,,,,,*48
$GPGGA,000088,03018.1483,N,09743.9434,W,1,8,1.1,1.2981818089061044,M,24.5,M,,0000*68
$GPGSA,A,3,,,,,,,,,,,,,1.500,2.121,2.121,*1a
$GPGSV,1,1,1,1,1,1,1,,,,,,,,,,,,*48
$GPGSV,1,1,1,1,1,1,1,,,,,,,,,,,,*48
$GPGGA,000089,03018.1482,N,09743.9430,W,1,8,1.1,-1.657461478475489,M,24.5,M,,0000*7b
$GPGSA,A,3,,,,,,,,,,,,,1.500,2.121,2.121,*1a
$GPGSV,1,1,1,1,1,1,1,,,,,,,,,,,,*48
$GPGSV,1,1,1,1,1,1,1,,,,,,,,,,,,*48
$GPGGA,000090,03018.1487,N,09743.9430,W,1,8,1.1,2.069336085039809,M,24.5,M,,0000*58
$GPGSA,A,3,,,,,,,,,,,,,1.500,2.121,2.121,*1a
$GPGSV,1,1,1,1,1,1,1,,,,,,,,,,,,*48
$GPGSV,1,1,1,1,1,1,1,,,,,,,,,,,,*48
$GPGGA,000091,03018.1492,N,09743.9429,W,1,8,1.1,3.706529195797873,M,24.5,M,,0000*5c
$GPGSA,A,3,,,,,,,,,,,,,1.500,2.121,2.121,*1a
$GPGSV,1,1,1,1,1,1,1,,,,,,,,,,,,*48
$GPGSV,1,1,1,1,1,1,1,,,,,,,,,,,,*48
$GPGGA,000092,03018.1505,N,09743.9425,W,1,8,1.1,3.1260092342652928,M,24.5,M,,0000*62
$GPGSA,A,3,,,,,,,,,,,,,1.500,2.121,2.121,*1a
$GPGSV,1,1,1,1,1,1,1,,,,,,,,,,,,*48
$GPGSV,1,1,1,1,1,1,1,,,,,,,,,,,,*48
$GPGGA,000093,03018.1500,N,09743.9428,W,1,8,1.1,2.1433134178388573,M,24.5,M,,0000*6c
$GPGSA,A,3,,,,,,,,,,,,,1.500,2.121,2.121,*1a
$GPGSV,1,1,1,1,1,1,1,,,,,,,,,,,,*48
$GPGSV,1,1,1,1,1,1,1,,,,,,,,,,,,*48
$GPGGA,000094,03018.1512,N,09743.9418,W,1,8,1.1,3.2451593877121003,M,24.5,M,,0000*61
$GPGSA,A,3,,,,,,,,,,,,,1.500,2.121,2.121,*1a
$GPGSV,1,1,1,1,1,1,1,,,,,,,,,,,,*48
$GPGSV,1,1,1,1,1,1,1,,,,,,,,,,,,*48
$GPGGA,000095,03018.1508,N,09743.9420,W,1,8,1.1,2.966503030567944,M,24.5,M,,0000*54
$GPGSA,A,3,,,,,,,,,,,,,1.500,2.121,2.121,*1a
$GPGSV,1,1,1,1,1,1,1,,,,,,,,,,,,*48
$GPGSV,1,1,1,1,1,1,1,,,,,,,,,,,,*48
$GPGGA,000096,03018.1524,N,09743.9417,W,1,8,1.1,0.46106413945590274,M,24.5,M,,0000*58
$GPGSA,A,3,,,,,,,,,,,,,1.500,2.121,2.121,*1a
$GPGSV,1,1,1,1,1,1,1,,,,,,,,,,,,*48
$GPGSV,1,1,1,1,1,1,1,,,,,,,,,,,,*48
$GPGGA,000097,03018.1527,N,09743.9396,W,1,8,1.1,-0.03625146271251811,M,24.5,M,,0000*74
$GPGSA,A,3,,,,,,,,,,,,,1.500,2.121,2.121,*1a
$GPGSV,1,1,1,1,1,1,1,,,,,,,,,,,,*48
$GPGSV,1,1,1,1,1,1,1,,,,,,,,,,,,*48
$GPGGA,000098,03018.1524,N,09743.9413,W,1,8,1.1,-0.6357419119252024,M,24.5,M,,0000*48
$GPGSA,A,3,,,,,,,,,,,,,1.500,2.121,2.121,*1a
$GPGSV,1,1,1,1,1,1,1,,,,,,,,,,,,*48
$GPGSV,1,1,1,1,1,1,1,,,,,,,,,,,,*48
$GPGGA,000099,03018.1538,N,09743.9410,W,1,8,1.1,-0.1699894082264395,M,24.5,M,,0000*41
$GPGSA,A,3,,,,,,,,,,,,,1.500,2.121,2.121,*1a
$GPGSV,1,1,1,1,1,1,1,,,,,,,,,,,,*48
$GPGSV,1,1,1,1,1,1,1,,,,,,,,,,,,*48
$GPGGA,000100,03018.1528,N,09743.9408,W,1,8,1.1,3.354412264772223,M,24.5,M,,0000*55
$GPGSA,A,3,,,,,,,,,,,,,1.500,2.121,2.121,*1a
$GPGSV,1,1,1,1,1,1,1,,,,,,,,,,,,*48
$GPGSV,1,1,1,1,1,1,1,,,,,,,,,,,,*48
$GPGGA,000101,03018.1547,N,09743.9408,W,1,8,1.1,1.4685838564204114,M,24.5,M,,0000*62
$GPGSA,A,3,,,,,,,,,,,,,1.500,2.121,2.121,*1a
$GPGSV,1,1,1,1,1,1,1,,,,,,,,,,,,*48
$GPGSV,1,1,1,1,1,1,1,,,,,,,,,,,,*48
$GPGGA,000102,03018.1542,N,09743.9396,W,1,8,1.1,2.986016279522005,M,24.5,M,,0000*52
$GPGSA,A,3,,,,,,,,,,,,,1.500,2.121,2.121,*1a
$GPGSV,1,1,1,1,1,1,1,,,,,,,,,,,,*48
$GPGSV,1,1,1,1,1,1,1,,,,,,,,,,,,*48
$GPGGA,000103,03018.1549,N,09743.9395,W,1,8,1.1,1.8294093835789837,M,24.5,M,,0000*6d
$GPGSA,A,3,,,,,,,,,,,,,1.500,2.121,2.121,*1a
$GPGSV,1,1,1,1,1,1,1,,,,,,,,,,,,*48
$GPGSV,1,1,1,1,1,1,1,,,,,,,,,,,,*48
$GPGGA,000104,03018.1553,N,09743.9392,W,1,8,1.1,1.213704181018812,M,24.5,M,,0000*56
$GPGSA,A,3,,,,,,,,,,,,,1.500,2.121,2.121,*1a
$GPGSV,1,1,1,1,1,1,1,,,,,,,,,,,,*48
$GPGSV,1,1,1,1,1,1,1,,,,,,,,,,,,*48
$GPGGA,000105,03018.1550,N,09743.9396,W,1,8,1.1,2.298519021392305,M,24.5,M,,0000*59
$GPGSA,A,3,,,,,,,,,,,,,1.500,2.121,2.121,*1a
$GPGSV,1,1,1,1,1,1,1,,,,,,,,,,,,*48
$GPGSV,1,1,1,1,1,1,1,,,,,,,,,,,,*48
$GPGGA,000106,03018.1564,N,09743.9396,W,1,8,1.1,2.4673456567503522,M,24.5,M,,0000*68
$GPGSA,A,3,,,,,,,,,,,,,1.500,2.121,2.121,*1a
$GPGSV,1,1,1,1,1,1,1,,,,,,,,,,,,*48
$GPGSV,1,1,1,1,1,1,1,,,,,,,,,,,,*48
$GPGGA,000107,03018.1567,N,09743.9380,W,1,8,1.1,4.821146500646365,M,24.5,M,,0000*54
$GPGSA,A,3,,,,,,,,,,,,,1.500,2.121,2.121,*1a
$GPGSV,1,1,1,1,1,1,1,,,,,,,,,,,,*48
$GPGSV,1,1,1,1,1,1,1,,,,,,,,,,,,*48
$GPGGA,000108,03018.1572,N,09743.9375,W,1,8,1.1,2.6913177728850304,M,24.5,M,,0000*61
$GPGSA,A,3,,,,,,,,,,,,,1.500,2.121,2.121,*1a
$GPGSV,1,1,1,1,1,1,1,,,,,,,,,,,,*48
$GPGSV,1,1,1,1,1,1,1,,,,,,,,,,,,*48
$GPGGA,000109,03018.1575,N,09743.9376,W,1,8,1.1,0.67280244624846,M,24.5,M,,0000*6e
$GPGSA,A,3,,,,,,,,,,,,,1.500,2.121,2.121,*1a
$GPGSV,1,1,1,1,1,1,1,,,,,,,,,,,,*48
$GPGSV,1,1,1,1,1,1,1,,,,,,,,,,,,*48
$GPGGA,000110,03018.1582,N,09743.9366,W,1,8,1.1,1.3642918606581655,M,24.5,M,,0000*64
$GPGSA,A,3,,,,,,,,,,,,,1.500,2.121,2.121,*1a
$GPGSV,1,1,1,1,1,1,1,,,,,,,,,,,,*48
$GPGSV,1,1,1,1,1,1,1,,,,,,,,,,,,*48
$GPGGA,000111,03018.1585,N,09743.9368,W,1,8,1.1,0.1612187157757008,M,24.5,M,,0000*60
$GPGSA,A,3,,,,,,,,,,,,,1.500,2.121,2.121,*1a
$GPGSV,1,1,1,1,1,1,1,,,,,,,,,,,,*48
$GPGSV,1,1,1,1,1,1,1,,,,,,,,,,,,*48
$GPGGA,000112,03018.1604,N,09743.9368,W,1,8,1.1,2.654275856700766,M,24.5,M,,0000*53
$GPGSA,A,3,,,,,,,,,,,,,1.500,2.121,2.121,*1a
$GPGSV,1,1,1,1,1,1,1,,,,,,,,,,,,*48
$GPGSV,1,1,1,1,1,1,1,,,,,,,,,,,,*48
$GPGGA,000113,03018.1603,N,09743.9363,W,1,8,1.1,-0.19580492060458932,M,24.5,M,,0000*70
$GPGSA,A,3,,,,,,,,,,,,,1.500,2.121,2.121,*1a
$GPGSV,1,1,1,1,1,1,1,,,,,,,,,,,,*48
$GPGSV,1,1,1,1,1,1,1,,,,,,,,,,,,*48
$GPGGA,000114,03018.1592,N,09743.9369,W,1,8,1.1,0.1082420714449186,M,24.5,M,,0000*6f
$GPGSA,A,3,,,,,,,,,,,,,1.500,2.121,2.121,*1a
$GPGSV,1,1,1,1,1,1,1,,,,,,,,,,,,*48
$GPGSV,1,1,1,1,1,1,1,,,,,,,,,,,,*48
$GPGGA,000115,03018.1596,N,09743.9358,W,1,8,1.1,1.2705535803275203,M,24.5,M,,0000*69
$GPGSA,A,3,,,,,,,,,,,,,1.500,2.121,2.121,*1a
$GPGSV,1,1,1,1,1,1,1,,,,,,,,,,,,*48
$GPGSV,1,1,1,1,1,1,1,,,,,,,,,,,,*48
$GPGGA,000116,03018.1614,N,09743.9360,W,1,8,1.1,-0.7672855305668635,M,24.5,M,,0000*4f
$GPGSA,A,3,,,,,,,,,,,,,1.500,2.121,2.121,*1a
$GPGSV,1,1,1,1,1,1,1,,,,,,,,,,,,*48
$GPGSV,1,1,1,1,1,1,1,,,,,,,,,,,,*48
$GPGGA,000117,03018.1609,N,09743.9356,W,1,8,1.1,2.6615008862698755,M,24.5,M,,0000*6a
$GPGSA,A,3,,,,,,,,,,,,,1.500,2.121,2.121,*1a
$GPGSV,1,1,1,1,1,1,1,,,,,,,,,,,,*48
$GPGSV,1,1,1,1,1,1,1,,,,,,,,,,,,*48
$GPGGA,000118,03018.1619,N,09743.9360,W,1,8,1.1,0.8873736958690223,M,24.5,M,,0000*6d
$GPGSA,A,3,,,,,,,,,,,,,1.500,2.121,2.121,*1a
$GPGSV,1,1,1,1,1,1,1,,,,,,,,,,,,*48
$GPGSV,1,1,1,1,1,1,1,,,,,,,,,,,,*48
$GPGGA,000119,03018.1612,N,09743.9350,W,1,8,1.1,-2.95619104308646,M,24.5,M,,0000*4d
$GPGSA,A,3,,,,,,,,,,,,,1.500,2.121,2.121,*1a
$GPGSV,1,1,1,1,1,1,1,,,,,,,,,,,,*48
$GPGSV,1,1,1,1,1,1,1,,,,,,,,,,,,*48
$GPGGA,000120,03018.1640,N,09743.9343,W,1,8,1.1,1.2875931457976084,M,24.5,M,,0000*65
$GPGSA,A,3,,,,,,,,,,,,,1.500,2.121,2.121,*1a
$GPGSV,1,1,1,1,1,1,1,,,,,,,,,,,,*48
$GPGSV,1,1,1,1,1,1,1,,,,,,,,,,,,*48
$GPGGA,000121,03018.1620,N,09743.9336,W,1,8,1.1,2.643385376071037,M,24.5,M,,0000*5d
$GPGSA,A,3,,,,,,,,,,,,,1.500,2.121,2.121,*1a
$GPGSV,1,1,1,1,1,1,1,,,,,,,,,,,,*48
$GPGSV,1,1,1,1,1,1,1,,,,,,,,,,,,*48
$GPGGA,000122,03018.1632,N,09743.9334,W,1,8,1.1,3.0804652069318426,M,24.5,M,,0000*69
$GPGSA,A,3,,,,,,,,,,,,,1.500,2.121,2.121,*1a
$GPGSV,1,1,1,1,1,1,1,,,,,,,,,,,,*48
$GPGSV,1,1,1,1,1,1,1,,,,,,,,,,,,*48
$GPGGA,000123,03018.1634,N,09743.9328,W,1,8,1.1,0.7226873482695033,M,24.5,M,,0000*61
$GPGSA,A,3,,,,,,,,,,,,,1.500,2.121,2.121,*1a
$GPGSV,1,1,1,1,1,1,1,,,,,,,,,,,,*48
$GPGSV,1,1,1,1,1,1,1,,,,,,,,,,,,*48
$GPGGA,000124,03018.1666,N,09743.9337,W,1,8,1.1,0.48539909117401114,M,24.5,M,,0000*53
$GPGSA,A,3,,,,,,,,,,,,,1.500,2.121,2.121,*1a
$GPGSV,1,1,1,1,1,1,1,,,,,,,,,,,,*48
$GPGSV,1,1,1,1,1,1,1,,,,,,,,,,,,*48
$GPGGA,000125,03018.1653,N,09743.9329,W,1,8,1.1,2.9010521702183594,M,24.5,M,,0000*65
$GPGSA,A,3,,,,,,,,,,,,,1.500,2.121,2.121,*1a
$GPGSV,1,1,1,1,1,1,1,,,,,,,,,,,,*48
$GPGSV,1,1,1,1,1,1,1,,,,,,,,,,,,*48
$GPGGA,000126,03018.1658,N,09743.9330,W,1,8,1.1,2.164455584478217,M,24.5,M,,0000*5d
$GPGSA,A,3,,,,,,,,,,,,,1.500,2.121,2.121,*1a
$GPGSV,1,1,1,1,1,1,1,,,,,,,,,,,,*48
$GPGSV,1,1,1,1,1,1,1,,,,,,,,,,,,*48
$GPGGA,000127,03018.1663,N,09743.9324,W,1,8,1.1,3.3481034012229918,M,24.5,M,,0000*62
$GPGSA,A,3,,,,,,,,,,,,,1.500,2.121,2.121,*1a
$GPGSV,1,1,1,1,1,1,1,,,,,,,,,,,,*48
$GPGSV,1,1,1,1,1,1,1,,,,,,,,,,,,*48
$GPGGA,000128,03018.1669,N,09743.9314,W,1,8,1.1,1.334679547376152,M,24.5,M,,0000*5b
$GPGSA,A,3,,,,,,,,,,,,,1.500,2.121,2.121,*1a
$GPGSV,1,1,1,1,1,1,1,,,,,,,,,,,,*48
$GPGSV,1,1,1,1,1,1,1,,,,,,,,,,,,*48
$GPGGA,000129,03018.1674,N,09743.9315,W,1,8,1.1,0.0024411205178513917,M,24.5,M,,0000*5b
$GPGSA,A,3,,,,,,,,,,,,,1.500,2.121,2.121,*1a
$GPGSV,1,1,1,1,1,1,1,,,,,,,,,,,,*48
$GPGSV,1,1,1,1,1,1,1,,,,,,,,,,,,*48
$GPGGA,000130,03018.1675,N,09743.9311,W,1,8,1.1,2.0609020373437725,M,24.5,M,,0000*6d
$GPGSA,A,3,,,,,,,,,,,,,1.500,2.121,2.121,*1a
$GPGSV,1,1,1,1,1,1,1,,,,,,,,,,,,*48
$GPGSV,1,1,1,1,1,1,1,,,,,,,,,,,,*48
$GPGGA,000131,03018.1688,N,09743.9305,W,1,8,1.1,1.1712313261909375,M,24.5,M,,0000*62
$GPGSA,A,3,,,,,,,,,,,,,1.500,2.121,2.121,*1a
$GPGSV,1,1,1,1,1,1,1,,,,,,,,,,,,*48
$GPGSV,1,1,1,1,1,1,1,,,,,,,,,,,,*48
$GPGGA,000132,03018.1681,N,09743.9295,W,1,8,1.1,1.8004634892446973,M,24.5,M,,0000*65
$GPGSA,A,3,,,,,,,,,,,,,1.500,2.121,2.121,*1a
$GPGSV,1,1,1,1,1,1,1,,,,,,,,,,,,*48
$GPGSV,1,1,1,1,1,1,1,,,,,,,,,,,,*48
$GPGGA,000133,03018.1685,N,09743.9299,W,1,8,1.1,3.378393563780831,M,24.5,M,,0000*5b
$GPGSA,A,3,,,,,,,,,,,,,1.500,2.121,2.121,*1a
$GPGSV,1,1,1,1,1,1,1,,,,,,,,,,,,*48
$GPGSV,1,1,1,1,1,1,1,,,,,,,,,,,,*48
$GPGGA,000134,03018.1703,N,09743.9314,W,1,8,1.1,3.107728718940044,M,24.5,M,,0000*5f
$GPGSA,A,3,,,,,,,,,,,,,1.500,2.121,2.121,*1a
$GPGSV,1,1,1,1,1,1,1,,,,,,,,,,,,*48
$GPGSV,1,1,1,1,1,1,1,,,,,,,,,,,,*48
$GPGGA,000135,03018.1695,N,09743.9301,W,1,8,1.1,2.507606545156652,M,24.5,M,,0000*58
$GPGSA,A,3,,,,,,,,,,,,,1.500,2.121,2.121,*1a
$GPGSV,1,1,1,1,1,1,1,,,,,,,,,,,,*48
$GPGSV,1,1,1,1,1,1,1,,,,,,,,,,,,*48
$GPGGA,000136,03018.1706,N,09743.9297,W,1,8,1.1,1.0966864322989875,M,24.5,M,,0000*6a
$GPGSA,A,3,,,,,,,,,,,,,1.500,2.121,2.121,*1a
$GPGSV,1,1,1,1,1,1,1,,,,,,,,,,,,*48
$GPGSV,1,1,1,1,1,1,1,,,,,,,,,,,,*48
$GPGGA,000137,03018.1714,N,09743.9305,W,1,8,1.1,1.101335534203268,M,24.5,M,,0000*5a
$GPGSA,A,3,,,,,,,,,,,,,1.500,2.121,2.121,*1a
$GPGSV,1,1,1,1,1,1,1,,,,,,,,,,,,*48
$GPGSV,1,1,1,1,1,1,1,,,,,,,,,,,,*48
$GPGGA,000138,03018.1720,N,09743.9289,W,1,8,1.1,-0.12649655192058407,M,24.5,M,,0000*7b
$GPGSA,A,3,,,,,,,,,,,,,1.500,2.121,2.121,*1a
$GPGSV,1,1,1,1,1,1,1,,,,,,,,,,,,*48
$GPGSV,1,1,1,1,1,1,1,,,,,,,,,,,,*48
$GPGGA,000139,03018.1719,N,09743.9287,W,1,8,1.1,0.7334065008339687,M,24.5,M,,0000*61
$GPGSA,A,3,,,,,,,,,,,,,1.500,2.121,2.121,*1a
$GPGSV,1,1,1,1,1,1,1,,,,,,,,,,,,*48
$GPGSV,1,1,1,1,1,1,1,,,,,,,,,,,,*48
$GPGGA,000140,03018.1725,N,09743.9284,W,1,8,1.1,0.7089804082748306,M,24.5,M,,0000*65
$GPGSA,A,3,,,,,,,,,,,,,1.500,2.121,2.121,*1a
$GPGSV,1,1,1,1,1,1,1,,,,,,,,,,,,*48
$GPGSV,1,1,1,1,1,1,1,,,,,,,,,,,,*48
$GPGGA,000141,03018.1733,N,09743.9266,W,1,8,1.1,0.7647899382248566,M,24.5,M,,0000*69
$GPGSA,A,3,,,,,,,,,,,,,1.500,2.121,2.121,*1a
$GPGSV,1,1,1,1,1,1,1,,,,,,,,,,,,*48
$GPGSV,1,1,1,1,1,1,1,,,,,,,,,,,,*48
$GPGGA,000142,03018.1714,N,09743.9281,W,1,8,1.1,5.623038894086187,M,24.5,M,,0000*52
$GPGSA,A,3,,,,,,,,,,,,,1.500,2.121,2.121,*1a
$GPGSV,1,1,1,1,1,1,1,,,,,,,,,,,,*48
$GPGSV,1,1,1,1,1,1,1,,,,,,,,,,,,*48
$GPGGA,000143,03018.1737,N,09743.9276,W,1,8,1.1,-1.938832958371795,M,24.5,M,,0000*7b
$GPGSA,A,3,,,,,,,,,,,,,1.500,2.121,2.121,*1a
$GPGSV,1,1,1,1,1,1,1,,,,,,,,,,,,*48
$GPGSV,1,1,1,1,1,1,1,,,,,,,,,,,,*48
$GPGGA,000144,03018.1749,N,09743.9267,W,1,8,1.1,0.6898044182695972,M,24.5,M,,0000*6a
$GPGSA,A,3,,,,,,,,,,,,,1.500,2.121,2.121,*1a
$GPGSV,1,1,1,1,1,1,1,,,,,,,,,,,,*48
$GPGSV,1,1,1,1,1,1,1,,,,,,,,,,,,*48
$GPGGA,000145,03018.1747,N,09743.9270,W,1,8,1.1,3.2087461432046376,M,24.5,M,,0000*69
$GPGSA,A,3,,,,,,,,,,,,,1.500,2.121,2.121,*1a
$GPGSV,1,1,1,1,1,1,1,,,,,,,,,,,,*48
$GPGSV,1,1,1,1,1,1,1,,,,,,,,,,,,*48
$GPGGA,000146,03018.1748,N,09743.9277,W,1,8,1.1,3.0268956696666476,M,24.5,M,,0000*65
$GPGSA,A,3,,,,,,,,,,,,,1.500,2.121,2.121,*1a
$GPGSV,1,1,1,1,1,1,1,,,,,,,,,,,,*48
$GPGSV,1,1,1,1,1,1,1,,,,,,,,,,,,*48
$GPGGA,000147,03018.1755,N,09743.9262,W,1,8,1.1,2.5096805489679737,M,24.5,M,,0000*68
$GPGSA,A,3,,,,,,,,,,,,,1.500,2.121,2.121,*1a
$GPGSV,1,1,1,1,1,1,1,,,,,,,,,,,,*48
$GPGSV,1,1,1,1,1,1,1,,,,,,,,,,,,*48
$GPGGA,000148,03018.1762,N,09743.9261,W,1,8,1.1,3.1338058286957224,M,24.5,M,,0000*6f
$GPGSA,A,3,,,,,,,,,,,,,1.500,2.121,2.121,*1a
$GPGSV,1,1,1,1,1,1,1,,,,,,,,,,,,*48
$GPGSV,1,1,1,1,1,1,1,,,,,,,,,,,,*48
$GPGGA,000149,03018.1767,N,09743.9245,W,1,8,1.1,0.9311334572076488,M,24.5,M,,0000*62
$GPGSA,A,3,,,,,,,,,,,,,1.500,2.121,2.121,*1a
$GPGSV,1,1,1,1,1,1,1,,,,,,,,,,,,*48
$GPGSV,1,1,1,1,1,1,1,,,,,,,,,,,,*48
$GPGGA,000150,03018.1767,N,09743.9261,W,1,8,1.1,2.8811563294861386,M,24.5,M,,0000*68
$GPGSA,A,3,,,,,,,,,,,,,1.500,2.121,2.121,*1a
$GPGSV,1,1,1,1,1,1,1,,,,,,,,,,,,*48
$GPGSV,1,1,1,1,1,1,1,,,,,,,,,,,,*48
$GPGGA,000151,03018.1750,N,09743.9237,W,1,8,1.1,0.8481270370793641,M,24.5,M,,0000*6b
$GPGSA,A,3,,,,,,,,,,,,,1.500,2.121,2.121,*1a
$GPGSV,1,1,1,1,1,1,1,,,,,,,,,,,,*48
$GPGSV,1,1,1,1,1,1,1,,,,,,,,,,,,*48
$GPGGA,000152,03018.1765,N,09743.9242,W,1,8,1.1,3.1604930096324395,M,24.5,M,,0000*69
$GPGSA,A,3,,,,,,,,,,,,,1.500,2.121,2.121,*1a
$GPGSV,1,1,1,1,1,1,1,,,,,,,,,,,,*48
$GPGSV,1,1,1,1,1,1,1,,,,,,,,,,,,*48
$GPGGA,000153,03018.1784,N,09743.9257,W,1,8,1.1,-0.4503882592754851,M,24.5,M,,0000*45
$GPGSA,A,3,,,,,,,,,,,,,1.500,2.121,2.121,*1a
$GPGSV,1,1,1,1,1,1,1,,,,,,,,,,,,*48
$GPGSV,1,1,1,1,1,1,1,,,,,,,,,,,,*48
$GPGGA,000154,03018.1777,N,09743.9237,W,1,8,1.1,1.6641611530833678,M,24.5,M,,0000*64
$GPGSA,A,3,,,,,,,,,,,,,1.500,2.121,2.121,*1a
$GPGSV,1,1,1,1,1,1,1,,,,,,,,,,,,*48
$GPGSV,1,1,1,1,1,1,1,,,,,,,,,,,,*48
$GPGGA,000155,03018.1795,N,09743.9241,W,1,8,1.1,4.009839684669089,M,24.5,M,,0000*50
$GPGSA,A,3,,,,,,,,,,,,,1.500,2.121,2.121,*1a
$GPGSV,1,1,1,1,1,1,1,,,,,,,,,,,,*48
$GPGSV,1,1,1,1,1,1,1,,,,,,,,,,,,*48
$GPGGA,000156,03018.1797,N,09743.9238,W,1,8,1.1,0.24821667396807534,M,24.5,M,,0000*59
$GPGSA,A,3,,,,,,,,,,,,,1.500,2.121,2.121,*1a
$GPGSV,1,1,1,1,1,1,1,,,,,,,,,,,,*48
$GPGSV,1,1,1,1,1,1,1,,,,,,,,,,,,*48
$GPGGA,000157,03018.1795,N,09743.9228,W,1,8,1.1,2.4453105380858036,M,24.5,M,,0000*6b
$GPGSA,A,3,,,,,,,,,,,,,1.500,2.121,2.121,*1a
$GPGSV,1,1,1,1,1,1,1,,,,,,,,,,,,*48
$GPGSV,1,1,1,1,1,1,1,,,,,,,,,,,,*48
$GPGGA,000158,03018.1806,N,09743.9230,W,1,8,1.1,1.8583536603843323,M,24.5,M,,0000*6c
$GPGSA,A,3,,,,,,,,,,,,,1.500,2.121,2.121,*1a
$GPGSV,1,1,1,1,1,1,1,,,,,,,,,,,,*48
$GPGSV,1,1,1,1,1,1,1,,,,,,,,,,,,*48
$GPGGA,000159,03018.1810,N,09743.9220,W,1,8,1.1,3.322886585280338,M,24.5,M,,0000*58
$GPGSA,A,3,,,,,,,,,,,,,1.500,2.121,2.121,*1a
$GPGSV,1,1,1,1,1,1,1,,,,,,,,,,,,*48
$GPGSV,1,1,1,1,1,1,1,,,,,,,,,,,,*48
$GPGGA,000160,03018.1821,N,09743.9220,W,1,8,1.1,-0.8834580568730015,M,24.5,M,,0000*40
$GPGSA,A,3,,,,,,,,,,,,,1.500,2.121,2.121,*1a
$GPGSV,1,1,1,1,1,1,1,,,,,,,,,,,,*48
$GPGSV,1,1,1,1,1,1,1,,,,,,,,,,,,*48
$GPGGA,000161,03018.1821,N,09743.9228,W,1,8,1.1,0.5643752731910163,M,24.5,M,,0000*68
$GPGSA,A,3,,,,,,,,,,,,,1.500,2.121,2.121,*1a
$GPGSV,1,1,1,1,1,1,1,,,,,,,,,,,,*48
$GPGSV,1,1,1,1,1,1,1,,,,,,,,,,,,*48
$GPGGA,000162,03018.1826,N,09743.9220,W,1,8,1.1,3.774234533858104,M,24.5,M,,0000*5e
$GPGSA,A,3,,,,,,,,,,,,,1.500,2.121,2.121,*1a
$GPGSV,1,1,1,1,1,1,1,,,,,,,,,,,,*48
$GPGSV,1,1,1,1,1,1,1,,,,,,,,,,,,*48
$GPGGA,000163,03018.1839,N,09743.9209,W,1,8,1.1,1.398571039996508,M,24.5,M,,0000*5c
$GPGSA,A,3,,,,,,,,,,,,,1.500,2.121,2.121,*1a
$GPGSV,1,1,1,1,1,1,1,,,,,,,,,,,,*48
$GPGSV,1,1,1,1,1,1,1,,,,,,,,,,,,*48
$GPGGA,000164,03018.1831,N,09743.9212,W,1,8,1.1,1.1865014055622232,M,24.5,M,,0000*63
$GPGSA,A,3,,,,,,,,,,,,,1.500,2.121,2.121,*1a
$GPGSV,1,1,1,1,1,1,1,,,,,,,,,,,,*48
$GPGSV,1,1,1,1,1,1,1,,,,,,,,,,,,*48
$GPGGA,000165,03018.1842,N,09743.9210,W,1,8,1.1,2.9771450682803158,M,24.5,M,,0000*6f
$GPGSA,A,3,,,,,,,,,,,,,1.500,2.121,2.121,*1a
$GPGSV,1,1,1,1,1,1,1,,,,,,,,,,,,*48
$GPGSV,1,1,1,1,1,1,1,,,,,,,,,,,,*48
$GPGGA,000166,03018.1845,N,09743.9209,W,1,8,1.1,0.5375350906114276,M,24.5,M,,0000*69
$GPGSA,A,3,,,,,,,,,,,,,1.500,2.121,2.121,*1a
$GPGSV,1,1,1,1,1,1,1,,,,,,,,,,,,*48
$GPGSV,1,1,1,1,1,1,1,,,,,,,,,,,,*48
$GPGGA,000167,03018.1854,N,09743.9220,W,1,8,1.1,0.900891537982703,M,24.5,M,,0000*56
$GPGSA,A,3,,,,,,,,,,,,,1.500,2.121,2.121,*1a
$GPGSV,1,1,1,1,1,1,1,,,,,,,,,,,,*48
$GPGSV,1,1,1,1,1,1,1,,,,,,,,,,,,*48
$GPGGA,000168,03018.1854,N,09743.9201,W,1,8,1.1,3.5592468895938465,M,24.5,M,,0000*66
$GPGSA,A,3,,,,,,,,,,,,,1.500,2.121,2.121,*1a
$GPGSV,1,1,1,1,1,1,1,,,,,,,,,,,,*48
$GPGSV,1,1,1,1,1,1,1,,,,,,,,,,,,*48
$GPGGA,000169,03018.1863,N,09743.9198,W,1,8,1.1,2.0213558960611056,M,24.5,M,,0000*63
$GPGSA,A,3,,,,,,,,,,,,,1.500,2.121,2.121,*1a
$GPGSV,1,1,1,1,1,1,1,,,,,,,,,,,,*48
$GPGSV,1,1,1,1,1,1,1,,,,,,,,,,,,*48
$GPGGA,000170,03018.1872,N,09743.9197,W,1,8,1.1,4.206435608972075,M,24.5,M,,0000*56
$GPGSA,A,3,,,,,,,,,,,,,1.500,2.121,2.121,*1a
$GPGSV,1,1,1,1,1,1,1,,,,,,,,,,,,*48
$GPGSV,1,1,1,1,1,1,1,,,,,,,,,,,,*48
$GPGGA,000171,03018.1871,N,09743.9195,W,1,8,1.1,2.403764377025305,M,24.5,M,,0000*56
$GPGSA,A,3,,,,,,,,,,,,,1.500,2.121,2.121,*1a
$GPGSV,1,1,1,1,1,1,1,,,,,,,,,,,,*48
$GPGSV,1,1,1,1,1,1,1,,,,,,,,,,,,*48
$GPGGA,000172,03018.1875,N,09743.9191,W,1,8,1.1,1.2724546885957908,M,24.5,M,,0000*6d
$GPGSA,A,3,,,,,,,,,,,,,1.500,2.121,2.121,*1a
$GPGSV,1,1,1,1,1,1,1,,,,,,,,,,,,*48
$GPGSV,1,1,1,1,1,1,1,,,,,,,,,,,,*48
$GPGGA,000173,03018.1874,N,09743.9187,W,1,8,1.1,-0.14830000070642546,M,24.5,M,,0000*73
$GPGSA,A,3,,,,,,,,,,,,,1.500,2.121,2.121,*1a
$GPGSV,1,1,1,1,1,1,1,,,,,,,,,,,,*48
$GPGSV,1,1,1,1,1,1,1,,,,,,,,,,,,*48
$GPGGA,000174,03018.1885,N,09743.9186,W,1,8,1.1,2.6800560109588947,M,24.5,M,,0000*60
$GPGSA,A,3,,,,,,,,,,,,,1.500,2.121,2.121,*1a
$GPGSV,1,1,1,1,1,1,1,,,,,,,,,,,,*48
$GPGSV,1,1,1,1,1,1,1,,,,,,,,,,,,*48
$GPGGA,000175,03018.1887,N,09743.9178,W,1,8,1.1,0.5332193472321554,M,24.5,M,,0000*63
$GPGSA,A,3,,,,,,,,,,,,,1.500,2.121,2.121,*1a
$GPGSV,1,1,1,1,1,1,1,,,,,,,,,,,,*48
$GPGSV,1,1,1,1,1,1,1,,,,,,,,,,,,*48
$GPGGA,000176,03018.1891,N,09743.9177,W,1,8,1.1,2.4213097046899823,M,24.5,M,,0000*6a
$GPGSA,A,3,,,,,,,,,,,,,1.500,2.121,2.121,*1a
$GPGSV,1,1,1,1,1,1,1,,,,,,,,,,,,*48
$GPGSV,1,1,1,1,1,1,1,,,,,,,,,,,,*48
$GPGGA,000177,03018.1896,N,09743.9176,W,1,8,1.1,3.079539225163727,M,24.5,M,,0000*57
$GPGSA,A,3,,,,,,,,,,,,,1.500,2.121,2.121,*1a
$GPGSV,1,1,1,1,1,1,1,,,,,,,,,,,,*48
$GPGSV,1,1,1,1,1,1,1,,,,,,,,,,,,*48
$GPGGA,000178,03018.1904,N,09743.9156,W,1,8,1.1,2.5225193760204556,M,24.5,M,,0000*69
$GPGSA,A,3,,,,,,,,,,,,,1.500,2.121,2.121,*1a
$GPGSV,1,1,1,1,1,1,1,,,,,,,,,,,,*48
$GPGSV,1,1,1,1,1,1,1,,,,,,,,,,,,*48
$GPGGA,000179,03018.1907,N,09743.9172,W,1,8,1.1,3.4279185366661906,M,24.5,M,,0000*6f
$GPGSA,A,3,,,,,,,,,,,,,1.500,2.121,2.121,*1a
$GPGSV,1,1,1,1,1,1,1,,,,,,,,,,,,*48
$GPGSV,1,1,1,1,1,1,1,,,,,,,,,,,,*48
$GPGGA,000180,03018.1916,N,09743.9156,W,1,8,1.1,3.202244762593114,M,24.5,M,,0000*5c
$GPGSA,A,3,,,,,,,,,,,,,1.500,2.121,2.121,*1a
$GPGSV,1,1,1,1,1,1,1,,,,,,,,,,,,*48
$GPGSV,1,1,1,1,1,1,1,,,,,,,,,,,,*48
$GPGGA,000181,03018.1916,N,09743.9160,W,1,8,1.1,-1.3052366596089096,M,24.5,M,,0000*4e
$GPGSA,A,3,,,,,,,,,,,,,1.500,2.121,2.121,*1a
$GPGSV,1,1,1,1,1,1,1,,,,,,,,,,,,*48
$GPGSV,1,1,1,1,1,1,1,,,,,,,,,,,,*48
$GPGGA,000182,03018.1915,N,09743.9162,W,1,8,1.1,2.1075969205337355,M,24.5,M,,0000*67
$GPGSA,A,3,,,,,,,,,,,,,1.500,2.121,2.121,*1a
$GPGSV,1,1,1,1,1,1,1,,,,,,,,,,,,*48
$GPGSV,1,1,1,1,1,1,1,,,,,,,,,,,,*48
$GPGGA,000183,03018.1927,N,09743.9157,W,1,8,1.1,1.6992016884099104,M,24.5,M,,0000*66
$GPGSA,A,3,,,,,,,,,,,,,1.500,2.121,2.121,*1a
$GPGSV,1,1,1,1,1,1,1,,,,,,,,,,,,*48
$GPGSV,1,1,1,1,1,1,1,,,,,,,,,,,,*48
$GPGGA,000184,03018.1928,N,09743.9155,W,1,8,1.1,-0.49632085135048154,M,24.5,M,,0000*7e
$GPGSA,A,3,,,,,,,,,,,,,1.500,2.121,2.121,*1a
$GPGSV,1,1,1,1,1,1,1,,,,,,,,,,,,*48
$GPGSV,1,1,1,1,1,1,1,,,,,,,,,,,,*48
$GPGGA,000185,03018.1931,N,09743.9146,W,1,8,1.1,1.0460392375981855,M,24.5,M,,0000*66
$GPGSA,A,3,,,,,,,,,,,,,1.500,2.121,2.121,*1a
$GPGSV,1,1,1,1,1,1,1,,,,,,,,,,,,*48
$GPGSV,1,1,1,1,1,1,1,,,,,,,,,,,,*48
$GPGGA,000186,03018.1950,N,09743.9152,W,1,8,1.1,1.3885577823037414,M,24.5,M,,0000*6b
$GPGSA,A,3,,,,,,,,,,,,,1.500,2.121,2.121,*1a
$GPGSV,1,1,1,1,1,1,1,,,,,,,,,,,,*48
$GPGSV,1,1,1,1,1,1,1,,,,,,,,,,,,*48
$GPGGA,000187,03018.1943,N,09743.9145,W,1,8,1.1,-0.6762119390209569,M,24.5,M,,0000*4a
$GPGSA,A,3,,,,,,,,,,,,,1.500,2.121,2.121,*1a
$GPGSV,1,1,1,1,1,1,1,,,,,,,,,,,,*48
$GPGSV,1,1,1,1,1,1,1,,,,,,,,,,,,*48
$GPGGA,000188,03018.1938,N,09743.9153,W,1,8,1.1,1.0828148134218574,M,24.5,M,,0000*61
$GPGSA,A,3,,,,,,,,,,,,,1.500,2.121,2.121,*1a
$GPGSV,1,1,1,1,1,1,1,,,,,,,,,,,,*48
$GPGSV,1,1,1,1,1,1,1,,,,,,,,,,,,*48
$GPGGA,000189,03018.1952,N,09743.9139,W,1,8,1.1,0.8274418362897765,M,24.5,M,,0000*64
$GPGSA,A,3,,,,,,,,,,,,,1.500,2.121,2.121,*1a
$GPGSV,1,1,1,1,1,1,1,,,,,,,,,,,,*48
$GPGSV,1,1,1,1,1,1,1,,,,,,,,,,,,*48
$GPGGA,000190,03018.1954,N,09743.9134,W,1,8,1.1,0.2559673802843663,M,24.5,M,,0000*69
$GPGSA,A,3,,,,,,,,,,,,,1.500,2.121,2.121,*1a
$GPGSV,1,1,1,1,1,1,1,,,,,,,,,,,,*48
$GPGSV,1,1,1,1,1,1,1,,,,,,,,,,,,*48
$GPGGA,000191,03018.1959,N,09743.9128,W,1,8,1.1,0.791913949525889,M,24.5,M,,0000*5c
$GPGSA,A,3,,,,,,,,,,,,,1.500,2.121,2.121,*1a
$GPGSV,1,1,1,1,1,1,1,,,,,,,,,,,,*48
$GPGSV,1,1,1,1,1,1,1,,,,,,,,,,,,*48
$GPGGA,000192,03018.1958,N,09743.9131,W,1,8,1.1,2.8102447984938452,M,24.5,M,,0000*67
$GPGSA,A,3,,,,,,,,,,,,,1.500,2.121,2.121,*1a
$GPGSV,1,1,1,1,1,1,1,,,,,,,,,,,,*48
$GPGSV,1,1,1,1,1,1,1,,,,,,,,,,,,*48
$GPGGA,000193,03018.1973,N,09743.9120,W,1,8,1.1,0.583363954290181,M,24.5,M,,0000*56
$GPGSA,A,3,,,,,,,,,,,,,1.500,2.121,2.121,*1a
$GPGSV,1,1,1,1,1,1,1,,,,,,,,,,,,*48
$GPGSV,1,1,1,1,1,1,1,,,,,,,,,,,,*48
$GPGGA,000194,03018.1967,N,09743.9124,W,1,8,1.1,1.5899829472356537,M,24.5,M,,0000*6c
$GPGSA,A,3,,,,,,,,,,,,,1.500,2.121,2.121,*1a
$GPGSV,1,1,1,1,1,1,1,,,,,,,,,,,,*48
$GPGSV,1,1,1,1,1,1,1,,,,,,,,,,,,*48
$GPGGA,000195,03018.1989,N,09743.9110,W,1,8,1.1,2.3236429161891925,M,24.5,M,,0000*64
$GPGSA,A,3,,,,,,,,,,,,,1.500,2.121,2.121,*1a
$GPGSV,1,1,1,1,1,1,1,,,,,,,,,,,,*48
$GPGSV,1,1,1,1,1,1,1,,,,,,,,,,,,*48
$GPGGA,000196,03018.1979,N,09743.9123,W,1,8,1.1,1.2908457635002164,M,24.5,M,,0000*6c
$GPGSA,A,3,,,,,,,,,,,,,1.500,2.121,2.121,*1a
$GPGSV,1,1,1,1,1,1,1,,,,,,,,,,,,*48
$GPGSV,1,1,1,1,1,1,1,,,,,,,,,,,,*48
$GPGGA,000197,03018.1995,N,09743.9120,W,1,8,1.1,1.0950010409493436,M,24.5,M,,0000*67
$GPGSA,A,3,,,,,,,,,,,,,1.500,2.121,2.121,*1a
$GPGSV,1,1,1,1,1,1,1,,,,,,,,,,,,*48
$GPGSV,1,1,1,1,1,1,1,,,,,,,,,,,,*48
$GPGGA,000198,03018.1995,N,09743.9113,W,1,8,1.1,-0.2414993259354219,M,24.5,M,,0000*4d
$GPGSA,A,3,,,,,,,,,,,,,1.500,2.121,2.121,*1a
$GPGSV,1,1,1,1,1,1,1,,,,,,,,,,,,*48
$GPGSV,1,1,1,1,1,1,1,,,,,,,,,,,,*48
$GPGGA,000199,03018.1998,N,09743.9111,W,1,8,1.1,1.1957434876679645,M,24.5,M,,0000*66
$GPGSA,A,3,,,,,,,,,,,,,1.500,2.121,2.121,*1a
$GPGSV,1,1,1,1,1,1,1,,,,,,,,,,,,*48
$GPGSV,1,1,1,1,1,1,1,,,,,,,,,,,,*48
$GPGGA,000200,03018.2004,N,09743.9106,W,1,8,1.1,1.2806929902678117,M,24.5,M,,0000*68
$GPGSA,A,3,,,,,,,,,,,,,1.500,2.121,2.121,*1a
$GPGSV,1,1,1,1,1,1,1,,,,,,,,,,,,*48
$GPGSV,1,1,1,1,1,1,1,,,,,,,,,,,,*48
$GPGGA,000201,03018.2008,N,09743.9103,W,1,8,1.1,5.214505692253155,M,24.5,M,,0000*50
$GPGSA,A,3,,,,,,,,,,,,,1.500,2.121,2.121,*1a
$GPGSV,1,1,1,1,1,1,1,,,,,,,,,,,,*48
$GPGSV,1,1,1,1,1,1,1,,,,,,,,,,,,*48
$GPGGA,000202,03018.2013,N,09743.9101,W,1,8,1.1,1.9443125929725784,M,24.5,M,,0000*65
$GPGSA,A,3,,,,,,,,,,,,,1.500,2.121,2.121,*1a
$GPGSV,1,1,1,1,1,1,1,,,,,,,,,,,,*48
$GPGSV,1,1,1,1,1,1,1,,,,,,,,,,,,*48
$GPGGA,000203,03018.2021,N,09743.9094,W,1,8,1.1,0.682244792138247,M,24.5,M,,0000*55
$GPGSA,A,3,,,,,,,,,,,,,1.500,2.121,2.121,*1a
$GPGSV,1,1,1,1,1,1,1,,,,,,,,,,,,*48
$GPGSV,1,1,1,1,1,1,1,,,,,,,,,,,,*48
$GPGGA,000204,03018.2022,N,09743.9095,W,1,8,1.1,-0.7839584642076769,M,24.5,M,,0000*41
$GPGSA,A,3,,,,,,,,,,,,,1.500,2.121,2.121,*1a
$GPGSV,1,1,1,1,1,1,1,,,,,,,,,,,,*48
$GPGSV,1,1,1,1,1,1,1,,,,,,,,,,,,*48
$GPGGA,000205,03018.2027,N,09743.9091,W,1,8,1.1,2.1797612500392387,M,24.5,M,,0000*67
$GPGSA,A,3,,,,,,,,,,,,,1.500,2.121,2.121,*1a
$GPGSV,1,1,1,1,1,1,1,,,,,,,,,,,,*48
$GPGSV,1,1,1,1,1,1,1,,,,,,,,,,,,*48
$GPGGA,000206,03018.2033,N,09743.9093,W,1,8,1.1,-1.079949213478974,M,24.5,M,,0000*7a
$GPGSA,A,3,,,,,,,,,,,,,1.500,2.121,2.121,*1a
$GPGSV,1,1,1,1,1,1,1,,,,,,,,,,,,*48
$GPGSV,1,1,1,1,1,1,1,,,,,,,,,,,,*48
$GPGGA,000207,03018.2041,N,09743.9087,W,1,8,1.1,1.8920164545380855,M,24.5,M,,0000*6a
$GPGSA,A,3,,,,,,,,,,,,,1.500,2.121,2.121,*1a
$GPGSV,1,1,1,1,1,1,1,,,,,,,,,,,,*48
$GPGSV,1,1,1,1,1,1,1,,,,,,,,,,,,*48
$GPGGA,000208,03018.2049,N,09743.9074,W,1,8,1.1,0.20297213983219464,M,24.5,M,,0000*57
$GPGSA,A,3,,,,,,,,,,,,,1.500,2.121,2.121,*1a
$GPGSV,1,1,1,1,1,1,1,,,,,,,,,,,,*48
$GPGSV,1,1,1,1,1,1,1,,,,,,,,,,,,*48
$GPGGA,000209,03018.2046,N,09743.9077,W,1,8,1.1,2.820407177627156,M,24.5,M,,0000*51
$GPGSA,A,3,,,,,,,,,,,,,1.500,2.121,2.121,*1a
$GPGSV,1,1,1,1,1,1,1,,,,,,,,,,,,*48
$GPGSV,1,1,1,1,1,1,1,,,,,,,,,,,,*48
$GPGGA,000210,03018.2050,N,09743.9069,W,1,8,1.1,0.5752701448246993,M,24.5,M,,0000*62
$GPGSA,A,3,,,,,,,,,,,,,1.500,2.121,2.121,*1a
$GPGSV,1,1,1,1,1,1,1,,,,,,,,,,,,*48
$GPGSV,1,1,1,1,1,1,1,,,,,,,,,,,,*48
$GPGGA,000211,03018.2041,N,09743.9065,W,1,8,1.1,1.4721129435523226,M,24.5,M,,0000*6c
$GPGSA,A,3,,,,,,,,,,,,,1.500,2.121,2.121,*1a
$GPGSV,1,1,1,1,1,1,1,,,,,,,,,,,,*48
$GPGSV,1,1,1,1,1,1,1,,,,,,,,,,,,*48
$GPGGA,000212,03018.2055,N,09743.9074,W,1,8,1.1,-2.289751214653252,M,24.5,M,,0000*7c
$GPGSA,A,3,,,,,,,,,,,,,1.500,2.121,2.121,*1a
$GPGSV,1,1,1,1,1,1,1,,,,,,,,,,,,*48
$GPGSV,1,1,1,1,1,1,1,,,,,,,,,,,,*48
$GPGGA,000213,03018.2056,N,09743.9075,W,1,8,1.1,2.7922902039068904,M,24.5,M,,0000*6c
$GPGSA,A,3,,,,,,,,,,,,,1.500,2.121,2.121,*1a
$GPGSV,1,1,1,1,1,1,1,,,,,,,,,,,,*48
$GPGSV,1,1,1,1,1,1,1,,,,,,,,,,,,*48
$GPGGA,000214,03018.2080,N,09743.9054,W,1,8,1.1,0.05707355639717626,M,24.5,M,,0000*54
$GPGSA,A,3,,,,,,,,,,,,,1.500,2.121,2.121,*1a
$GPGSV,1,1,1,1,1,1,1,,,,,,,,,,,,*48
$GPGSV,1,1,1,1,1,1,1,,,,,,,,,,,,*48
$GPGGA,000215,03018.2072,N,09743.9064,W,1,8,1.1,5.271579185636513,M,24.5,M,,0000*50
$GPGSA,A,3,,,,,,,,,,,,,1.500,2.121,2.121,*1a
$GPGSV,1,1,1,1,1,1,1,,,,,,,,,,,,*48
$GPGSV,1,1,1,1,1,1,1,,,,,,,,,,,,*48
$GPGGA,000216,03018.2076,N,09743.9066,W,1,8,1.1,3.0432106541427704,M,24.5,M,,0000*64
$GPGSA,A,3,,,,,,,,,,,,,1.500,2.121,2.121,*1a
$GPGSV,1,1,1,1,1,1,1,,,,,,,,,,,,*48
$GPGSV,1,1,1,1,1,1,1,,,,,,,,,,,,*48
$GPGGA,000217,03018.2076,N,09743.9059,W,1,8,1.1,0.39538721442185953,M,24.5,M,,0000*5b
$GPGSA,A,3,,,,,,,,,,,,,1.500,2.121,2.121,*1a
$GPGSV,1,1,1,1,1,1,1,,,,,,,,,,,,*48
$GPGSV,1,1,1,1,1,1,1,,,,,,,,,,,,*48
$GPGGA,000218,03018.2088,N,09743.9043,W,1,8,1.1,-0.2764804914270518,M,24.5,M,,0000*4c
$GPGSA,A,3,,,,,,,,,,,,,1.500,2.121,2.121,*1a
$GPGSV,1,1,1,1,1,1,1,,,,,,,,,,,,*48
$GPGSV,1,1,1,1,1,1,1,,,,,,,,,,,,*48
$GPGGA,000219,03018.2097,N,09743.9072,W,1,8,1.1,1.8533577779349915,M,24.5,M,,0000*61
$GPGSA,A,3,,,,,,,,,,,,,1.500,2.121,2.121,*1a
$GPGSV,1,1,1,1,1,1,1,,,,,,,,,,,,*48
$GPGSV,1,1,1,1,1,1,1,,,,,,,,,,,,*48
$GPGGA,000220,03018.2107,N,09743.9043,W,1,8,1.1,3.6539491405646958,M,24.5,M,,0000*65
$GPGSA,A,3,,,,,,,,,,,,,1.500,2.121,2.121,*1a
$GPGSV,1,1,1,1,1,1,1,,,,,,,,,,,,*48
$GPGSV,1,1,1,1,1,1,1,,,,,,,,,,,,*48
$GPGGA,000221,03018.2111,N,09743.9030,W,1,8,1.1,1.490069076377035,M,24.5,M,,0000*57
$GPGSA,A,3,,,,,,,,,,,,,1.500,2.121,2.121,*1a
$GPGSV,1,1,1,1,1,1,1,,,,,,,,,,,,*48
$GPGSV,1,1,1,1,1,1,1,,,,,,,,,,,,*48
$GPGGA,000222,03018.2109,N,09743.9041,W,1,8,1.1,0.7825829561432155,M,24.5,M,,0000*61
$GPGSA,A,3,,,,,,,,,,,,,1.500,2.121,2.121,*1a
$GPGSV,1,1,1,1,1,1,1,,,,,,,,,,,,*48
$GPGSV,1,1,1,1,1,1,1,,,,,,,,,,,,*48
$GPGGA,000223,03018.2110,N,09743.9036,W,1,8,1.1,1.4322021545942563,M,24.5,M,,0000*6b
$GPGSA,A,3,,,,,,,,,,,,,1.500,2.121,2.121,*1a
$GPGSV,1,1,1,1,1,1,1,,,,,,,,,,,,*48
$GPGSV,1,1,1,1,1,1,1,,,,,,,,,,,,*48
$GPGGA,000224,03018.2114,N,09743.9023,W,1,8,1.1,0.05329003864789672,M,24.5,M,,0000*53
$GPGSA,A,3,,,,,,,,,,,,,1.500,2.121,2.121,*1a
$GPGSV,1,1,1,1,1,1,1,,,,,,,,,,,,*48
$GPGSV,1,1,1,1,1,1,1,,,,,,,,,,,,*48
$GPGGA,000225,03018.2111,N,09743.9039,W,1,8,1.1,4.285668030696026,M,24.5,M,,0000*50
$GPGSA,A,3,,,,,,,,,,,,,1.500,2.121,2.121,*1a
$GPGSV,1,1,1,1,1,1,1,,,,,,,,,,,,*48
$GPGSV,1,1,1,1,1,1,1,,,,,,,,,,,,*48
$GPGGA,000226,03018.2129,N,09743.9033,W,1,8,1.1,1.2163885044331106,M,24.5,M,,0000*6b
$GPGSA,A,3,,,,,,,,,,,,,1.500,2.121,2.121,*1a
$GPGSV,1,1,1,1,1,1,1,,,,,,,,,,,,*48
$GPGSV,1,1,1,1,1,1,1,,,,,,,,,,,,*48
$GPGGA,000227,03018.2130,N,09743.9028,W,1,8,1.1,0.289677261097534,M,24.5,M,,0000*50
$GPGSA,A,3,,,,,,,,,,,,,1.500,2.121,2.121,*1a
$GPGSV,1,1,1,1,1,1,1,,,,,,,,,,,,*48
$GPGSV,1,1,1,1,1,1,1,,,,,,,,,,,,*48
$GPGGA,000228,03018.2138,N,09743.9025,W,1,8,1.1,1.858810575274112,M,24.5,M,,0000*5f
$GPGSA,A,3,,,,,,,,,,,,,1.500,2.121,2.121,*1a
$GPGSV,1,1,1,1,1,1,1,,,,,,,,,,,,*48
$GPGSV,1,1,1,1,1,1,1,,,,,,,,,,,,*48
$GPGGA,000229,03018.2137,N,09743.9019,W,1,8,1.1,1.8416233726654414,M,24.5,M,,0000*6a
$GPGSA,A,3,,,,,,,,,,,,,1.500,2.121,2.121,*1a
$GPGSV,1,1,1,1,1,1,1,,,,,,,,,,,,*48
$GPGSV,1,1,1,1,1,1,1,,,,,,,,,,,,*48
$GPGGA,000230,03018.2144,N,09743.9015,W,1,8,1.1,0.2209992455699088,M,24.5,M,,0000*6e
$GPGSA,A,3,,,,,,,,,,,,,1.500,2.121,2.121,*1a
$GPGSV,1,1,1,1,1,1,1,,,,,,,,,,,,*48
$GPGSV,1,1,1,1,1,1,1,,,,,,,,,,,,*48
$GPGGA,000231,03018.2158,N,09743.9009,W,1,8,1.1,1.709523849241396,M,24.5,M,,0000*53
$GPGSA,A,3,,,,,,,,,,,,,1.500,2.121,2.121,*1a
$GPGSV,1,1,1,1,1,1,1,,,,,,,,,,,,*48
$GPGSV,1,1,1,1,1,1,1,,,,,,,,,,,,*48
$GPGGA,000232,03018.2152,N,09743.9009,W,1,8,1.1,-1.5174285416606512,M,24.5,M,,0000*4e
$GPGSA,A,3,,,,,,,,,,,,,1.500,2.121,2.121,*1a
$GPGSV,1,1,1,1,1,1,1,,,,,,,,,,,,*48
$GPGSV,1,1,1,1,1,1,1,,,,,,,,,,,,*48
$GPGGA,000233,03018.2150,N,09743.8998,W,1,8,1.1,0.2860422941209426,M,24.5,M,,0000*63
$GPGSA,A,3,,,,,,,,,,,,,1.500,2.121,2.121,*1a
$GPGSV,1,1,1,1,1,1,1,,,,,,,,,,,,*48
$GPGSV,1,1,1,1,1,1,1,,,,,,,,,,,,*48
$GPGGA,000234,03018.2165,N,09743.9002,W,1,8,1.1,3.3644811488143618,M,24.5,M,,0000*65
$GPGSA,A,3,,,,,,,,,,,,,1.500,2.121,2.121,*1a
$GPGSV,1,1,1,1,1,1,1,,,,,,,,,,,,*48
$GPGSV,1,1,1,1,1,1,1,,,,,,,,,,,,*48
$GPGGA,000235,03018.2169,N,09743.9008,W,1,8,1.1,-3.5642485650304954,M,24.5,M,,0000*4f
$GPGSA,A,3,,,,,,,,,,,,,1.500,2.121,2.121,*1a
$GPGSV,1,1,1,1,1,1,1,,,,,,,,,,,,*48
$GPGSV,1,1,1,1,1,1,1,,,,,,,,,,,,*48
$GPGGA,000236,03018.2177,N,09743.8996,W,1,8,1.1,-1.321577007712814,M,24.5,M,,0000*75
$GPGSA,A,3,,,,,,,,,,,,,1.500,2.121,2.121,*1a
$GPGSV,1,1,1,1,1,1,1,,,,,,,,,,,,*48
$GPGSV,1,1,1,1,1,1,1,,,,,,,,,,,,*48
$GPGGA,000237,03018.2176,N,09743.8995,W,1,8,1.1,1.3132664865957535,M,24.5,M,,0000*64
$GPGSA,A,3,,,,,,,,,,,,,1.500,2.121,2.121,*1a
$GPGSV,1,1,1,1,1,1,1,,,,,,,,,,,,*48
$GPGSV,1,1,1,1,1,1,1,,,,,,,,,,,,*48
$GPGGA,000238,03018.2180,N,09743.8990,W,1,8,1.1,1.289384628486057,M,24.5,M,,0000*5b
$GPGSA,A,3,,,,,,,,,,,,,1.500,2.121,2.121,*1a
$GPGSV,1,1,1,1,1,1,1,,,,,,,,,,,,*48
$GPGSV,1,1,1,1,1,1,1,,,,,,,,,,,,*48
$GPGGA,000239,03018.2184,N,09743.8989,W,1,8,1.1,-0.15085096930401987,M,24.5,M,,0000*7d
$GPGSA,A,3,,,,,,,,,,,,,1.500,2.121,2.121,*1a
$GPGSV,1,1,1,1,1,1,1,,,,,,,,,,,,*48
$GPGSV,1,1,1,1,1,1,1,,,,,,,,,,,,*48
$GPGGA,000240,03018.2181,N,09743.8993,W,1,8,1.1,3.098379836712207,M,24.5,M,,0000*5c
$GPGSA,A,3,,,,,,,,,,,,,1.500,2.121,2.121,*1a
$GPGSV,1,1,1,1,1,1,1,,,,,,,,,,,,*48
$GPGSV,1,1,1,1,1,1,1,,,,,,,,,,,,*48
$GPGGA,000241,03018.2202,N,09743.8981,W,1,8,1.1,0.2388000559143444,M,24.5,M,,0000*6f
$GPGSA,A,3,,,,,,,,,,,,,1.500,2.121,2.121,*1a
$GPGSV,1,1,1,1,1,1,1,,,,,,,,,,,,*48
$GPGSV,1,1,1,1,1,1,1,,,,,,,,,,,,*48
$GPGGA,000242,03018.2189,N,09743.8986,W,1,8,1.1,3.8086889437156812,M,24.5,M,,0000*64
$GPGSA,A,3,,,,,,,,,,,,,1.500,2.121,2.121,*1a
$GPGSV,1,1,1,1,1,1,1,,,,,,,,,,,,*48
$GPGSV,1,1,1,1,1,1,1,,,,,,,,,,,,*48
$GPGGA,000243,03018.2202,N,09743.8975,W,1,8,1.1,0.8760312614293118,M,24.5,M,,0000*66
$GPGSA,A,3,,,,,,,,,,,,,1.500,2.121,2.121,*1a
$GPGSV,1,1,1,1,1,1,1,,,,,,,,,,,,*48
$GPGSV,1,1,1,1,1,1,1,,,,,,,,,,,,*48
$GPGGA,000244,03018.2194,N,09743.8962,W,1,8,1.1,2.532905874037541,M,24.5,M,,0000*54
$GPGSA,A,3,,,,,,,,,,,,,1.500,2.121,2.121,*1a
$GPGSV,1,1,1,1,1,1,1,,,,,,,,,,,,*48
$GPGSV,1,1,1,1,1,1,1,,,,,,,,,,,,*48
$GPGGA,000245,03018.2216,N,09743.8970,W,1,8,1.1,2.0777947443410185,M,24.5,M,,0000*6f
$GPGSA,A,3,,,,,,,,,,,,,1.500,2.121,2.121,*1a
$GPGSV,1,1,1,1,1,1,1,,,,,,,,,,,,*48
$GPGSV,1,1,1,1,1,1,1,,,,,,,,,,,,*48
$GPGGA,000246,03018.2223,N,09743.8967,W,1,8,1.1,1.2712533987750745,M,24.5,M,,0000*69
$GPGSA,A,3,,,,,,,,,,,,,1.500,2.121,2.121,*1a
$GPGSV,1,1,1,1,1,1,1,,,,,,,,,,,,*48
$GPGSV,1,1,1,1,1,1,1,,,,,,,,,,,,*48
$GPGGA,000247,03018.2230,N,09743.8966,W,1,8,1.1,2.359894711599525,M,24.5,M,,0000*53
$GPGSA,A,3,,,,,,,,,,,,,1.500,2.121,2.121,*1a
$GPGSV,1,1,1,1,1,1,1,,,,,,,,,,,,*48
$GPGSV,1,1,1,1,1,1,1,,,,,,,,,,,,*48
$GPGGA,000248,03018.2226,N,09743.8963,W,1,8,1.1,3.367042192836475,M,24.5,M,,0000*50
$GPGSA,A,3,,,,,,,,,,,,,1.500,2.121,2.121,*1a
$GPGSV,1,1,1,1,1,1,1,,,,,,,,,,,,*48
$GPGSV,1,1,1,1,1,1,1,,,,,,,,,,,,*48
$GPGGA,000249,03018.2232,N,09743.8957,W,1,8,1.1,0.7217084234174966,M,24.5,M,,0000*64
$GPGSA,A,3,,,,,,,,,,,,,1.500,2.121,2.121,*1a
$GPGSV,1,1,1,1,1,1,1,,,,,,,,,,,,*48
$GPGSV,1,1,1,1,1,1,1,,,,,,,,,,,,*48
$GPGGA,000250,03018.2216,N,09743.8961,W,1,8,1.1,1.6809807752138173,M,24.5,M,,0000*68
$GPGSA,A,3,,,,,,,,,,,,,1.500,2.121,2.121,*1a
$GPGSV,1,1,1,1,1,1,1,,,,,,,,,,,,*48
$GPGSV,1,1,1,1,1,1,1,,,,,,,,,,,,*48
$GPGGA,000251,03018.2238,N,09743.8956,W,1,8,1.1,-0.039107811501478684,M,24.5,M,,0000*4b
$GPGSA,A,3,,,,,,,,,,,,,1.500,2.121,2.121,*1a
$GPGSV,1,1,1,1,1,1,1,,,,,,,,,,,,*48
$GPGSV,1,1,1,1,1,1,1,,,,,,,,,,,,*48
$GPGGA,000252,03018.2247,N,09743.8955,W,1,8,1.1,2.1726831976933942,M,24.5,M,,0000*6b
$GPGSA,A,3,,,,,,,,,,,,,1.500,2.121,2.121,*1a
$GPGSV,1,1,1,1,1,1,1,,,,,,,,,,,,*48
$GPGSV,1,1,1,1,1,1,1,,,,,,,,,,,,*48
$GPGGA,000253,03018.2251,N,09743.8956,W,1,8,1.1,4.05566409370082,M,24.5,M,,0000*6d
$GPGSA,A,3,,,,,,,,,,,,,1.500,2.121,2.121,*1a
$GPGSV,1,1,1,1,1,1,1,,,,,,,,,,,,*48
$GPGSV,1,1,1,1,1,1,1,,,,,,,,,,,,*48
$GPGGA,000254,03018.2260,N,09743.8932,W,1,8,1.1,0.7176902745439155,M,24.5,M,,0000*68
$GPGSA,A,3,,,,,,,,,,,,,1.500,2.121,2.121,*1a
$GPGSV,1,1,1,1,1,1,1,,,,,,,,,,,,*48
$GPGSV,1,1,1,1,1,1,1,,,,,,,,,,,,*48
$GPGGA,000255,03018.2257,N,09743.8929,W,1,8,1.1,0.24803684643195334,M,24.5,M,,0000*5d
$GPGSA,A,3,,,,,,,,,,,,,1.500,2.121,2.121,*1a
$GPGSV,1,1,1,1,1,1,1,,,,,,,,,,,,*48
$GPGSV,1,1,1,1,1,1,1,,,,,,,,,,,,*48
$GPGGA,000256,03018.2260,N,09743.8933,W,1,8,1.1,2.3150838944166106,M,24.5,M,,0000*67
$GPGSA,A,3,,,,,,,,,,,,,1.500,2.121,2.121,*1a
$GPGSV,1,1,1,1,1,1,1,,,,,,,,,,,,*48
$GPGSV,1,1,1,1,1,1,1,,,,,,,,,,,,*48
$GPGGA,000257,03018.2266,N,09743.8927,W,1,8,1.1,0.20748869593114838,M,24.5,M,,0000*5a
$GPGSA,A,3,,,,,,,,,,,,,1.500,2.121,2.121,*1a
$GPGSV,1,1,1,1,1,1,1,,,,,,,,,,,,*48
$GPGSV,1,1,1,1,1,1,1,,,,,,,,,,,,*48
$GPGGA,000258,03018.2269,N,09743.8926,W,1,8,1.1,0.8174356250146225,M,24.5,M,,0000*66
$GPGSA,A,3,,,,,,,,,,,,,1.500,2.121,2.121,*1a
$GPGSV,1,1,1,1,1,1,1,,,,,,,,,,,,*48
$GPGSV,1,1,1,1,1,1,1,,,,,,,,,,,,*48
$GPGGA,000259,03018.2281,N,09743.8919,W,1,8,1.1,1.2155033346640982,M,24.5,M,,0000*64
$GPGSA,A,3,,,,,,,,,,,,,1.500,2.121,2.121,*1a
$GPGSV,1,1,1,1,1,1,1,,,,,,,,,,,,*48
$GPGSV,1,1,1,1,1,1,1,,,,,,,,,,,,*48
$GPGGA,000260,03018.2286,N,09743.8921,W,1,8,1.1,0.18363751323696542,M,24.5,M,,0000*54
$GPGSA,A,3,,,,,,,,,,,,,1.500,2.121,2.121,*1a
$GPGSV,1,1,1,1,1,1,1,,,,,,,,,,,,*48
$GPGSV,1,1,1,1,1,1,1,,,,,,,,,,,,*48
$GPGGA,000261,03018.2285,N,09743.8922,W,1,8,1.1,0.5405926746477376,M,24.5,M,,0000*6b
$GPGSA,A,3,,,,,,,,,,,,,1.500,2.121,2.121,*1a
$GPGSV,1,1,1,1,1,1,1,,,,,,,,,,,,*48
$GPGSV,1,1,1,1,1,1,1,,,,,,,,,,,,*48
$GPGGA,000262,03018.2293,N,09743.8917,W,1,8,1.1,2.2105238904016646,M,24.5,M,,0000*60
$GPGSA,A,3,,,,,,,,,,,,,1.500,2.121,2.121,*1a
$GPGSV,1,1,1,1,1,1,1,,,,,,,,,,,,*48
$GPGSV,1,1,1,1,1,1,1,,,,,,,,,,,,*48
$GPGGA,000263,03018.2288,N,09743.8904,W,1,8,1.1,0.013359039985380017,M,24.5,M,,0000*64
$GPGSA,A,3,,,,,,,,,,,,,1.500,2.121,2.121,*1a
$GPGSV,1,1,1,1,1,1,1,,,,,,,,,,,,*48
$GPGSV,1,1,1,1,1,1,1,,,,,,,,,,,,*48
$GPGGA,000264,03018.2290,N,09743.8919,W,1,8,1.1,1.5010281331339812,M,24.5,M,,0000*65
$GPGSA,A,3,,,,,,,,,,,,,1.500,2.121,2.121,*1a
$GPGSV,1,1,1,1,1,1,1,,,,,,,,,,,,*48
$GPGSV,1,1,1,1,1,1,1,,,,,,,,,,,,*48
$GPGGA,000265,03018.2306,N,09743.8909,W,1,8,1.1,1.1919885272549047,M,24.5,M,,0000*6e
$GPGSA,A,3,,,,,,,,,,,,,1.500,2.121,2.121,*1a
$GPGSV,1,1,1,1,1,1,1,,,,,,,,,,,,*48
$GPGSV,1,1,1,1,1,1,1,,,,,,,,,,,,*48
$GPGGA,000266,03018.2305,N,09743.8915,W,1,8,1.1,-0.03610265047779304,M,24.5,M,,0000*7e
$GPGSA,A,3,,,,,,,,,,,,,1.500,2.121,2.121,*1a
$GPGSV,1,1,1,1,1,1,1,,,,,,,,,,,,*48
$GPGSV,1,1,1,1,1,1,1,,,,,,,,,,,,*48
$GPGGA,000267,03018.2304,N,09743.8901,W,1,8,1.1,1.693325439976764,M,24.5,M,,0000*54
$GPGSA,A,3,,,,,,,,,,,,,1.500,2.121,2.121,*1a
$GPGSV,1,1,1,1,1,1,1,,,,,,,,,,,,*48
$GPGSV,1,1,1,1,1,1,1,,,,,,,,,,,,*48
$GPGGA,000268,03018.2319,N,09743.8898,W,1,8,1.1,4.816764386929673,M,24.5,M,,0000*5f
$GPGSA,A,3,,,,,,,,,,,,,1.500,2.121,2.121,*1a
$GPGSV,1,1,1,1,1,1,1,,,,,,,,,,,,*48
$GPGSV,1,1,1,1,1,1,1,,,,,,,,,,,,*48
$GPGGA,000269,03018.2324,N,09743.8898,W,1,8,1.1,1.85111762673785,M,24.5,M,,0000*65
$GPGSA,A,3,,,,,,,,,,,,,1.500,2.121,2.121,*1a
$GPGSV,1,1,1,1,1,1,1,,,,,,,,,,,,*48
$GPGSV,1,1,1,1,1,1,1,,,,,,,,,,,,*48
$GPGGA,000270,03018.2329,N,09743.8899,W,1,8,1.1,4.045282159848853,M,24.5,M,,0000*5d
$GPGSA,A,3,,,,,,,,,,,,,1.500,2.121,2.121,*1a
$GPGSV,1,1,1,1,1,1,1,,,,,,,,,,,,*48
$GPGSV,1,1,1,1,1,1,1,,,,,,,,,,,,*48
$GPGGA,000271,03018.2335,N,09743.8878,W,1,8,1.1,2.974332394309239,M,24.5,M,,0000*52
$GPGSA,A,3,,,,,,,,,,,,,1.500,2.121,2.121,*1a
$GPGSV,1,1,1,1,1,1,1,,,,,,,,,,,,*48
$GPGSV,1,1,1,1,1,1,1,,,,,,,,,,,,*48
$GPGGA,000272,03018.2339,N,09743.8888,W,1,8,1.1,3.188176272748127,M,24.5,M,,0000*5e
$GPGSA,A,3,,,,,,,,,,,,,1.500,2.121,2.121,*1a
$GPGSV,1,1,1,1,1,1,1,,,,,,,,,,,,*48
$GPGSV,1,1,1,1,1,1,1,,,,,,,,,,,,*48
$GPGGA,000273,03018.2351,N,09743.8882,W,1,8,1.1,1.0316555750639693,M,24.5,M,,0000*63
$GPGSA,A,3,,,,,,,,,,,,,1.500,2.121,2.121,*1a
$GPGSV,1,1,1,1,1,1,1,,,,,,,,,,,,*48
$GPGSV,1,1,1,1,1,1,1,,,,,,,,,,,,*48
$GPGGA,000274,03018.2346,N,09743.8881,W,1,8,1.1,0.009509756442013018,M,24.5,M,,0000*6b
$GPGSA,A,3,,,,,,,,,,,,,1.500,2.121,2.121,*1a
$GPGSV,1,1,1,1,1,1,1,,,,,,,,,,,,*48
$GPGSV,1,1,1,1,1,1,1,,,,,,,,,,,,*48
$GPGGA,000275,03018.2352,N,09743.8888,W,1,8,1.1,3.6051483961250392,M,24.5,M,,0000*61
$GPGSA,A,3,,,,,,,,,,,,,1.500,2.121,2.121,*1a
$GPGSV,1,1,1,1,1,1,1,,,,,,,,,,,,*48
$GPGSV,1,1,1,1,1,1,1,,,,,,,,,,,,*48
$GPGGA,000276,03018.2367,N,09743.8879,W,1,8,1.1,0.9467615141240723,M,24.5,M,,0000*6f
$GPGSA,A,3,,,,,,,,,,,,,1.500,2.121,2.121,*1a
$GPGSV,1,1,1,1,1,1,1,,,,,,,,,,,,*48
$GPGSV,1,1,1,1,1,1,1,,,,,,,,,,,,*48
$GPGGA,000277,03018.2371,N,09743.8869,W,1,8,1.1,0.44652056638274185,M,24.5,M,,0000*50
$GPGSA,A,3,,,,,,,,,,,,,1.500,2.121,2.121,*1a
$GPGSV,1,1,1,1,1,1,1,,,,,,,,,,,,*48
$GPGSV,1,1,1,1,1,1,1,,,,,,,,,,,,*48
$GPGGA,000278,03018.2363,N,09743.8882,W,1,8,1.1,-0.71863313929481,M,24.5,M,,0000*43
$GPGSA,A,3,,,,,,,,,,,,,1.500,2.121,2.121,*1a
$GPGSV,1,1,1,1,1,1,1,,,,,,,,,,,,*48
$GPGSV,1,1,1,1,1,1,1,,,,,,,,,,,,*48
$GPGGA,000279,03018.2372,N,09743.8868,W,1,8,1.1,1.009793917849513,M,24.5,M,,0000*56
$GPGSA,A,3,,,,,,,,,,,,,1.500,2.121,2.121,*1a
$GPGSV,1,1,1,1,1,1,1,,,,,,,,,,,,*48
$GPGSV,1,1,1,1,1,1,1,,,,,,,,,,,,*48
$GPGGA,000280,03018.2370,N,09743.8880,W,1,8,1.1,-0.46037913079990855,M,24.5,M,,0000*7a
$GPGSA,A,3,,,,,,,,,,,,,1.500,2.121,2.121,*1a
$GPGSV,1,1,1,1,1,1,1,,,,,,,,,,,,*48
$GPGSV,1,1,1,1,1,1,1,,,,,,,,,,,,*48
$GPGGA,000281,03018.2384,N,09743.8867,W,1,8,1.1,0.3304407659459345,M,24.5,M,,0000*68
$GPGSA,A,3,,,,,,,,,,,,,1.500,2.121,2.121,*1a
$GPGSV,1,1,1,1,1,1,1,,,,,,,,,,,,*48
$GPGSV,1,1,1,1,1,1,1,,,,,,,,,,,,*48
$GPGGA,000282,03018.2388,N,09743.8852,W,1,8,1.1,-1.0513565908735125,M,24.5,M,,0000*4d
$GPGSA,A,3,,,,,,,,,,,,,1.500,2.121,2.121,*1a
$GPGSV,1,1,1,1,1,1,1,,,,,,,,,,,,*48
$GPGSV,1,1,1,1,1,1,1,,,,,,,,,,,,*48
$GPGGA,000283,03018.2388,N,09743.8853,W,1,8,1.1,4.017134928324132,M,24.5,M,,0000*54
$GPGSA,A,3,,,,,,,,,,,,,1.500,2.121,2.121,*1a
$GPGSV,1,1,1,1,1,1,1,,,,,,,,,,,,*48
$GPGSV,1,1,1,1,1,1,1,,,,,,,,,,,,*48
$GPGGA,000284,03018.2392,N,09743.8861,W,1,8,1.1,1.469008239274859,M,24.5,M,,0000*54
$GPGSA,A,3,,,,,,,,,,,,,1.500,2.121,2.121,*1a
$GPGSV,1,1,1,1,1,1,1,,,,,,,,,,,,*48
$GPGSV,1,1,1,1,1,1,1,,,,,,,,,,,,*48
$GPGGA,000285,03018.2383,N,09743.8848,W,1,8,1.1,4.189835725958019,M,24.5,M,,0000*57
$GPGSA,A,3,,,,,,,,,,,,,1.500,2.121,2.121,*1a
$GPGSV,1,1,1,1,1,1,1,,,,,,,,,,,,*48
$GPGSV,1,1,1,1,1,1,1,,,,,,,,,,,,*48
$GPGGA,000286,03018.2410,N,09743.8858,W,1,8,1.1,0.4019048402229084,M,24.5,M,,0000*6d
$GPGSA,A,3,,,,,,,,,,,,,1.500,2.121,2.121,*1a
$GPGSV,1,1,1,1,1,1,1,,,,,,,,,,,,*48
$GPGSV,1,1,1,1,1,1,1,,,,,,,,,,,,*48
$GPGGA,000287,03018.2407,N,09743.8837,W,1,8,1.1,2.6268643428789913,M,24.5,M,,0000*6a
$GPGSA,A,3,,,,,,,,,,,,,1.500,2.121,2.121,*1a
$GPGSV,1,1,1,1,1,1,1,,,,,,,,,,,,*48
$GPGSV,1,1,1,1,1,1,1,,,,,,,,,,,,*48
$GPGGA,000288,03018.2405,N,09743.8845,W,1,8,1.1,0.915245316721836,M,24.5,M,,0000*5b
$GPGSA,A,3,,,,,,,,,,,,,1.500,2.121,2.121,*1a
$GPGSV,1,1,1,1,1,1,1,,,,,,,,,,,,*48
$GPGSV,1,1,1,1,1,1,1,,,,,,,,,,,,*48
$GPGGA,000289,03018.2431,N,09743.8833,W,1,8,1.1,1.1767705535327058,M,24.5,M,,0000*63
$GPGSA,A,3,,,,,,,,,,,,,1.500,2.121,2.121,*1a
$GPGSV,1,1,1,1,1,1,1,,,,,,,,,,,,*48
$GPGSV,1,1,1,1,1,1,1,,,,,,,,,,,,*48
$GPGGA,000290,03018.2422,N,09743.8835,W,1,8,1.1,1.875695335242382,M,24.5,M,,0000*5a
$GPGSA,A,3,,,,,,,,,,,,,1.500,2.121,2.121,*1a
$GPGSV,1,1,1,1,1,1,1,,,,,,,,,,,,*48
$GPGSV,1,1,1,1,1,1,1,,,,,,,,,,,,*48
$GPGGA,000291,03018.2426,N,09743.8835,W,1,8,1.1,2.7038121008194467,M,24.5,M,,0000*6b
$GPGSA,A,3,,,,,,,,,,,,,1.500,2.121,2.121,*1a
$GPGSV,1,1,1,1,1,1,1,,,,,,,,,,,,*48
$GPGSV,1,1,1,1,1,1,1,,,,,,,,,,,,*48
$GPGGA,000292,03018.2430,N,09743.8832,W,1,8,1.1,2.6322453172665097,M,24.5,M,,0000*6f
$GPGSA,A,3,,,,,,,,,,,,,1.500,2.121,2.121,*1a
$GPGSV,1,1,1,1,1,1,1,,,,,,,,,,,,*48
$GPGSV,1,1,1,1,1,1,1,,,,,,,,,,,,*48
$GPGGA,000293,03018.2429,N,09743.8824,W,1,8,1.1,1.156928488773595,M,24.5,M,,0000*55
$GPGSA,A,3,,,,,,,,,,,,,1.500,2.121,2.121,*1a
$GPGSV,1,1,1,1,1,1,1,,,,,,,,,,,,*48
$GPGSV,1,1,1,1,1,1,1,,,,,,,,,,,,*48
$GPGGA,000294,03018.2442,N,09743.8810,W,1,8,1.1,0.7082863545178157,M,24.5,M,,0000*6f
$GPGSA,A,3,,,,,,,,,,,,,1.500,2.121,2.121,*1a
$GPGSV,1,1,1,1,1,1,1,,,,,,,,,,,,*48
$GPGSV,1,1,1,1,1,1,1,,,,,,,,,,,,*48
$GPGGA,000295,03018.2444,N,09743.8820,W,1,8,1.1,-0.4810333922472736,M,24.5,M,,0000*4b
$GPGSA,A,3,,,,,,,,,,,,,1.500,2.121,2.121,*1a
$GPGSV,1,1,1,1,1,1,1,,,,,,,,,,,,*48
$GPGSV,1,1,1,1,1,1,1,,,,,,,,,,,,*48
$GPGGA,000296,03018.2439,N,09743.8804,W,1,8,1.1,2.6612256597005315,M,24.5,M,,0000*64
$GPGSA,A,3,,,,,,,,,,,,,1.500,2.121,2.121,*1a
$GPGSV,1,1,1,1,1,1,1,,,,,,,,,,,,*48
