$GPGGA,000000,03903.1554,N,07727.2337,W,1,8,1.1,1.6047185394956465,M,24.5,M,,0000*6c
$GPGSA,A,3,,,,,,,,,,,,,1.500,2.121,2.121,*1a
$GPGSV,1,1,1,1,1,1,1,,,,,,,,,,,,*48
$GPGSV,1,1,1,1,1,1,1,,,,,,,,,,,,*48
$GPGGA,000001,03903.1543,N,07727.2338,W,1,8,1.1,2.419278690755181,M,24.5,M,,0000*5c
$GPGSA,A,3,,,,,,,,,,,,,1.500,2.121,2.121,*1a
$GPGSV,1,1,1,1,1,1,1,,,,,,,,,,,,*48
$GPGSV,1,1,1,1,1,1,1,,,,,,,,,,,,*48
$GPGGA,000002,03903.1546,N,07727.2342,W,1,8,1.1,2.1805480683218708,M,24.5,M,,0000*6f
$GPGSA,A,3,,,,,,,,,,,,,1.500,2.121,2.121,*1a
$GPGSV,1,1,1,1,1,1,1,,,,,,,,,,,,*48
$GPGSV,1,1,1,1,1,1,1,,,,,,,,,,,,*48
$GPGGA,000003,03903.1554,N,07727.2337,W,1,8,1.1,0.2851592348336922,M,24.5,M,,0000*64
$GPGSA,A,3,,,,,,,,,,,,,1.500,2.121,2.121,*1a
$GPGSV,1,1,1,1,1,1,1,,,,,,,,,,,,*48
$GPGSV,1,1,1,1,1,1,1,,,,,,,,,,,,*48
$GPGGA,000004,03903.1553,N,07727.2336,W,1,8,1.1,3.0558308492960293,M,24.5,M,,0000*6d
$GPGSA,A,3,,,,,,,,,,,,,1.500,2.121,2.121,*1a
$GPGSV,1,1,1,1,1,1,1,,,,,,,,,,,,*48
$GPGSV,1,1,1,1,1,1,1,,,,,,,,,,,,*48
$GPGGA,000005,03903.1547,N,07727.2341,W,1,8,1.1,2.0778320276157163,M,24.5,M,,0000*6e
$GPGSA,A,3,,,,,,,,,,,,,1.500,2.121,2.121,*1a
$GPGSV,1,1,1,1,1,1,1,,,,,,,,,,,,*48
$GPGSV,1,1,1,1,1,1,1,,,,,,,,,,,,*48
$GPGGA,000006,03903.1546,N,07727.2340,W,1,8,1.1,3.7341582852492223,M,24.5,M,,0000*6c
$GPGSA,A,3,,,,,,,,,,,,,1.500,2.121,2.121,*1a
$GPGSV,1,1,1,1,1,1,1,,,,,,,,,,,,*48
$GPGSV,1,1,1,1,1,1,1,,,,,,,,,,,,*48
$GPGGA,000007,03903.1540,N,07727.2330,W,1,8,1.1,-0.7261906649505474,M,24.5,M,,0000*4e
$GPGSA,A,3,,,,,,,,,,,,,1.500,2.121,2.121,*1a
$GPGSV,1,1,1,1,1,1,1,,,,,,,,,,,,*48
$GPGSV,1,1,1,1,1,1,1,,,,,,,,,,,,*48
$GPGGA,000008,03903.1542,N,07727.2344,W,1,8,1.1,1.6948181397607809,M,24.5,M,,0000*6b
$GPGSA,A,3,,,,,,,,,,,,,1.500,2.121,2.121,*1a
$GPGSV,1,1,1,1,1,1,1,,,,,,,,,,,,*48
$GPGSV,1,1,1,1,1,1,1,,,,,,,,,,,,*48
$GPGGA,000009,03903.1546,N,07727.2341,W,1,8,1.1,6.237982933444157,M,24.5,M,,0000*51
$GPGSA,A,3,,,,,,,,,,,,,1.500,2.121,2.121,*1a
$GPGSV,1,1,1,1,1,1,1,,,,,,,,,,,,*48
$GPGSV,1,1,1,1,1,1,1,,,,,,,,,,,,*48
$GPGGA,000010,03903.1549,N,07727.2345,W,1,8,1.1,-0.15917762035781546,M,24.5,M,,0000*75
$GPGSA,A,3,,,,,,,,,,,,,1.500,2.121,2.121,*1a
$GPGSV,1,1,1,1,1,1,1,,,,,,,,,,,,*48
$GPGSV,1,1,1,1,1,1,1,,,,,,,,,,,,*48
$GPGGA,000011,03903.1545,N,07727.2339,W,1,8,1.1,2.797890176648366,M,24.5,M,,0000*5a
$GPGSA,A,3,,,,,,,,,,,,,1.500,2.121,2.121,*1a
$GPGSV,1,1,1,1,1,1,1,,,,,,,,,,,,*48
$GPGSV,1,1,1,1,1,1,1,,,,,,,,,,,,*48
$GPGGA,000012,03903.1547,N,07727.2347,W,1,8,1.1,2.6603589666629204,M,24.5,M,,0000*69
$GPGSA,A,3,,,,,,,,,,,,,1.500,2.121,2.121,*1a
$GPGSV,1,1,1,1,1,1,1,,,,,,,,,,,,*48
$GPGSV,1,1,1,1,1,1,1,,,,,,,,,,,,*48
$GPGGA,000013,03903.1551,N,07727.2343,W,1,8,1.1,2.533583168348806,M,24.5,M,,0000*54
$GPGSA,A,3,,,,,,,,,,,,,1.500,2.121,2.121,*1a
$GPGSV,1,1,1,1,1,1,1,,,,,,,,,,,,*48
$GPGSV,1,1,1,1,1,1,1,,,,,,,,,,,,*48
$GPGGA,000014,03903.1551,N,07727.2334,W,1,8,1.1,2.003432332032066,M,24.5,M,,0000*53
$GPGSA,A,3,,,,,,,,,,,,,1.500,2.121,2.121,*1a
$GPGSV,1,1,1,1,1,1,1,,,,,,,,,,,,*48
$GPGSV,1,1,1,1,1,1,1,,,,,,,,,,,,*48
$GPGGA,000015,03903.1541,N,07727.2332,W,1,8,1.1,-0.9566835480876068,M,24.5,M,,0000*46
$GPGSA,A,3,,,,,,,,,,,,,1.500,2.121,2.121,*1a
$GPGSV,1,1,1,1,1,1,1,,,,,,,,,,,,*48
$GPGSV,1,1,1,1,1,1,1,,,,,,,,,,,,*48
$GPGGA,000016,03903.1546,N,07727.2334,W,1,8,1.1,2.4638551116709486,M,24.5,M,,0000*68
$GPGSA,A,3,,,,,,,,,,,,,1.500,2.121,2.121,*1a
$GPGSV,1,1,1,1,1,1,1,,,,,,,,,,,,*48
$GPGSV,1,1,1,1,1,1,1,,,,,,,,,,,,*48
$GPGGA,000017,03903.1545,N,07727.2327,W,1,8,1.1,2.383845359158599,M,24.5,M,,0000*55
$GPGSA,A,3,,,,,,,,,,,,,1.500,2.121,2.121,*1a
$GPGSV,1,1,1,1,1,1,1,,,,,,,,,,,,*48
$GPGSV,1,1,1,1,1,1,1,,,,,,,,,,,,*48
$GPGGA,000018,03903.1546,N,07727.2342,W,1,8,1.1,3.090299751247007,M,24.5,M,,0000*52
$GPGSA,A,3,,,,,,,,,,,,,1.500,2.121,2.121,*1a
$GPGSV,1,1,1,1,1,1,1,,,,,,,,,,,,*48
$GPGSV,1,1,1,1,1,1,1,,,,,,,,,,,,*48
$GPGGA,000019,03903.1548,N,07727.2351,W,1,8,1.1,0.5602682847394185,M,24.5,M,,0000*66
$GPGSA,A,3,,,,,,,,,,,,,1.500,2.121,2.121,*1a
$GPGSV,1,1,1,1,1,1,1,,,,,,,,,,,,*48
$GPGSV,1,1,1,1,1,1,1,,,,,,,,,,,,*48
$GPGGA,000020,03903.1542,N,07727.2340,W,1,8,1.1,1.179975216526334,M,24.5,M,,0000*57
$GPGSA,A,3,,,,,,,,,,,,,1.500,2.121,2.121,*1a
$GPGSV,1,1,1,1,1,1,1,,,,,,,,,,,,*48
$GPGSV,1,1,1,1,1,1,1,,,,,,,,,,,,*48
$GPGGA,000021,03903.1535,N,07727.2343,W,1,8,1.1,-1.918535681735234,M,24.5,M,,0000*74
$GPGSA,A,3,,,,,,,,,,,,,1.500,2.121,2.121,*1a
$GPGSV,1,1,1,1,1,1,1,,,,,,,,,,,,*48
$GPGSV,1,1,1,1,1,1,1,,,,,,,,,,,,*48
$GPGGA,000022,03903.1549,N,07727.2337,W,1,8,1.1,1.3477166473463082,M,24.5,M,,0000*67
$GPGSA,A,3,,,,,,,,,,,,,1.500,2.121,2.121,*1a
$GPGSV,1,1,1,1,1,1,1,,,,,,,,,,,,*48
$GPGSV,1,1,1,1,1,1,1,,,,,,,,,,,,*48
$GPGGA,000023,03903.1552,N,07727.2338,W,1,8,1.1,3.6186629175795897,M,24.5,M,,0000*66
$GPGSA,A,3,,,,,,,,,,,,,1.500,2.121,2.121,*1a
$GPGSV,1,1,1,1,1,1,1,,,,,,,,,,,,*48
$GPGSV,1,1,1,1,1,1,1,,,,,,,,,,,,*48
$GPGGA,000024,03903.1557,N,07727.2358,W,1,8,1.1,0.34369326833557645,M,24.5,M,,0000*5f
$GPGSA,A,3,,,,,,,,,,,,,1.500,2.121,2.121,*1a
$GPGSV,1,1,1,1,1,1,1,,,,,,,,,,,,*48
$GPGSV,1,1,1,1,1,1,1,,,,,,,,,,,,*48
$GPGGA,000025,03903.1544,N,07727.2343,W,1,8,1.1,0.8774537181053401,M,24.5,M,,0000*64
$GPGSA,A,3,,,,,,,,,,,,,1.500,2.121,2.121,*1a
$GPGSV,1,1,1,1,1,1,1,,,,,,,,,,,,*48
$GPGSV,1,1,1,1,1,1,1,,,,,,,,,,,,*48
$GPGGA,000026,03903.1548,N,07727.2350,W,1,8,1.1,3.0318753996046173,M,24.5,M,,0000*66
$GPGSA,A,3,,,,,,,,,,,,,1.500,2.121,2.121,*1a
$GPGSV,1,1,1,1,1,1,1,,,,,,,,,,,,*48
$GPGSV,1,1,1,1,1,1,1,,,,,,,,,,,,*48
$GPGGA,000027,03903.1551,N,07727.2337,W,1,8,1.1,1.3793702039529705,M,24.5,M,,0000*6b
$GPGSA,A,3,,,,,,,,,,,,,1.500,2.121,2.121,*1a
$GPGSV,1,1,1,1,1,1,1,,,,,,,,,,,,*48
$GPGSV,1,1,1,1,1,1,1,,,,,,,,,,,,*48
$GPGGA,000028,03903.1552,N,07727.2328,W,1,8,1.1,-0.795014253905383,M,24.5,M,,0000*76
$GPGSA,A,3,,,,,,,,,,,,,1.500,2.121,2.121,*1a
$GPGSV,1,1,1,1,1,1,1,,,,,,,,,,,,*48
$GPGSV,1,1,1,1,1,1,1,,,,,,,,,,,,*48
$GPGGA,000029,03903.1545,N,07727.2354,W,1,8,1.1,0.6523335142026618,M,24.5,M,,0000*62
$GPGSA,A,3,,,,,,,,,,,,,1.500,2.121,2.121,*1a
$GPGSV,1,1,1,1,1,1,1,,,,,,,,,,,,*48
$GPGSV,1,1,1,1,1,1,1,,,,,,,,,,,,*48
$GPGGA,000030,03903.1546,N,07727.2341,W,1,8,1.1,-0.05778938998973171,M,24.5,M,,0000*76
$GPGSA,A,3,,,,,,,,,,,,,1.500,2.121,2.121,*1a
$GPGSV,1,1,1,1,1,1,1,,,,,,,,,,,,*48
$GPGSV,1,1,1,1,1,1,1,,,,,,,,,,,,*48
$GPGGA,000031,03903.1542,N,07727.2324,W,1,8,1.1,4.52285753928436,M,24.5,M,,0000*6f
$GPGSA,A,3,,,,,,,,,,,,,1.500,2.121,2.121,*1a
$GPGSV,1,1,1,1,1,1,1,,,,,,,,,,,,*48
$GPGSV,1,1,1,1,1,1,1,,,,,,,,,,,,*48
$GPGGA,000032,03903.1549,N,07727.2335,W,1,8,1.1,-0.11681716227778516,M,24.5,M,,0000*77
$GPGSA,A,3,,,,,,,,,,,,,1.500,2.121,2.121,*1a
$GPGSV,1,1,1,1,1,1,1,,,,,,,,,,,,*48
$GPGSV,1,1,1,1,1,1,1,,,,,,,,,,,,*48
$GPGGA,000033,03903.1540,N,07727.2333,W,1,8,1.1,1.0047006068492499,M,24.5,M,,0000*67
$GPGSA,A,3,,,,,,,,,,,,,1.500,2.121,2.121,*1a
$GPGSV,1,1,1,1,1,1,1,,,,,,,,,,,,*48
$GPGSV,1,1,1,1,1,1,1,,,,,,,,,,,,*48
$GPGGA,000034,03903.1557,N,07727.2331,W,1,8,1.1,0.6109470743138485,M,24.5,M,,0000*6b
$GPGSA,A,3,,,,,,,,,,,,,1.500,2.121,2.121,*1a
$GPGSV,1,1,1,1,1,1,1,,,,,,,,,,,,*48
$GPGSV,1,1,1,1,1,1,1,,,,,,,,,,,,*48
$GPGGA,000035,03903.1547,N,07727.2344,W,1,8,1.1,2.0920678514207185,M,24.5,M,,0000*6e
$GPGSA,A,3,,,,,,,,,,,,,1.500,2.121,2.121,*1a
$GPGSV,1,1,1,1,1,1,1,,,,,,,,,,,,*48
$GPGSV,1,1,1,1,1,1,1,,,,,,,,,,,,*48
$GPGGA,000036,03903.1546,N,07727.2336,W,1,8,1.1,2.152412224825852,M,24.5,M,,0000*57
$GPGSA,A,3,,,,,,,,,,,,,1.500,2.121,2.121,*1a
$GPGSV,1,1,1,1,1,1,1,,,,,,,,,,,,*48
$GPGSV,1,1,1,1,1,1,1,,,,,,,,,,,,*48
$GPGGA,000037,03903.1546,N,07727.2341,W,1,8,1.1,1.4392962508428813,M,24.5,M,,0000*68
$GPGSA,A,3,,,,,,,,,,,,,1.500,2.121,2.121,*1a
$GPGSV,1,1,1,1,1,1,1,,,,,,,,,,,,*48
$GPGSV,1,1,1,1,1,1,1,,,,,,,,,,,,*48
$GPGGA,000038,03903.1547,N,07727.2342,W,1,8,1.1,2.596791991747728,M,24.5,M,,0000*53
$GPGSA,A,3,,,,,,,,,,,,,1.500,2.121,2.121,*1a
$GPGSV,1,1,1,1,1,1,1,,,,,,,,,,,,*48
$GPGSV,1,1,1,1,1,1,1,,,,,,,,,,,,*48
$GPGGA,000039,03903.1549,N,07727.2339,W,1,8,1.1,1.1559350431302575,M,24.5,M,,0000*60
$GPGSA,A,3,,,,,,,,,,,,,1.500,2.121,2.121,*1a
$GPGSV,1,1,1,1,1,1,1,,,,,,,,,,,,*48
$GPGSV,1,1,1,1,1,1,1,,,,,,,,,,,,*48
$GPGGA,000040,03903.1554,N,07727.2331,W,1,8,1.1,4.293097202297071,M,24.5,M,,0000*5d
$GPGSA,A,3,,,,,,,,,,,,,1.500,2.121,2.121,*1a
$GPGSV,1,1,1,1,1,1,1,,,,,,,,,,,,*48
$GPGSV,1,1,1,1,1,1,1,,,,,,,,,,,,*48
$GPGGA,000041,03903.1549,N,07727.2346,W,1,8,1.1,0.933169187149033,M,24.5,M,,0000*5d
$GPGSA,A,3,,,,,,,,,,,,,1.500,2.121,2.121,*1a
$GPGSV,1,1,1,1,1,1,1,,,,,,,,,,,,*48
$GPGSV,1,1,1,1,1,1,1,,,,,,,,,,,,*48
$GPGGA,000042,03903.1554,N,07727.2344,W,1,8,1.1,4.725714113420465,M,24.5,M,,0000*51
$GPGSA,A,3,,,,,,,,,,,,,1.500,2.121,2.121,*1a
$GPGSV,1,1,1,1,1,1,1,,,,,,,,,,,,*48
$GPGSV,1,1,1,1,1,1,1,,,,,,,,,,,,*48
$GPGGA,000043,03903.1546,N,07727.2339,W,1,8,1.1,3.4976272381805433,M,24.5,M,,0000*66
$GPGSA,A,3,,,,,,,,,,,,,1.500,2.121,2.121,*1a
$GPGSV,1,1,1,1,1,1,1,,,,,,,,,,,,*48
$GPGSV,1,1,1,1,1,1,1,,,,,,,,,,,,*48
$GPGGA,000044,03903.1542,N,07727.2352,W,1,8,1.1,1.74784551240065,M,24.5,M,,0000*6e
$GPGSA,A,3,,,,,,,,,,,,,1.500,2.121,2.121,*1a
$GPGSV,1,1,1,1,1,1,1,,,,,,,,,,,,*48
$GPGSV,1,1,1,1,1,1,1,,,,,,,,,,,,*48
$GPGGA,000045,03903.1543,N,07727.2353,W,1,8,1.1,0.38163845076895053,M,24.5,M,,0000*57
$GPGSA,A,3,,,,,,,,,,,,,1.500,2.121,2.121,*1a
$GPGSV,1,1,1,1,1,1,1,,,,,,,,,,,,*48
$GPGSV,1,1,1,1,1,1,1,,,,,,,,,,,,*48
$GPGGA,000046,03903.1543,N,07727.2348,W,1,8,1.1,2.5221195573763286,M,24.5,M,,0000*6f
$GPGSA,A,3,,,,,,,,,,,,,1.500,2.121,2.121,*1a
$GPGSV,1,1,1,1,1,1,1,,,,,,,,,,,,*48
$GPGSV,1,1,1,1,1,1,1,,,,,,,,,,,,*48
$GPGGA,000047,03903.1543,N,07727.2340,W,1,8,1.1,1.6430933879068768,M,24.5,M,,0000*6a
$GPGSA,A,3,,,,,,,,,,,,,1.500,2.121,2.121,*1a
$GPGSV,1,1,1,1,1,1,1,,,,,,,,,,,,*48
$GPGSV,1,1,1,1,1,1,1,,,,,,,,,,,,*48
$GPGGA,000048,03903.1542,N,07727.2348,W,1,8,1.1,0.57111529617901,M,24.5,M,,0000*61
$GPGSA,A,3,,,,,,,,,,,,,1.500,2.121,2.121,*1a
$GPGSV,1,1,1,1,1,1,1,,,,,,,,,,,,*48
$GPGSV,1,1,1,1,1,1,1,,,,,,,,,,,,*48
$GPGGA,000049,03903.1543,N,07727.2335,W,1,8,1.1,2.6170714344928276,M,24.5,M,,0000*6d
$GPGSA,A,3,,,,,,,,,,,,,1.500,2.121,2.121,*1a
$GPGSV,1,1,1,1,1,1,1,,,,,,,,,,,,*48
$GPGSV,1,1,1,1,1,1,1,,,,,,,,,,,,*48
$GPGGA,000050,03903.1552,N,07727.2345,W,1,8,1.1,2.9458535972545135,M,24.5,M,,0000*6f
$GPGSA,A,3,,,,,,,,,,,,,1.500,2.121,2.121,*1a
$GPGSV,1,1,1,1,1,1,1,,,,,,,,,,,,*48
$GPGSV,1,1,1,1,1,1,1,,,,,,,,,,,,*48
$GPGGA,000051,03903.1543,N,07727.2347,W,1,8,1.1,2.3272247135635116,M,24.5,M,,0000*64
$GPGSA,A,3,,,,,,,,,,,,,1.500,2.121,2.121,*1a
$GPGSV,1,1,1,1,1,1,1,,,,,,,,,,,,*48
$GPGSV,1,1,1,1,1,1,1,,,,,,,,,,,,*48
$GPGGA,000052,03903.1548,N,07727.2347,W,1,8,1.1,2.0489164353469946,M,24.5,M,,0000*6b
$GPGSA,A,3,,,,,,,,,,,,,1.500,2.121,2.121,*1a
$GPGSV,1,1,1,1,1,1,1,,,,,,,,,,,,*48
$GPGSV,1,1,1,1,1,1,1,,,,,,,,,,,,*48
$GPGGA,000053,03903.1548,N,07727.2344,W,1,8,1.1,2.1833306076629406,M,24.5,M,,0000*68
$GPGSA,A,3,,,,,,,,,,,,,1.500,2.121,2.121,*1a
$GPGSV,1,1,1,1,1,1,1,,,,,,,,,,,,*48
$GPGSV,1,1,1,1,1,1,1,,,,,,,,,,,,*48
$GPGGA,000054,03903.1556,N,07727.2330,W,1,8,1.1,-1.1967904047268103,M,24.5,M,,0000*46
$GPGSA,A,3,,,,,,,,,,,,,1.500,2.121,2.121,*1a
$GPGSV,1,1,1,1,1,1,1,,,,,,,,,,,,*48
$GPGSV,1,1,1,1,1,1,1,,,,,,,,,,,,*48
$GPGGA,000055,03903.1539,N,07727.2337,W,1,8,1.1,2.1086453096106927,M,24.5,M,,0000*67
$GPGSA,A,3,,,,,,,,,,,,,1.500,2.121,2.121,*1a
$GPGSV,1,1,1,1,1,1,1,,,,,,,,,,,,*48
$GPGSV,1,1,1,1,1,1,1,,,,,,,,,,,,*48
$GPGGA,000056,03903.1546,N,07727.2342,W,1,8,1.1,3.400094056667534,M,24.5,M,,0000*59
$GPGSA,A,3,,,,,,,,,,,,,1.500,2.121,2.121,*1a
$GPGSV,1,1,1,1,1,1,1,,,,,,,,,,,,*48
$GPGSV,1,1,1,1,1,1,1,,,,,,,,,,,,*48
$GPGGA,000057,03903.1554,N,07727.2345,W,1,8,1.1,0.7964103172816461,M,24.5,M,,0000*66
$GPGSA,A,3,,,,,,,,,,,,,1.500,2.121,2.121,*1a
$GPGSV,1,1,1,1,1,1,1,,,,,,,,,,,,*48
$GPGSV,1,1,1,1,1,1,1,,,,,,,,,,,,*48
$GPGGA,000058,03903.1553,N,07727.2335,W,1,8,1.1,-0.695067766531654,M,24.5,M,,0000*7e
$GPGSA,A,3,,,,,,,,,,,,,1.500,2.121,2.121,*1a
$GPGSV,1,1,1,1,1,1,1,,,,,,,,,,,,*48
$GPGSV,1,1,1,1,1,1,1,,,,,,,,,,,,*48
$GPGGA,000059,03903.1559,N,07727.2333,W,1,8,1.1,2.1099215014962387,M,24.5,M,,0000*63
$GPGSA,A,3,,,,,,,,,,,,,1.500,2.121,2.121,*1a
$GPGSV,1,1,1,1,1,1,1,,,,,,,,,,,,*48
$GPGSV,1,1,1,1,1,1,1,,,,,,,,,,,,*48
$GPGGA,000060,03903.1543,N,07727.2344,W,1,8,1.1,1.8805056452133964,M,24.5,M,,0000*6d
$GPGSA,A,3,,,,,,,,,,,,,1.500,2.121,2.121,*1a
$GPGSV,1,1,1,1,1,1,1,,,,,,,,,,,,*48
$GPGSV,1,1,1,1,1,1,1,,,,,,,,,,,,*48
$GPGGA,000061,03903.1548,N,07727.2327,W,1,8,1.1,1.7396512459025266,M,24.5,M,,0000*6d
$GPGSA,A,3,,,,,,,,,,,,,1.500,2.121,2.121,*1a
$GPGSV,1,1,1,1,1,1,1,,,,,,,,,,,,*48
$GPGSV,1,1,1,1,1,1,1,,,,,,,,,,,,*48
$GPGGA,000062,03903.1549,N,07727.2341,W,1,8,1.1,-0.11945600105865983,M,24.5,M,,0000*70
$GPGSA,A,3,,,,,,,,,,,,,1.500,2.121,2.121,*1a
$GPGSV,1,1,1,1,1,1,1,,,,,,,,,,,,*48
$GPGSV,1,1,1,1,1,1,1,,,,,,,,,,,,*48
$GPGGA,000063,03903.1543,N,07727.2339,W,1,8,1.1,2.093291181123755,M,24.5,M,,0000*57
$GPGSA,A,3,,,,,,,,,,,,,1.500,2.121,2.121,*1a
$GPGSV,1,1,1,1,1,1,1,,,,,,,,,,,,*48
$GPGSV,1,1,1,1,1,1,1,,,,,,,,,,,,*48
$GPGGA,000064,03903.1548,N,07727.2365,W,1,8,1.1,2.202649461560011,M,24.5,M,,0000*56
$GPGSA,A,3,,,,,,,,,,,,,1.500,2.121,2.121,*1a
$GPGSV,1,1,1,1,1,1,1,,,,,,,,,,,,*48
$GPGSV,1,1,1,1,1,1,1,,,,,,,,,,,,*48
$GPGGA,000065,03903.1547,N,07727.2340,W,1,8,1.1,0.7905582413250167,M,24.5,M,,0000*63
$GPGSA,A,3,,,,,,,,,,,,,1.500,2.121,2.121,*1a
$GPGSV,1,1,1,1,1,1,1,,,,,,,,,,,,*48
$GPGSV,1,1,1,1,1,1,1,,,,,,,,,,,,*48
$GPGGA,000066,03903.1548,N,07727.2356,W,1,8,1.1,1.1866520025335596,M,24.5,M,,0000*6a
$GPGSA,A,3,,,,,,,,,,,,,1.500,2.121,2.121,*1a
$GPGSV,1,1,1,1,1,1,1,,,,,,,,,,,,*48
$GPGSV,1,1,1,1,1,1,1,,,,,,,,,,,,*48
$GPGGA,000067,03903.1547,N,07727.2339,W,1,8,1.1,1.9321304722024322,M,24.5,M,,0000*67
$GPGSA,A,3,,,,,,,,,,,,,1.500,2.121,2.121,*1a
$GPGSV,1,1,1,1,1,1,1,,,,,,,,,,,,*48
$GPGSV,1,1,1,1,1,1,1,,,,,,,,,,,,*48
$GPGGA,000068,03903.1555,N,07727.2338,W,1,8,1.1,0.875565397121291,M,24.5,M,,0000*5e
$GPGSA,A,3,,,,,,,,,,,,,1.500,2.121,2.121,*1a
$GPGSV,1,1,1,1,1,1,1,,,,,,,,,,,,*48
$GPGSV,1,1,1,1,1,1,1,,,,,,,,,,,,*48
$GPGGA,000069,03903.1546,N,07727.2341,W,1,8,1.1,3.1535119982170348,M,24.5,M,,0000*68
$GPGSA,A,3,,,,,,,,,,,,,1.500,2.121,2.121,*1a
$GPGSV,1,1,1,1,1,1,1,,,,,,,,,,,,*48
$GPGSV,1,1,1,1,1,1,1,,,,,,,,,,,,*48
$GPGGA,000070,03903.1544,N,07727.2342,W,1,8,1.1,0.383906509306593,M,24.5,M,,0000*52
$GPGSA,A,3,,,,,,,,,,,,,1.500,2.121,2.121,*1a
$GPGSV,1,1,1,1,1,1,1,,,,,,,,,,,,*48
$GPGSV,1,1,1,1,1,1,1,,,,,,,,,,,,*48
$GPGGA,000071,03903.1538,N,07727.2338,W,1,8,1.1,3.5539624001149557,M,24.5,M,,0000*67
$GPGSA,A,3,,,,,,,,,,,,,1.500,2.121,2.121,*1a
$GPGSV,1,1,1,1,1,1,1,,,,,,,,,,,,*48
$GPGSV,1,1,1,1,1,1,1,,,,,,,,,,,,*48
$GPGGA,000072,03903.1550,N,07727.2336,W,1,8,1.1,5.081253133396077,M,24.5,M,,0000*52
$GPGSA,A,3,,,,,,,,,,,,,1.500,2.121,2.121,*1a
$GPGSV,1,1,1,1,1,1,1,,,,,,,,,,,,*48
$GPGSV,1,1,1,1,1,1,1,,,,,,,,,,,,*48
$GPGGA,000073,03903.1539,N,07727.2342,W,1,8,1.1,1.4104180235715431,M,24.5,M,,0000*62
$GPGSA,A,3,,,,,,,,,,,,,1.500,2.121,2.121,*1a
$GPGSV,1,1,1,1,1,1,1,,,,,,,,,,,,*48
$GPGSV,1,1,1,1,1,1,1,,,,,,,,,,,,*48
$GPGGA,000074,03903.1545,N,07727.2337,W,1,8,1.1,0.22904622262624463,M,24.5,M,,0000*58
$GPGSA,A,3,,,,,,,,,,,,,1.500,2.121,2.121,*1a
$GPGSV,1,1,1,1,1,1,1,,,,,,,,,,,,*48
$GPGSV,1,1,1,1,1,1,1,,,,,,,,,,,,*48
$GPGGA,000075,03903.1550,N,07727.2327,W,1,8,1.1,0.9058910928197007,M,24.5,M,,0000*67
$GPGSA,A,3,,,,,,,,,,,,,1.500,2.121,2.121,*1a
$GPGSV,1,1,1,1,1,1,1,,,,,,,,,,,,*48
$GPGSV,1,1,1,1,1,1,1,,,,,,,,,,,,*48
$GPGGA,000076,03903.1546,N,07727.2352,W,1,8,1.1,3.7683626063593567,M,24.5,M,,0000*63
$GPGSA,A,3,,,,,,,,,,,,,1.500,2.121,2.121,*1a
$GPGSV,1,1,1,1,1,1,1,,,,,,,,,,,,*48
$GPGSV,1,1,1,1,1,1,1,,,,,,,,,,,,*48
$GPGGA,000077,03903.1545,N,07727.2342,W,1,8,1.1,0.6854732060175242,M,24.5,M,,0000*6d
$GPGSA,A,3,,,,,,,,,,,,,1.500,2.121,2.121,*1a
$GPGSV,1,1,1,1,1,1,1,,,,,,,,,,,,*48
$GPGSV,1,1,1,1,1,1,1,,,,,,,,,,,,*48
$GPGGA,000078,03903.1535,N,07727.2334,W,1,8,1.1,0.8282521270778258,M,24.5,M,,0000*68
$GPGSA,A,3,,,,,,,,,,,,,1.500,2.121,2.121,*1a
$GPGSV,1,1,1,1,1,1,1,,,,,,,,,,,,*48
$GPGSV,1,1,1,1,1,1,1,,,,,,,,,,,,*48
$GPGGA,000079,03903.1563,N,07727.2335,W,1,8,1.1,0.5697422953321378,M,24.5,M,,0000*65
$GPGSA,A,3,,,,,,,,,,,,,1.500,2.121,2.121,*1a
$GPGSV,1,1,1,1,1,1,1,,,,,,,,,,,,*48
$GPGSV,1,1,1,1,1,1,1,,,,,,,,,,,,*48
$GPGGA,000080,03903.1548,N,07727.2342,W,1,8,1.1,2.615665014128115,M,24.5,M,,0000*5e
$GPGSA,A,3,,,,,,,,,,,,,1.500,2.121,2.121,*1a
$GPGSV,1,1,1,1,1,1,1,,,,,,,,,,,,*48
$GPGSV,1,1,1,1,1,1,1,,,,,,,,,,,,*48
$GPGGA,000081,03903.1553,N,07727.2346,W,1,8,1.1,1.609641497648168,M,24.5,M,,0000*5d
$GPGSA,A,3,,,,,,,,,,,,,1.500,2.121,2.121,*1a
$GPGSV,1,1,1,1,1,1,1,,,,,,,,,,,,*48
$GPGSV,1,1,1,1,1,1,1,,,,,,,,,,,,*48
$GPGGA,000082,03903.1548,N,07727.2341,W,1,8,1.1,1.617214740062288,M,24.5,M,,0000*52
$GPGSA,A,3,,,,,,,,,,,,,1.500,2.121,2.121,*1a
$GPGSV,1,1,1,1,1,1,1,,,,,,,,,,,,*48
$GPGSV,1,1,1,1,1,1,1,,,,,,,,,,,,*48
$GPGGA,000083,03903.1544,N,07727.2340,W,1,8,1.1,2.477832011928771,M,24.5,M,,0000*50
$GPGSA,A,3,,,,,,,,,,,,,1.500,2.121,2.121,*1a
$GPGSV,1,1,1,1,1,1,1,,,,,,,,,,,,*48
$GPGSV,1,1,1,1,1,1,1,,,,,,,,,,,,*48
$GPGGA,000084,03903.1549,N,07727.2349,W,1,8,1.1,2.3622192236749635,M,24.5,M,,0000*6e
$GPGSA,A,3,,,,,,,,,,,,,1.500,2.121,2.121,*1a
$GPGSV,1,1,1,1,1,1,1,,,,,,,,,,,,*48
$GPGSV,1,1,1,1,1,1,1,,,,,,,,,,,,*48
$GPGGA,000085,03903.1551,N,07727.2337,W,1,8,1.1,1.5946709590174444,M,24.5,M,,0000*64
$GPGSA,A,3,,,,,,,,,,,,,1.500,2.121,2.121,*1a
$GPGSV,1,1,1,1,1,1,1,,,,,,,,,,,,*48
$GPGSV,1,1,1,1,1,1,1,,,,,,,,,,,,*48
$GPGGA,000086,03903.1554,N,07727.2351,W,1,8,1.1,-0.5323737489175819,M,24.5,M,,0000*46
$GPGSA,A,3,,,,,,,,,,,,,1.500,2.121,2.121,*1a
$GPGSV,1,1,1,1,1,1,1,,,,,,,,,,,,*48
$GPGSV,1,1,1,1,1,1,1,,,,,,,,,,,,*48
$GPGGA,000087,03903.1539,N,07727.2343,W,1,8,1.1,1.0281386231413348,M,24.5,M,,0000*6e
$GPGSA,A,3,,,,,,,,,,,,,1.500,2.121,2.121,*1a
$GPGSV,1,1,1,1,1,1,1,,,,,,,,,,,,*48
$GPGSV,1,1,1,1,1,1,1,,,,,,,,,,,,*48
$GPGGA,000088,03903.1553,N,07727.2341,W,1,8,1.1,0.755163972643565,M,24.5,M,,0000*59
$GPGSA,A,3,,,,,,,,,,,,,1.500,2.121,2.121,*1a
$GPGSV,1,1,1,1,1,1,1,,,,,,,,,,,,*48
$GPGSV,1,1,1,1,1,1,1,,,,,,,,,,,,*48
$GPGGA,000089,03903.1545,N,07727.2351,W,1,8,1.1,2.8426423449788727,M,24.5,M,,0000*65
$GPGSA,A,3,,,,,,,,,,,,,1.500,2.121,2.121,*1a
$GPGSV,1,1,1,1,1,1,1,,,,,,,,,,,,*48
$GPGSV,1,1,1,1,1,1,1,,,,,,,,,,,,*48
$GPGGA,000090,03903.1545,N,07727.2333,W,1,8,1.1,4.011697356258133,M,24.5,M,,0000*58
$GPGSA,A,3,,,,,,,,,,,,,1.500,2.121,2.121,*1a
$GPGSV,1,1,1,1,1,1,1,,,,,,,,,,,,*48
$GPGSV,1,1,1,1,1,1,1,,,,,,,,,,,,*48
$GPGGA,000091,03903.1544,N,07727.2353,W,1,8,1.1,1.1183447985344483,M,24.5,M,,0000*69
$GPGSA,A,3,,,,,,,,,,,,,1.500,2.121,2.121,*1a
$GPGSV,1,1,1,1,1,1,1,,,,,,,,,,,,*48
$GPGSV,1,1,1,1,1,1,1,,,,,,,,,,,,*48
$GPGGA,000092,03903.1532,N,07727.2349,W,1,8,1.1,4.266471739362879,M,24.5,M,,0000*5d
$GPGSA,A,3,,,,,,,,,,,,,1.500,2.121,2.121,*1a
$GPGSV,1,1,1,1,1,1,1,,,,,,,,,,,,*48
$GPGSV,1,1,1,1,1,1,1,,,,,,,,,,,,*48
$GPGGA,000093,03903.1549,N,07727.2318,W,1,8,1.1,3.4190637167319693,M,24.5,M,,0000*66
$GPGSA,A,3,,,,,,,,,,,,,1.500,2.121,2.121,*1a
$GPGSV,1,1,1,1,1,1,1,,,,,,,,,,,,*48
$GPGSV,1,1,1,1,1,1,1,,,,,,,,,,,,*48
$GPGGA,000094,03903.1553,N,07727.2343,W,1,8,1.1,5.428830384555064,M,24.5,M,,0000*56
$GPGSA,A,3,,,,,,,,,,,,,1.500,2.121,2.121,*1a
$GPGSV,1,1,1,1,1,1,1,,,,,,,,,,,,*48
$GPGSV,1,1,1,1,1,1,1,,,,,,,,,,,,*48
$GPGGA,000095,03903.1551,N,07727.2328,W,1,8,1.1,2.8369331817843877,M,24.5,M,,0000*6e
$GPGSA,A,3,,,,,,,,,,,,,1.500,2.121,2.121,*1a
$GPGSV,1,1,1,1,1,1,1,,,,,,,,,,,,*48
$GPGSV,1,1,1,1,1,1,1,,,,,,,,,,,,*48
$GPGGA,000096,03903.1550,N,07727.2338,W,1,8,1.1,1.4164878518618595,M,24.5,M,,0000*68
$GPGSA,A,3,,,,,,,,,,,,,1.500,2.121,2.121,*1a
$GPGSV,1,1,1,1,1,1,1,,,,,,,,,,,,*48
$GPGSV,1,1,1,1,1,1,1,,,,,,,,,,,,*48
$GPGGA,000097,03903.1546,N,07727.2347,W,1,8,1.1,-0.7846958023074988,M,24.5,M,,0000*42
$GPGSA,A,3,,,,,,,,,,,,,1.500,2.121,2.121,*1a
$GPGSV,1,1,1,1,1,1,1,,,,,,,,,,,,*48
$GPGSV,1,1,1,1,1,1,1,,,,,,,,,,,,*48
$GPGGA,000098,03903.1546,N,07727.2342,W,1,8,1.1,-0.7845555910720643,M,24.5,M,,0000*4d
$GPGSA,A,3,,,,,,,,,,,,,1.500,2.121,2.121,*1a
$GPGSV,1,1,1,1,1,1,1,,,,,,,,,,,,*48
$GPGSV,1,1,1,1,1,1,1,,,,,,,,,,,,*48
$GPGGA,000099,03903.1558,N,07727.2347,W,1,8,1.1,3.37400626470307,M,24.5,M,,0000*6a
$GPGSA,A,3,,,,,,,,,,,,,1.500,2.121,2.121,*1a
$GPGSV,1,1,1,1,1,1,1,,,,,,,,,,,,*48
$GPGSV,1,1,1,1,1,1,1,,,,,,,,,,,,*48
$GPGGA,000100,03903.1544,N,07727.2336,W,1,8,1.1,2.938244271488288,M,24.5,M,,0000*56
$GPGSA,A,3,,,,,,,,,,,,,1.500,2.121,2.121,*1a
$GPGSV,1,1,1,1,1,1,1,,,,,,,,,,,,*48
$GPGSV,1,1,1,1,1,1,1,,,,,,,,,,,,*48
$GPGGA,000101,03903.1549,N,07727.2341,W,1,8,1.1,2.764797466077736,M,24.5,M,,0000*52
$GPGSA,A,3,,,,,,,,,,,,,1.500,2.121,2.121,*1a
$GPGSV,1,1,1,1,1,1,1,,,,,,,,,,,,*48
$GPGSV,1,1,1,1,1,1,1,,,,,,,,,,,,*48
$GPGGA,000102,03903.1553,N,07727.2348,W,1,8,1.1,-0.5230857397130428,M,24.5,M,,0000*49
$GPGSA,A,3,,,,,,,,,,,,,1.500,2.121,2.121,*1a
$GPGSV,1,1,1,1,1,1,1,,,,,,,,,,,,*48
$GPGSV,1,1,1,1,1,1,1,,,,,,,,,,,,*48
$GPGGA,000103,03903.1550,N,07727.2330,W,1,8,1.1,1.159809983924561,M,24.5,M,,0000*54
$GPGSA,A,3,,,,,,,,,,,,,1.500,2.121,2.121,*1a
$GPGSV,1,1,1,1,1,1,1,,,,,,,,,,,,*48
$GPGSV,1,1,1,1,1,1,1,,,,,,,,,,,,*48
$GPGGA,000104,03903.1553,N,07727.2350,W,1,8,1.1,2.664892125276201,M,24.5,M,,0000*57
$GPGSA,A,3,,,,,,,,,,,,,1.500,2.121,2.121,*1a
$GPGSV,1,1,1,1,1,1,1,,,,,,,,,,,,*48
$GPGSV,1,1,1,1,1,1,1,,,,,,,,,,,,*48
$GPGGA,000105,03903.1549,N,07727.2338,W,1,8,1.1,4.672265447363292,M,24.5,M,,0000*5e
$GPGSA,A,3,,,,,,,,,,,,,1.500,2.121,2.121,*1a
$GPGSV,1,1,1,1,1,1,1,,,,,,,,,,,,*48
$GPGSV,1,1,1,1,1,1,1,,,,,,,,,,,,*48
$GPGGA,000106,03903.1551,N,07727.2346,W,1,8,1.1,2.1821226707448704,M,24.5,M,,0000*66
$GPGSA,A,3,,,,,,,,,,,,,1.500,2.121,2.121,*1a
$GPGSV,1,1,1,1,1,1,1,,,,,,,,,,,,*48
$GPGSV,1,1,1,1,1,1,1,,,,,,,,,,,,*48
$GPGGA,000107,03903.1546,N,07727.2343,W,1,8,1.1,-1.1986557363371366,M,24.5,M,,0000*4c
$GPGSA,A,3,,,,,,,,,,,,,1.500,2.121,2.121,*1a
$GPGSV,1,1,1,1,1,1,1,,,,,,,,,,,,*48
$GPGSV,1,1,1,1,1,1,1,,,,,,,,,,,,*48
$GPGGA,000108,03903.1548,N,07727.2348,W,1,8,1.1,2.587589782653194,M,24.5,M,,0000*56
$GPGSA,A,3,,,,,,,,,,,,,1.500,2.121,2.121,*1a
$GPGSV,1,1,1,1,1,1,1,,,,,,,,,,,,*48
$GPGSV,1,1,1,1,1,1,1,,,,,,,,,,,,*48
$GPGGA,000109,03903.1542,N,07727.2328,W,1,8,1.1,-0.9446673280958127,M,24.5,M,,0000*4c
$GPGSA,A,3,,,,,,,,,,,,,1.500,2.121,2.121,*1a
$GPGSV,1,1,1,1,1,1,1,,,,,,,,,,,,*48
$GPGSV,1,1,1,1,1,1,1,,,,,,,,,,,,*48
$GPGGA,000110,03903.1550,N,07727.2328,W,1,8,1.1,-0.1757731802064746,M,24.5,M,,0000*4c
$GPGSA,A,3,,,,,,,,,,,,,1.500,2.121,2.121,*1a
$GPGSV,1,1,1,1,1,1,1,,,,,,,,,,,,*48
$GPGSV,1,1,1,1,1,1,1,,,,,,,,,,,,*48
$GPGGA,000111,03903.1543,N,07727.2341,W,1,8,1.1,-1.2963349905235493,M,24.5,M,,0000*4b
$GPGSA,A,3,,,,,,,,,,,,,1.500,2.121,2.121,*1a
$GPGSV,1,1,1,1,1,1,1,,,,,,,,,,,,*48
$GPGSV,1,1,1,1,1,1,1,,,,,,,,,,,,*48
$GPGGA,000112,03903.1544,N,07727.2341,W,1,8,1.1,-0.5999026206069087,M,24.5,M,,0000*44
$GPGSA,A,3,,,,,,,,,,,,,1.500,2.121,2.121,*1a
$GPGSV,1,1,1,1,1,1,1,,,,,,,,,,,,*48
$GPGSV,1,1,1,1,1,1,1,,,,,,,,,,,,*48
$GPGGA,000113,03903.1551,N,07727.2334,W,1,8,1.1,-0.36819785037838604,M,24.5,M,,0000*75
$GPGSA,A,3,,,,,,,,,,,,,1.500,2.121,2.121,*1a
$GPGSV,1,1,1,1,1,1,1,,,,,,,,,,,,*48
$GPGSV,1,1,1,1,1,1,1,,,,,,,,,,,,*48
$GPGGA,000114,03903.1543,N,07727.2342,W,1,8,1.1,0.6843738492657981,M,24.5,M,,0000*69
$GPGSA,A,3,,,,,,,,,,,,,1.500,2.121,2.121,*1a
$GPGSV,1,1,1,1,1,1,1,,,,,,,,,,,,*48
$GPGSV,1,1,1,1,1,1,1,,,,,,,,,,,,*48
$GPGGA,000115,03903.1550,N,07727.2330,W,1,8,1.1,2.190577175528553,M,24.5,M,,0000*51
$GPGSA,A,3,,,,,,,,,,,,,1.500,2.121,2.121,*1a
$GPGSV,1,1,1,1,1,1,1,,,,,,,,,,,,*48
$GPGSV,1,1,1,1,1,1,1,,,,,,,,,,,,*48
$GPGGA,000116,03903.1541,N,07727.2343,W,1,8,1.1,-1.1596519498062676,M,24.5,M,,0000*4a
$GPGSA,A,3,,,,,,,,,,,,,1.500,2.121,2.121,*1a
$GPGSV,1,1,1,1,1,1,1,,,,,,,,,,,,*48
$GPGSV,1,1,1,1,1,1,1,,,,,,,,,,,,*48
$GPGGA,000117,03903.1551,N,07727.2330,W,1,8,1.1,3.8895026971848234,M,24.5,M,,0000*67
$GPGSA,A,3,,,,,,,,,,,,,1.500,2.121,2.121,*1a
$GPGSV,1,1,1,1,1,1,1,,,,,,,,,,,,*48
$GPGSV,1,1,1,1,1,1,1,,,,,,,,,,,,*48
$GPGGA,000118,03903.1546,N,07727.2352,W,1,8,1.1,-1.3252547976860596,M,24.5,M,,0000*4f
$GPGSA,A,3,,,,,,,,,,,,,1.500,2.121,2.121,*1a
$GPGSV,1,1,1,1,1,1,1,,,,,,,,,,,,*48
$GPGSV,1,1,1,1,1,1,1,,,,,,,,,,,,*48
$GPGGA,000119,03903.1546,N,07727.2341,W,1,8,1.1,1.6842289008482523,M,24.5,M,,0000*64
$GPGSA,A,3,,,,,,,,,,,,,1.500,2.121,2.121,*1a
$GPGSV,1,1,1,1,1,1,1,,,,,,,,,,,,*48
$GPGSV,1,1,1,1,1,1,1,,,,,,,,,,,,*48
$GPGGA,000120,03903.1541,N,07727.2347,W,1,8,1.1,1.6631625110610497,M,24.5,M,,0000*68
$GPGSA,A,3,,,,,,,,,,,,,1.500,2.121,2.121,*1a
$GPGSV,1,1,1,1,1,1,1,,,,,,,,,,,,*48
$GPGSV,1,1,1,1,1,1,1,,,,,,,,,,,,*48
$GPGGA,000121,03903.1548,N,07727.2357,W,1,8,1.1,0.56175553792926,M,24.5,M,,0000*6c
$GPGSA,A,3,,,,,,,,,,,,,1.500,2.121,2.121,*1a
$GPGSV,1,1,1,1,1,1,1,,,,,,,,,,,,*48
$GPGSV,1,1,1,1,1,1,1,,,,,,,,,,,,*48
$GPGGA,000122,03903.1543,N,07727.2350,W,1,8,1.1,3.325412897688015,M,24.5,M,,0000*55
$GPGSA,A,3,,,,,,,,,,,,,1.500,2.121,2.121,*1a
$GPGSV,1,1,1,1,1,1,1,,,,,,,,,,,,*48
$GPGSV,1,1,1,1,1,1,1,,,,,,,,,,,,*48
$GPGGA,000123,03903.1554,N,07727.2328,W,1,8,1.1,1.9468904106453806,M,24.5,M,,0000*6d
$GPGSA,A,3,,,,,,,,,,,,,1.500,2.121,2.121,*1a
$GPGSV,1,1,1,1,1,1,1,,,,,,,,,,,,*48
$GPGSV,1,1,1,1,1,1,1,,,,,,,,,,,,*48
$GPGGA,000124,03903.1539,N,07727.2343,W,1,8,1.1,2.036062130383151,M,24.5,M,,0000*54
$GPGSA,A,3,,,,,,,,,,,,,1.500,2.121,2.121,*1a
$GPGSV,1,1,1,1,1,1,1,,,,,,,,,,,,*48
$GPGSV,1,1,1,1,1,1,1,,,,,,,,,,,,*48
$GPGGA,000125,03903.1526,N,07727.2347,W,1,8,1.1,2.9657043530946043,M,24.5,M,,0000*61
$GPGSA,A,3,,,,,,,,,,,,,1.500,2.121,2.121,*1a
$GPGSV,1,1,1,1,1,1,1,,,,,,,,,,,,*48
$GPGSV,1,1,1,1,1,1,1,,,,,,,,,,,,*48
$GPGGA,000126,03903.1538,N,07727.2340,W,1,8,1.1,2.9584203965253573,M,24.5,M,,0000*64
$GPGSA,A,3,,,,,,,,,,,,,1.500,2.121,2.121,*1a
$GPGSV,1,1,1,1,1,1,1,,,,,,,,,,,,*48
$GPGSV,1,1,1,1,1,1,1,,,,,,,,,,,,*48
$GPGGA,000127,03903.1554,N,07727.2334,W,1,8,1.1,4.665064888753582,M,24.5,M,,0000*55
$GPGSA,A,3,,,,,,,,,,,,,1.500,2.121,2.121,*1a
$GPGSV,1,1,1,1,1,1,1,,,,,,,,,,,,*48
$GPGSV,1,1,1,1,1,1,1,,,,,,,,,,,,*48
$GPGGA,000128,03903.1531,N,07727.2337,W,1,8,1.1,3.6178255038827234,M,24.5,M,,0000*65
$GPGSA,A,3,,,,,,,,,,,,,1.500,2.121,2.121,*1a
$GPGSV,1,1,1,1,1,1,1,,,,,,,,,,,,*48
$GPGSV,1,1,1,1,1,1,1,,,,,,,,,,,,*48
$GPGGA,000129,03903.1540,N,07727.2340,W,1,8,1.1,0.5253450019503354,M,24.5,M,,0000*64
$GPGSA,A,3,,,,,,,,,,,,,1.500,2.121,2.121,*1a
$GPGSV,1,1,1,1,1,1,1,,,,,,,,,,,,*48
$GPGSV,1,1,1,1,1,1,1,,,,,,,,,,,,*48
$GPGGA,000130,03903.1554,N,07727.2339,W,1,8,1.1,-1.2249896848718675,M,24.5,M,,0000*43
$GPGSA,A,3,,,,,,,,,,,,,1.500,2.121,2.121,*1a
$GPGSV,1,1,1,1,1,1,1,,,,,,,,,,,,*48
$GPGSV,1,1,1,1,1,1,1,,,,,,,,,,,,*48
$GPGGA,000131,03903.1549,N,07727.2339,W,1,8,1.1,-0.7347766512923295,M,24.5,M,,0000*4b
$GPGSA,A,3,,,,,,,,,,,,,1.500,2.121,2.121,*1a
$GPGSV,1,1,1,1,1,1,1,,,,,,,,,,,,*48
$GPGSV,1,1,1,1,1,1,1,,,,,,,,,,,,*48
$GPGGA,000132,03903.1553,N,07727.2358,W,1,8,1.1,-0.9216581468005449,M,24.5,M,,0000*42
$GPGSA,A,3,,,,,,,,,,,,,1.500,2.121,2.121,*1a
$GPGSV,1,1,1,1,1,1,1,,,,,,,,,,,,*48
$GPGSV,1,1,1,1,1,1,1,,,,,,,,,,,,*48
$GPGGA,000133,03903.1545,N,07727.2342,W,1,8,1.1,0.0058277073898307385,M,24.5,M,,0000*5c
$GPGSA,A,3,,,,,,,,,,,,,1.500,2.121,2.121,*1a
$GPGSV,1,1,1,1,1,1,1,,,,,,,,,,,,*48
$GPGSV,1,1,1,1,1,1,1,,,,,,,,,,,,*48
$GPGGA,000134,03903.1547,N,07727.2323,W,1,8,1.1,1.6800968966057743,M,24.5,M,,0000*65
$GPGSA,A,3,,,,,,,,,,,,,1.500,2.121,2.121,*1a
$GPGSV,1,1,1,1,1,1,1,,,,,,,,,,,,*48
$GPGSV,1,1,1,1,1,1,1,,,,,,,,,,,,*48
$GPGGA,000135,03903.1547,N,07727.2337,W,1,8,1.1,-4.536272517850341,M,24.5,M,,0000*74
$GPGSA,A,3,,,,,,,,,,,,,1.500,2.121,2.121,*1a
$GPGSV,1,1,1,1,1,1,1,,,,,,,,,,,,*48
$GPGSV,1,1,1,1,1,1,1,,,,,,,,,,,,*48
$GPGGA,000136,03903.1544,N,07727.2336,W,1,8,1.1,-2.013560249117943,M,24.5,M,,0000*7b
$GPGSA,A,3,,,,,,,,,,,,,1.500,2.121,2.121,*1a
$GPGSV,1,1,1,1,1,1,1,,,,,,,,,,,,*48
$GPGSV,1,1,1,1,1,1,1,,,,,,,,,,,,*48
$GPGGA,000137,03903.1546,N,07727.2341,W,1,8,1.1,0.3727343183218448,M,24.5,M,,0000*6c
$GPGSA,A,3,,,,,,,,,,,,,1.500,2.121,2.121,*1a
$GPGSV,1,1,1,1,1,1,1,,,,,,,,,,,,*48
$GPGSV,1,1,1,1,1,1,1,,,,,,,,,,,,*48
$GPGGA,000138,03903.1547,N,07727.2341,W,1,8,1.1,1.6824026607936715,M,24.5,M,,0000*6d
$GPGSA,A,3,,,,,,,,,,,,,1.500,2.121,2.121,*1a
$GPGSV,1,1,1,1,1,1,1,,,,,,,,,,,,*48
$GPGSV,1,1,1,1,1,1,1,,,,,,,,,,,,*48
$GPGGA,000139,03903.1550,N,07727.2336,W,1,8,1.1,0.3503295176786232,M,24.5,M,,0000*68
$GPGSA,A,3,,,,,,,,,,,,,1.500,2.121,2.121,*1a
$GPGSV,1,1,1,1,1,1,1,,,,,,,,,,,,*48
$GPGSV,1,1,1,1,1,1,1,,,,,,,,,,,,*48
$GPGGA,000140,03903.1544,N,07727.2341,W,1,8,1.1,-0.537790983394212,M,24.5,M,,0000*7d
$GPGSA,A,3,,,,,,,,,,,,,1.500,2.121,2.121,*1a
$GPGSV,1,1,1,1,1,1,1,,,,,,,,,,,,*48
$GPGSV,1,1,1,1,1,1,1,,,,,,,,,,,,*48
$GPGGA,000141,03903.1543,N,07727.2344,W,1,8,1.1,3.9080653001170766,M,24.5,M,,0000*63
$GPGSA,A,3,,,,,,,,,,,,,1.500,2.121,2.121,*1a
$GPGSV,1,1,1,1,1,1,1,,,,,,,,,,,,*48
$GPGSV,1,1,1,1,1,1,1,,,,,,,,,,,,*48
$GPGGA,000142,03903.1553,N,07727.2346,W,1,8,1.1,-0.3809532613833764,M,24.5,M,,0000*43
$GPGSA,A,3,,,,,,,,,,,,,1.500,2.121,2.121,*1a
$GPGSV,1,1,1,1,1,1,1,,,,,,,,,,,,*48
$GPGSV,1,1,1,1,1,1,1,,,,,,,,,,,,*48
$GPGGA,000143,03903.1544,N,07727.2340,W,1,8,1.1,2.0495175262354777,M,24.5,M,,0000*6a
$GPGSA,A,3,,,,,,,,,,,,,1.500,2.121,2.121,*1a
$GPGSV,1,1,1,1,1,1,1,,,,,,,,,,,,*48
$GPGSV,1,1,1,1,1,1,1,,,,,,,,,,,,*48
$GPGGA,000144,03903.1546,N,07727.2338,W,1,8,1.1,1.031846524880038,M,24.5,M,,0000*5b
$GPGSA,A,3,,,,,,,,,,,,,1.500,2.121,2.121,*1a
$GPGSV,1,1,1,1,1,1,1,,,,,,,,,,,,*48
$GPGSV,1,1,1,1,1,1,1,,,,,,,,,,,,*48
$GPGGA,000145,03903.1545,N,07727.2336,W,1,8,1.1,1.4627528899180113,M,24.5,M,,0000*6d
$GPGSA,A,3,,,,,,,,,,,,,1.500,2.121,2.121,*1a
$GPGSV,1,1,1,1,1,1,1,,,,,,,,,,,,*48
$GPGSV,1,1,1,1,1,1,1,,,,,,,,,,,,*48
$GPGGA,000146,03903.1543,N,07727.2340,W,1,8,1.1,2.7462817135396085,M,24.5,M,,0000*6f
$GPGSA,A,3,,,,,,,,,,,,,1.500,2.121,2.121,*1a
$GPGSV,1,1,1,1,1,1,1,,,,,,,,,,,,*48
$GPGSV,1,1,1,1,1,1,1,,,,,,,,,,,,*48
$GPGGA,000147,03903.1546,N,07727.2340,W,1,8,1.1,-0.5212885839670802,M,24.5,M,,0000*43
$GPGSA,A,3,,,,,,,,,,,,,1.500,2.121,2.121,*1a
$GPGSV,1,1,1,1,1,1,1,,,,,,,,,,,,*48
$GPGSV,1,1,1,1,1,1,1,,,,,,,,,,,,*48
$GPGGA,000148,03903.1541,N,07727.2341,W,1,8,1.1,-1.4628611897425015,M,24.5,M,,0000*4c
$GPGSA,A,3,,,,,,,,,,,,,1.500,2.121,2.121,*1a
$GPGSV,1,1,1,1,1,1,1,,,,,,,,,,,,*48
$GPGSV,1,1,1,1,1,1,1,,,,,,,,,,,,*48
$GPGGA,000149,03903.1538,N,07727.2338,W,1,8,1.1,-0.7312355602852354,M,24.5,M,,0000*4e
$GPGSA,A,3,,,,,,,,,,,,,1.500,2.121,2.121,*1a
$GPGSV,1,1,1,1,1,1,1,,,,,,,,,,,,*48
$GPGSV,1,1,1,1,1,1,1,,,,,,,,,,,,*48
$GPGGA,000150,03903.1551,N,07727.2337,W,1,8,1.1,2.0043038543900806,M,24.5,M,,0000*6d
$GPGSA,A,3,,,,,,,,,,,,,1.500,2.121,2.121,*1a
$GPGSV,1,1,1,1,1,1,1,,,,,,,,,,,,*48
$GPGSV,1,1,1,1,1,1,1,,,,,,,,,,,,*48
$GPGGA,000151,03903.1543,N,07727.2344,W,1,8,1.1,4.210456735479194,M,24.5,M,,0000*57
$GPGSA,A,3,,,,,,,,,,,,,1.500,2.121,2.121,*1a
$GPGSV,1,1,1,1,1,1,1,,,,,,,,,,,,*48
$GPGSV,1,1,1,1,1,1,1,,,,,,,,,,,,*48
$GPGGA,000152,03903.1547,N,07727.2347,W,1,8,1.1,0.2770699713578384,M,24.5,M,,0000*60
$GPGSA,A,3,,,,,,,,,,,,,1.500,2.121,2.121,*1a
$GPGSV,1,1,1,1,1,1,1,,,,,,,,,,,,*48
$GPGSV,1,1,1,1,1,1,1,,,,,,,,,,,,*48
$GPGGA,000153,03903.1545,N,07727.2344,W,1,8,1.1,3.7665707357550144,M,24.5,M,,0000*65
$GPGSA,A,3,,,,,,,,,,,,,1.500,2.121,2.121,*1a
$GPGSV,1,1,1,1,1,1,1,,,,,,,,,,,,*48
$GPGSV,1,1,1,1,1,1,1,,,,,,,,,,,,*48
$GPGGA,000154,03903.1552,N,07727.2329,W,1,8,1.1,3.2901391688212227,M,24.5,M,,0000*6c
$GPGSA,A,3,,,,,,,,,,,,,1.500,2.121,2.121,*1a
$GPGSV,1,1,1,1,1,1,1,,,,,,,,,,,,*48
$GPGSV,1,1,1,1,1,1,1,,,,,,,,,,,,*48
$GPGGA,000155,03903.1556,N,07727.2366,W,1,8,1.1,4.73161597424746,M,24.5,M,,0000*6a
$GPGSA,A,3,,,,,,,,,,,,,1.500,2.121,2.121,*1a
$GPGSV,1,1,1,1,1,1,1,,,,,,,,,,,,*48
$GPGSV,1,1,1,1,1,1,1,,,,,,,,,,,,*48
$GPGGA,000156,03903.1543,N,07727.2339,W,1,8,1.1,1.3939890446762448,M,24.5,M,,0000*60
$GPGSA,A,3,,,,,,,,,,,,,1.500,2.121,2.121,*1a
$GPGSV,1,1,1,1,1,1,1,,,,,,,,,,,,*48
$GPGSV,1,1,1,1,1,1,1,,,,,,,,,,,,*48
$GPGGA,000157,03903.1537,N,07727.2340,W,1,8,1.1,1.2296369044654831,M,24.5,M,,0000*6e
$GPGSA,A,3,,,,,,,,,,,,,1.500,2.121,2.121,*1a
$GPGSV,1,1,1,1,1,1,1,,,,,,,,,,,,*48
$GPGSV,1,1,1,1,1,1,1,,,,,,,,,,,,*48
$GPGGA,000158,03903.1546,N,07727.2345,W,1,8,1.1,0.9360242083029985,M,24.5,M,,0000*61
$GPGSA,A,3,,,,,,,,,,,,,1.500,2.121,2.121,*1a
$GPGSV,1,1,1,1,1,1,1,,,,,,,,,,,,*48
$GPGSV,1,1,1,1,1,1,1,,,,,,,,,,,,*48
$GPGGA,000159,03903.1540,N,07727.2339,W,1,8,1.1,0.7689333775098598,M,24.5,M,,0000*62
$GPGSA,A,3,,,,,,,,,,,,,1.500,2.121,2.121,*1a
$GPGSV,1,1,1,1,1,1,1,,,,,,,,,,,,*48
$GPGSV,1,1,1,1,1,1,1,,,,,,,,,,,,*48
$GPGGA,000160,03903.1543,N,07727.2352,W,1,8,1.1,1.1113379166022168,M,24.5,M,,0000*65
$GPGSA,A,3,,,,,,,,,,,,,1.500,2.121,2.121,*1a
$GPGSV,1,1,1,1,1,1,1,,,,,,,,,,,,*48
$GPGSV,1,1,1,1,1,1,1,,,,,,,,,,,,*48
$GPGGA,000161,03903.1541,N,07727.2337,W,1,8,1.1,1.3900546801933205,M,24.5,M,,0000*6e
$GPGSA,A,3,,,,,,,,,,,,,1.500,2.121,2.121,*1a
$GPGSV,1,1,1,1,1,1,1,,,,,,,,,,,,*48
$GPGSV,1,1,1,1,1,1,1,,,,,,,,,,,,*48
$GPGGA,000162,03903.1552,N,07727.2335,W,1,8,1.1,3.03033612371423,M,24.5,M,,0000*63
$GPGSA,A,3,,,,,,,,,,,,,1.500,2.121,2.121,*1a
$GPGSV,1,1,1,1,1,1,1,,,,,,,,,,,,*48
$GPGSV,1,1,1,1,1,1,1,,,,,,,,,,,,*48
$GPGGA,000163,03903.1546,N,07727.2341,W,1,8,1.1,2.4364849826193833,M,24.5,M,,0000*6c
$GPGSA,A,3,,,,,,,,,,,,,1.500,2.121,2.121,*1a
$GPGSV,1,1,1,1,1,1,1,,,,,,,,,,,,*48
$GPGSV,1,1,1,1,1,1,1,,,,,,,,,,,,*48
$GPGGA,000164,03903.1546,N,07727.2342,W,1,8,1.1,2.0831459415635676,M,24.5,M,,0000*62
$GPGSA,A,3,,,,,,,,,,,,,1.500,2.121,2.121,*1a
$GPGSV,1,1,1,1,1,1,1,,,,,,,,,,,,*48
$GPGSV,1,1,1,1,1,1,1,,,,,,,,,,,,*48
$GPGGA,000165,03903.1548,N,07727.2343,W,1,8,1.1,1.6026013693714565,M,24.5,M,,0000*62
$GPGSA,A,3,,,,,,,,,,,,,1.500,2.121,2.121,*1a
$GPGSV,1,1,1,1,1,1,1,,,,,,,,,,,,*48
$GPGSV,1,1,1,1,1,1,1,,,,,,,,,,,,*48
$GPGGA,000166,03903.1547,N,07727.2342,W,1,8,1.1,0.07287770085258938,M,24.5,M,,0000*5c
$GPGSA,A,3,,,,,,,,,,,,,1.500,2.121,2.121,*1a
$GPGSV,1,1,1,1,1,1,1,,,,,,,,,,,,*48
$GPGSV,1,1,1,1,1,1,1,,,,,,,,,,,,*48
$GPGGA,000167,03903.1547,N,07727.2341,W,1,8,1.1,0.6930951600501017,M,24.5,M,,0000*61
$GPGSA,A,3,,,,,,,,,,,,,1.500,2.121,2.121,*1a
$GPGSV,1,1,1,1,1,1,1,,,,,,,,,,,,*48
$GPGSV,1,1,1,1,1,1,1,,,,,,,,,,,,*48
$GPGGA,000168,03903.1535,N,07727.2338,W,1,8,1.1,1.8273202593992446,M,24.5,M,,0000*64
$GPGSA,A,3,,,,,,,,,,,,,1.500,2.121,2.121,*1a
$GPGSV,1,1,1,1,1,1,1,,,,,,,,,,,,*48
$GPGSV,1,1,1,1,1,1,1,,,,,,,,,,,,*48
$GPGGA,000169,03903.1542,N,07727.2342,W,1,8,1.1,2.144730527710244,M,24.5,M,,0000*5f
$GPGSA,A,3,,,,,,,,,,,,,1.500,2.121,2.121,*1a
$GPGSV,1,1,1,1,1,1,1,,,,,,,,,,,,*48
$GPGSV,1,1,1,1,1,1,1,,,,,,,,,,,,*48
$GPGGA,000170,03903.1546,N,07727.2347,W,1,8,1.1,5.005289502566679,M,24.5,M,,0000*5c
$GPGSA,A,3,,,,,,,,,,,,,1.500,2.121,2.121,*1a
$GPGSV,1,1,1,1,1,1,1,,,,,,,,,,,,*48
$GPGSV,1,1,1,1,1,1,1,,,,,,,,,,,,*48
$GPGGA,000171,03903.1541,N,07727.2343,W,1,8,1.1,0.8052118459156554,M,24.5,M,,0000*6e
$GPGSA,A,3,,,,,,,,,,,,,1.500,2.121,2.121,*1a
$GPGSV,1,1,1,1,1,1,1,,,,,,,,,,,,*48
$GPGSV,1,1,1,1,1,1,1,,,,,,,,,,,,*48
$GPGGA,000172,03903.1552,N,07727.2321,W,1,8,1.1,-0.17612568590220157,M,24.5,M,,0000*78
$GPGSA,A,3,,,,,,,,,,,,,1.500,2.121,2.121,*1a
$GPGSV,1,1,1,1,1,1,1,,,,,,,,,,,,*48
$GPGSV,1,1,1,1,1,1,1,,,,,,,,,,,,*48
$GPGGA,000173,03903.1546,N,07727.2341,W,1,8,1.1,1.0213692436682078,M,24.5,M,,0000*6e
$GPGSA,A,3,,,,,,,,,,,,,1.500,2.121,2.121,*1a
$GPGSV,1,1,1,1,1,1,1,,,,,,,,,,,,*48
$GPGSV,1,1,1,1,1,1,1,,,,,,,,,,,,*48
$GPGGA,000174,03903.1554,N,07727.2342,W,1,8,1.1,0.7561915729805233,M,24.5,M,,0000*6c
$GPGSA,A,3,,,,,,,,,,,,,1.500,2.121,2.121,*1a
$GPGSV,1,1,1,1,1,1,1,,,,,,,,,,,,*48
$GPGSV,1,1,1,1,1,1,1,,,,,,,,,,,,*48
$GPGGA,000175,03903.1545,N,07727.2347,W,1,8,1.1,-1.7329712165523272,M,24.5,M,,0000*45
$GPGSA,A,3,,,,,,,,,,,,,1.500,2.121,2.121,*1a
$GPGSV,1,1,1,1,1,1,1,,,,,,,,,,,,*48
$GPGSV,1,1,1,1,1,1,1,,,,,,,,,,,,*48
$GPGGA,000176,03903.1546,N,07727.2341,W,1,8,1.1,3.8862810548094777,M,24.5,M,,0000*68
$GPGSA,A,3,,,,,,,,,,,,,1.500,2.121,2.121,*1a
$GPGSV,1,1,1,1,1,1,1,,,,,,,,,,,,*48
$GPGSV,1,1,1,1,1,1,1,,,,,,,,,,,,*48
$GPGGA,000177,03903.1544,N,07727.2337,W,1,8,1.1,-1.4129509121429367,M,24.5,M,,0000*46
$GPGSA,A,3,,,,,,,,,,,,,1.500,2.121,2.121,*1a
$GPGSV,1,1,1,1,1,1,1,,,,,,,,,,,,*48
$GPGSV,1,1,1,1,1,1,1,,,,,,,,,,,,*48
$GPGGA,000178,03903.1545,N,07727.2353,W,1,8,1.1,0.5593191568417999,M,24.5,M,,0000*68
$GPGSA,A,3,,,,,,,,,,,,,1.500,2.121,2.121,*1a
$GPGSV,1,1,1,1,1,1,1,,,,,,,,,,,,*48
$GPGSV,1,1,1,1,1,1,1,,,,,,,,,,,,*48
$GPGGA,000179,03903.1547,N,07727.2339,W,1,8,1.1,0.010366630602000715,M,24.5,M,,0000*64
$GPGSA,A,3,,,,,,,,,,,,,1.500,2.121,2.121,*1a
$GPGSV,1,1,1,1,1,1,1,,,,,,,,,,,,*48
$GPGSV,1,1,1,1,1,1,1,,,,,,,,,,,,*48
$GPGGA,000180,03903.1543,N,07727.2340,W,1,8,1.1,0.9914812934828279,M,24.5,M,,0000*66
$GPGSA,A,3,,,,,,,,,,,,,1.500,2.121,2.121,*1a
$GPGSV,1,1,1,1,1,1,1,,,,,,,,,,,,*48
$GPGSV,1,1,1,1,1,1,1,,,,,,,,,,,,*48
$GPGGA,000181,03903.1549,N,07727.2338,W,1,8,1.1,2.2482495408126075,M,24.5,M,,0000*61
$GPGSA,A,3,,,,,,,,,,,,,1.500,2.121,2.121,*1a
$GPGSV,1,1,1,1,1,1,1,,,,,,,,,,,,*48
$GPGSV,1,1,1,1,1,1,1,,,,,,,,,,,,*48
$GPGGA,000182,03903.1549,N,07727.2332,W,1,8,1.1,3.3532318906664,M,24.5,M,,0000*50
$GPGSA,A,3,,,,,,,,,,,,,1.500,2.121,2.121,*1a
$GPGSV,1,1,1,1,1,1,1,,,,,,,,,,,,*48
$GPGSV,1,1,1,1,1,1,1,,,,,,,,,,,,*48
$GPGGA,000183,03903.1540,N,07727.2322,W,1,8,1.1,3.140448276579969,M,24.5,M,,0000*5c
$GPGSA,A,3,,,,,,,,,,,,,1.500,2.121,2.121,*1a
$GPGSV,1,1,1,1,1,1,1,,,,,,,,,,,,*48
$GPGSV,1,1,1,1,1,1,1,,,,,,,,,,,,*48
$GPGGA,000184,03903.1544,N,07727.2349,W,1,8,1.1,1.9521720773149536,M,24.5,M,,0000*66
$GPGSA,A,3,,,,,,,,,,,,,1.500,2.121,2.121,*1a
$GPGSV,1,1,1,1,1,1,1,,,,,,,,,,,,*48
$GPGSV,1,1,1,1,1,1,1,,,,,,,,,,,,*48
$GPGGA,000185,03903.1556,N,07727.2338,W,1,8,1.1,3.690808735177606,M,24.5,M,,0000*5a
$GPGSA,A,3,,,,,,,,,,,,,1.500,2.121,2.121,*1a
$GPGSV,1,1,1,1,1,1,1,,,,,,,,,,,,*48
$GPGSV,1,1,1,1,1,1,1,,,,,,,,,,,,*48
$GPGGA,000186,03903.1545,N,07727.2359,W,1,8,1.1,2.723056117129701,M,24.5,M,,0000*5c
$GPGSA,A,3,,,,,,,,,,,,,1.500,2.121,2.121,*1a
$GPGSV,1,1,1,1,1,1,1,,,,,,,,,,,,*48
$GPGSV,1,1,1,1,1,1,1,,,,,,,,,,,,*48
$GPGGA,000187,03903.1544,N,07727.2344,W,1,8,1.1,4.3009257008082145,M,24.5,M,,0000*60
$GPGSA,A,3,,,,,,,,,,,,,1.500,2.121,2.121,*1a
$GPGSV,1,1,1,1,1,1,1,,,,,,,,,,,,*48
$GPGSV,1,1,1,1,1,1,1,,,,,,,,,,,,*48
$GPGGA,000188,03903.1552,N,07727.2350,W,1,8,1.1,1.5919932989841143,M,24.5,M,,0000*6f
$GPGSA,A,3,,,,,,,,,,,,,1.500,2.121,2.121,*1a
$GPGSV,1,1,1,1,1,1,1,,,,,,,,,,,,*48
$GPGSV,1,1,1,1,1,1,1,,,,,,,,,,,,*48
$GPGGA,000189,03903.1529,N,07727.2345,W,1,8,1.1,1.2259399732698655,M,24.5,M,,0000*61
$GPGSA,A,3,,,,,,,,,,,,,1.500,2.121,2.121,*1a
$GPGSV,1,1,1,1,1,1,1,,,,,,,,,,,,*48
$GPGSV,1,1,1,1,1,1,1,,,,,,,,,,,,*48
$GPGGA,000190,03903.1548,N,07727.2343,W,1,8,1.1,1.482811652067146,M,24.5,M,,0000*55
$GPGSA,A,3,,,,,,,,,,,,,1.500,2.121,2.121,*1a
$GPGSV,1,1,1,1,1,1,1,,,,,,,,,,,,*48
$GPGSV,1,1,1,1,1,1,1,,,,,,,,,,,,*48
$GPGGA,000191,03903.1546,N,07727.2341,W,1,8,1.1,0.1459102052049015,M,24.5,M,,0000*68
$GPGSA,A,3,,,,,,,,,,,,,1.500,2.121,2.121,*1a
$GPGSV,1,1,1,1,1,1,1,,,,,,,,,,,,*48
$GPGSV,1,1,1,1,1,1,1,,,,,,,,,,,,*48
$GPGGA,000192,03903.1538,N,07727.2351,W,1,8,1.1,3.297776713511198,M,24.5,M,,0000*5e
$GPGSA,A,3,,,,,,,,,,,,,1.500,2.121,2.121,*1a
$GPGSV,1,1,1,1,1,1,1,,,,,,,,,,,,*48
$GPGSV,1,1,1,1,1,1,1,,,,,,,,,,,,*48
$GPGGA,000193,03903.1548,N,07727.2349,W,1,8,1.1,2.055443650200107,M,24.5,M,,0000*5e
$GPGSA,A,3,,,,,,,,,,,,,1.500,2.121,2.121,*1a
$GPGSV,1,1,1,1,1,1,1,,,,,,,,,,,,*48
$GPGSV,1,1,1,1,1,1,1,,,,,,,,,,,,*48
$GPGGA,000194,03903.1552,N,07727.2354,W,1,8,1.1,1.3020675809445816,M,24.5,M,,0000*67
$GPGSA,A,3,,,,,,,,,,,,,1.500,2.121,2.121,*1a
$GPGSV,1,1,1,1,1,1,1,,,,,,,,,,,,*48
$GPGSV,1,1,1,1,1,1,1,,,,,,,,,,,,*48
$GPGGA,000195,03903.1546,N,07727.2342,W,1,8,1.1,3.432903060745374,M,24.5,M,,0000*57
$GPGSA,A,3,,,,,,,,,,,,,1.500,2.121,2.121,*1a
$GPGSV,1,1,1,1,1,1,1,,,,,,,,,,,,*48
$GPGSV,1,1,1,1,1,1,1,,,,,,,,,,,,*48
$GPGGA,000196,03903.1548,N,07727.2335,W,1,8,1.1,0.34671412134160073,M,24.5,M,,0000*53
$GPGSA,A,3,,,,,,,,,,,,,1.500,2.121,2.121,*1a
$GPGSV,1,1,1,1,1,1,1,,,,,,,,,,,,*48
$GPGSV,1,1,1,1,1,1,1,,,,,,,,,,,,*48
$GPGGA,000197,03903.1546,N,07727.2341,W,1,8,1.1,2.230302320518431,M,24.5,M,,0000*53
$GPGSA,A,3,,,,,,,,,,,,,1.500,2.121,2.121,*1a
$GPGSV,1,1,1,1,1,1,1,,,,,,,,,,,,*48
$GPGSV,1,1,1,1,1,1,1,,,,,,,,,,,,*48
$GPGGA,000198,03903.1548,N,07727.2337,W,1,8,1.1,3.061837144878049,M,24.5,M,,0000*59
$GPGSA,A,3,,,,,,,,,,,,,1.500,2.121,2.121,*1a
$GPGSV,1,1,1,1,1,1,1,,,,,,,,,,,,*48
$GPGSV,1,1,1,1,1,1,1,,,,,,,,,,,,*48
$GPGGA,000199,03903.1541,N,07727.2342,W,1,8,1.1,-0.508854416575732,M,24.5,M,,0000*7b
$GPGSA,A,3,,,,,,,,,,,,,1.500,2.121,2.121,*1a
$GPGSV,1,1,1,1,1,1,1,,,,,,,,,,,,*48
$GPGSV,1,1,1,1,1,1,1,,,,,,,,,,,,*48
$GPGGA,000200,03903.1547,N,07727.2346,W,1,8,1.1,0.5014096785621402,M,24.5,M,,0000*67
$GPGSA,A,3,,,,,,,,,,,,,1.500,2.121,2.121,*1a
$GPGSV,1,1,1,1,1,1,1,,,,,,,,,,,,*48
$GPGSV,1,1,1,1,1,1,1,,,,,,,,,,,,*48
$GPGGA,000201,03903.1555,N,07727.2328,W,1,8,1.1,0.4290737662247204,M,24.5,M,,0000*62
$GPGSA,A,3,,,,,,,,,,,,,1.500,2.121,2.121,*1a
$GPGSV,1,1,1,1,1,1,1,,,,,,,,,,,,*48
$GPGSV,1,1,1,1,1,1,1,,,,,,,,,,,,*48
$GPGGA,000202,03903.1546,N,07727.2337,W,1,8,1.1,0.6010206281304422,M,24.5,M,,0000*6f
$GPGSA,A,3,,,,,,,,,,,,,1.500,2.121,2.121,*1a
$GPGSV,1,1,1,1,1,1,1,,,,,,,,,,,,*48
$GPGSV,1,1,1,1,1,1,1,,,,,,,,,,,,*48
$GPGGA,000203,03903.1537,N,07727.2339,W,1,8,1.1,2.3795859017634564,M,24.5,M,,0000*63
$GPGSA,A,3,,,,,,,,,,,,,1.500,2.121,2.121,*1a
$GPGSV,1,1,1,1,1,1,1,,,,,,,,,,,,*48
$GPGSV,1,1,1,1,1,1,1,,,,,,,,,,,,*48
$GPGGA,000204,03903.1549,N,07727.2340,W,1,8,1.1,-1.9734040574952956,M,24.5,M,,0000*4e
$GPGSA,A,3,,,,,,,,,,,,,1.500,2.121,2.121,*1a
$GPGSV,1,1,1,1,1,1,1,,,,,,,,,,,,*48
$GPGSV,1,1,1,1,1,1,1,,,,,,,,,,,,*48
$GPGGA,000205,03903.1560,N,07727.2334,W,1,8,1.1,-0.2831101115148251,M,24.5,M,,0000*4f
$GPGSA,A,3,,,,,,,,,,,,,1.500,2.121,2.121,*1a
$GPGSV,1,1,1,1,1,1,1,,,,,,,,,,,,*48
$GPGSV,1,1,1,1,1,1,1,,,,,,,,,,,,*48
$GPGGA,000206,03903.1546,N,07727.2341,W,1,8,1.1,1.7522824562274688,M,24.5,M,,0000*6a
$GPGSA,A,3,,,,,,,,,,,,,1.500,2.121,2.121,*1a
$GPGSV,1,1,1,1,1,1,1,,,,,,,,,,,,*48
$GPGSV,1,1,1,1,1,1,1,,,,,,,,,,,,*48
$GPGGA,000207,03903.1545,N,07727.2346,W,1,8,1.1,0.6812724183299479,M,24.5,M,,0000*6a
$GPGSA,A,3,,,,,,,,,,,,,1.500,2.121,2.121,*1a
$GPGSV,1,1,1,1,1,1,1,,,,,,,,,,,,*48
$GPGSV,1,1,1,1,1,1,1,,,,,,,,,,,,*48
$GPGGA,000208,03903.1545,N,07727.2336,W,1,8,1.1,-0.2937461846862537,M,24.5,M,,0000*4a
$GPGSA,A,3,,,,,,,,,,,,,1.500,2.121,2.121,*1a
$GPGSV,1,1,1,1,1,1,1,,,,,,,,,,,,*48
$GPGSV,1,1,1,1,1,1,1,,,,,,,,,,,,*48
$GPGGA,000209,03903.1546,N,07727.2337,W,1,8,1.1,0.09458004750224402,M,24.5,M,,0000*5b
$GPGSA,A,3,,,,,,,,,,,,,1.500,2.121,2.121,*1a
$GPGSV,1,1,1,1,1,1,1,,,,,,,,,,,,*48
$GPGSV,1,1,1,1,1,1,1,,,,,,,,,,,,*48
$GPGGA,000210,03903.1546,N,07727.2341,W,1,8,1.1,2.5032389996315185,M,24.5,M,,0000*6f
$GPGSA,A,3,,,,,,,,,,,,,1.500,2.121,2.121,*1a
$GPGSV,1,1,1,1,1,1,1,,,,,,,,,,,,*48
$GPGSV,1,1,1,1,1,1,1,,,,,,,,,,,,*48
$GPGGA,000211,03903.1564,N,07727.2335,W,1,8,1.1,3.4953509800251985,M,24.5,M,,0000*6a
$GPGSA,A,3,,,,,,,,,,,,,1.500,2.121,2.121,*1a
$GPGSV,1,1,1,1,1,1,1,,,,,,,,,,,,*48
$GPGSV,1,1,1,1,1,1,1,,,,,,,,,,,,*48
$GPGGA,000212,03903.1534,N,07727.2340,W,1,8,1.1,3.575615049050799,M,24.5,M,,0000*59
$GPGSA,A,3,,,,,,,,,,,,,1.500,2.121,2.121,*1a
$GPGSV,1,1,1,1,1,1,1,,,,,,,,,,,,*48
$GPGSV,1,1,1,1,1,1,1,,,,,,,,,,,,*48
$GPGGA,000213,03903.1554,N,07727.2335,W,1,8,1.1,0.9107042883549856,M,24.5,M,,0000*6c
$GPGSA,A,3,,,,,,,,,,,,,1.500,2.121,2.121,*1a
$GPGSV,1,1,1,1,1,1,1,,,,,,,,,,,,*48
$GPGSV,1,1,1,1,1,1,1,,,,,,,,,,,,*48
$GPGGA,000214,03903.1558,N,07727.2328,W,1,8,1.1,2.7861984513248252,M,24.5,M,,0000*61
$GPGSA,A,3,,,,,,,,,,,,,1.500,2.121,2.121,*1a
$GPGSV,1,1,1,1,1,1,1,,,,,,,,,,,,*48
$GPGSV,1,1,1,1,1,1,1,,,,,,,,,,,,*48
$GPGGA,000215,03903.1549,N,07727.2343,W,1,8,1.1,2.6896859494088305,M,24.5,M,,0000*66
$GPGSA,A,3,,,,,,,,,,,,,1.500,2.121,2.121,*1a
$GPGSV,1,1,1,1,1,1,1,,,,,,,,,,,,*48
$GPGSV,1,1,1,1,1,1,1,,,,,,,,,,,,*48
$GPGGA,000216,03903.1546,N,07727.2335,W,1,8,1.1,2.6752857287559335,M,24.5,M,,0000*6c
$GPGSA,A,3,,,,,,,,,,,,,1.500,2.121,2.121,*1a
$GPGSV,1,1,1,1,1,1,1,,,,,,,,,,,,*48
$GPGSV,1,1,1,1,1,1,1,,,,,,,,,,,,*48
$GPGGA,000217,03903.1539,N,07727.2359,W,1,8,1.1,1.2555618275074683,M,24.5,M,,0000*67
$GPGSA,A,3,,,,,,,,,,,,,1.500,2.121,2.121,*1a
$GPGSV,1,1,1,1,1,1,1,,,,,,,,,,,,*48
$GPGSV,1,1,1,1,1,1,1,,,,,,,,,,,,*48
$GPGGA,000218,03903.1546,N,07727.2340,W,1,8,1.1,2.701368242722662,M,24.5,M,,0000*57
$GPGSA,A,3,,,,,,,,,,,,,1.500,2.121,2.121,*1a
$GPGSV,1,1,1,1,1,1,1,,,,,,,,,,,,*48
$GPGSV,1,1,1,1,1,1,1,,,,,,,,,,,,*48
$GPGGA,000219,03903.1549,N,07727.2338,W,1,8,1.1,0.3679787872971221,M,24.5,M,,0000*6e
$GPGSA,A,3,,,,,,,,,,,,,1.500,2.121,2.121,*1a
$GPGSV,1,1,1,1,1,1,1,,,,,,,,,,,,*48
$GPGSV,1,1,1,1,1,1,1,,,,,,,,,,,,*48
$GPGGA,000220,03903.1545,N,07727.2333,W,1,8,1.1,3.8200225453990737,M,24.5,M,,0000*6e
$GPGSA,A,3,,,,,,,,,,,,,1.500,2.121,2.121,*1a
$GPGSV,1,1,1,1,1,1,1,,,,,,,,,,,,*48
$GPGSV,1,1,1,1,1,1,1,,,,,,,,,,,,*48
$GPGGA,000221,03903.1548,N,07727.2340,W,1,8,1.1,1.6357252277309684,M,24.5,M,,0000*6a
$GPGSA,A,3,,,,,,,,,,,,,1.500,2.121,2.121,*1a
$GPGSV,1,1,1,1,1,1,1,,,,,,,,,,,,*48
$GPGSV,1,1,1,1,1,1,1,,,,,,,,,,,,*48
$GPGGA,000222,03903.1545,N,07727.2333,W,1,8,1.1,1.6371390734956208,M,24.5,M,,0000*69
$GPGSA,A,3,,,,,,,,,,,,,1.500,2.121,2.121,*1a
$GPGSV,1,1,1,1,1,1,1,,,,,,,,,,,,*48
$GPGSV,1,1,1,1,1,1,1,,,,,,,,,,,,*48
$GPGGA,000223,03903.1548,N,07727.2339,W,1,8,1.1,2.5917668092041577,M,24.5,M,,0000*6c
$GPGSA,A,3,,,,,,,,,,,,,1.500,2.121,2.121,*1a
$GPGSV,1,1,1,1,1,1,1,,,,,,,,,,,,*48
$GPGSV,1,1,1,1,1,1,1,,,,,,,,,,,,*48
$GPGGA,000224,03903.1547,N,07727.2341,W,1,8,1.1,1.7054932151096187,M,24.5,M,,0000*6b
$GPGSA,A,3,,,,,,,,,,,,,1.500,2.121,2.121,*1a
$GPGSV,1,1,1,1,1,1,1,,,,,,,,,,,,*48
$GPGSV,1,1,1,1,1,1,1,,,,,,,,,,,,*48
$GPGGA,000225,03903.1543,N,07727.2349,W,1,8,1.1,-2.062127825135149,M,24.5,M,,0000*76
$GPGSA,A,3,,,,,,,,,,,,,1.500,2.121,2.121,*1a
$GPGSV,1,1,1,1,1,1,1,,,,,,,,,,,,*48
$GPGSV,1,1,1,1,1,1,1,,,,,,,,,,,,*48
$GPGGA,000226,03903.1544,N,07727.2339,W,1,8,1.1,0.8750045195438103,M,24.5,M,,0000*65
$GPGSA,A,3,,,,,,,,,,,,,1.500,2.121,2.121,*1a
$GPGSV,1,1,1,1,1,1,1,,,,,,,,,,,,*48
$GPGSV,1,1,1,1,1,1,1,,,,,,,,,,,,*48
$GPGGA,000227,03903.1547,N,07727.2347,W,1,8,1.1,-1.887678274009097,M,24.5,M,,0000*71
$GPGSA,A,3,,,,,,,,,,,,,1.500,2.121,2.121,*1a
$GPGSV,1,1,1,1,1,1,1,,,,,,,,,,,,*48
$GPGSV,1,1,1,1,1,1,1,,,,,,,,,,,,*48
$GPGGA,000228,03903.1542,N,07727.2340,W,1,8,1.1,0.9782900195401938,M,24.5,M,,0000*6f
$GPGSA,A,3,,,,,,,,,,,,,1.500,2.121,2.121,*1a
$GPGSV,1,1,1,1,1,1,1,,,,,,,,,,,,*48
$GPGSV,1,1,1,1,1,1,1,,,,,,,,,,,,*48
$GPGGA,000229,03903.1544,N,07727.2341,W,1,8,1.1,1.258514335079667,M,24.5,M,,0000*5c
$GPGSA,A,3,,,,,,,,,,,,,1.500,2.121,2.121,*1a
$GPGSV,1,1,1,1,1,1,1,,,,,,,,,,,,*48
$GPGSV,1,1,1,1,1,1,1,,,,,,,,,,,,*48
$GPGGA,000230,03903.1547,N,07727.2340,W,1,8,1.1,1.3102735908067615,M,24.5,M,,0000*66
$GPGSA,A,3,,,,,,,,,,,,,1.500,2.121,2.121,*1a
$GPGSV,1,1,1,1,1,1,1,,,,,,,,,,,,*48
$GPGSV,1,1,1,1,1,1,1,,,,,,,,,,,,*48
$GPGGA,000231,03903.1547,N,07727.2331,W,1,8,1.1,3.2025983456807703,M,24.5,M,,0000*6b
$GPGSA,A,3,,,,,,,,,,,,,1.500,2.121,2.121,*1a
$GPGSV,1,1,1,1,1,1,1,,,,,,,,,,,,*48
$GPGSV,1,1,1,1,1,1,1,,,,,,,,,,,,*48
$GPGGA,000232,03903.1548,N,07727.2339,W,1,8,1.1,0.8593721398576001,M,24.5,M,,0000*63
$GPGSA,A,3,,,,,,,,,,,,,1.500,2.121,2.121,*1a
$GPGSV,1,1,1,1,1,1,1,,,,,,,,,,,,*48
$GPGSV,1,1,1,1,1,1,1,,,,,,,,,,,,*48
$GPGGA,000233,03903.1547,N,07727.2354,W,1,8,1.1,3.3879284279697757,M,24.5,M,,0000*6b
$GPGSA,A,3,,,,,,,,,,,,,1.500,2.121,2.121,*1a
$GPGSV,1,1,1,1,1,1,1,,,,,,,,,,,,*48
$GPGSV,1,1,1,1,1,1,1,,,,,,,,,,,,*48
$GPGGA,000234,03903.1558,N,07727.2348,W,1,8,1.1,1.0564580673688302,M,24.5,M,,0000*68
$GPGSA,A,3,,,,,,,,,,,,,1.500,2.121,2.121,*1a
$GPGSV,1,1,1,1,1,1,1,,,,,,,,,,,,*48
$GPGSV,1,1,1,1,1,1,1,,,,,,,,,,,,*48
$GPGGA,000235,03903.1546,N,07727.2340,W,1,8,1.1,4.129787454680809,M,24.5,M,,0000*5c
$GPGSA,A,3,,,,,,,,,,,,,1.500,2.121,2.121,*1a
$GPGSV,1,1,1,1,1,1,1,,,,,,,,,,,,*48
$GPGSV,1,1,1,1,1,1,1,,,,,,,,,,,,*48
$GPGGA,000236,03903.1544,N,07727.2340,W,1,8,1.1,3.481279535875413,M,24.5,M,,0000*5c
$GPGSA,A,3,,,,,,,,,,,,,1.500,2.121,2.121,*1a
$GPGSV,1,1,1,1,1,1,1,,,,,,,,,,,,*48
$GPGSV,1,1,1,1,1,1,1,,,,,,,,,,,,*48
$GPGGA,000237,03903.1546,N,07727.2341,W,1,8,1.1,1.5503161944673192,M,24.5,M,,0000*66
$GPGSA,A,3,,,,,,,,,,,,,1.500,2.121,2.121,*1a
$GPGSV,1,1,1,1,1,1,1,,,,,,,,,,,,*48
$GPGSV,1,1,1,1,1,1,1,,,,,,,,,,,,*48
$GPGGA,000238,03903.1546,N,07727.2345,W,1,8,1.1,1.868735337917162,M,24.5,M,,0000*53
$GPGSA,A,3,,,,,,,,,,,,,1.500,2.121,2.121,*1a
$GPGSV,1,1,1,1,1,1,1,,,,,,,,,,,,*48
$GPGSV,1,1,1,1,1,1,1,,,,,,,,,,,,*48
$GPGGA,000239,03903.1553,N,07727.2339,W,1,8,1.1,3.125272078319723,M,24.5,M,,0000*56
$GPGSA,A,3,,,,,,,,,,,,,1.500,2.121,2.121,*1a
$GPGSV,1,1,1,1,1,1,1,,,,,,,,,,,,*48
$GPGSV,1,1,1,1,1,1,1,,,,,,,,,,,,*48
$GPGGA,000240,03903.1550,N,07727.2352,W,1,8,1.1,1.945194327673113,M,24.5,M,,0000*54
$GPGSA,A,3,,,,,,,,,,,,,1.500,2.121,2.121,*1a
$GPGSV,1,1,1,1,1,1,1,,,,,,,,,,,,*48
$GPGSV,1,1,1,1,1,1,1,,,,,,,,,,,,*48
$GPGGA,000241,03903.1546,N,07727.2341,W,1,8,1.1,3.813685534437967,M,24.5,M,,0000*5a
$GPGSA,A,3,,,,,,,,,,,,,1.500,2.121,2.121,*1a
$GPGSV,1,1,1,1,1,1,1,,,,,,,,,,,,*48
$GPGSV,1,1,1,1,1,1,1,,,,,,,,,,,,*48
$GPGGA,000242,03903.1545,N,07727.2336,W,1,8,1.1,1.463074057199052,M,24.5,M,,0000*55
$GPGSA,A,3,,,,,,,,,,,,,1.500,2.121,2.121,*1a
$GPGSV,1,1,1,1,1,1,1,,,,,,,,,,,,*48
$GPGSV,1,1,1,1,1,1,1,,,,,,,,,,,,*48
$GPGGA,000243,03903.1547,N,07727.2346,W,1,8,1.1,2.1923733149258986,M,24.5,M,,0000*6e
$GPGSA,A,3,,,,,,,,,,,,,1.500,2.121,2.121,*1a
$GPGSV,1,1,1,1,1,1,1,,,,,,,,,,,,*48
$GPGSV,1,1,1,1,1,1,1,,,,,,,,,,,,*48
$GPGGA,000244,03903.1542,N,07727.2345,W,1,8,1.1,4.262324639998177,M,24.5,M,,0000*55
$GPGSA,A,3,,,,,,,,,,,,,1.500,2.121,2.121,*1a
$GPGSV,1,1,1,1,1,1,1,,,,,,,,,,,,*48
$GPGSV,1,1,1,1,1,1,1,,,,,,,,,,,,*48
$GPGGA,000245,03903.1548,N,07727.2348,W,1,8,1.1,0.918350103755347,M,24.5,M,,0000*52
$GPGSA,A,3,,,,,,,,,,,,,1.500,2.121,2.121,*1a
$GPGSV,1,1,1,1,1,1,1,,,,,,,,,,,,*48
$GPGSV,1,1,1,1,1,1,1,,,,,,,,,,,,*48
$GPGGA,000246,03903.1544,N,07727.2341,W,1,8,1.1,0.1790773218849464,M,24.5,M,,0000*63
$GPGSA,A,3,,,,,,,,,,,,,1.500,2.121,2.121,*1a
$GPGSV,1,1,1,1,1,1,1,,,,,,,,,,,,*48
$GPGSV,1,1,1,1,1,1,1,,,,,,,,,,,,*48
$GPGGA,000247,03903.1544,N,07727.2351,W,1,8,1.1,-0.5126532142010114,M,24.5,M,,0000*4c
$GPGSA,A,3,,,,,,,,,,,,,1.500,2.121,2.121,*1a
$GPGSV,1,1,1,1,1,1,1,,,,,,,,,,,,*48
$GPGSV,1,1,1,1,1,1,1,,,,,,,,,,,,*48
$GPGGA,000248,03903.1546,N,07727.2340,W,1,8,1.1,0.6572262843178802,M,24.5,M,,0000*61
$GPGSA,A,3,,,,,,,,,,,,,1.500,2.121,2.121,*1a
$GPGSV,1,1,1,1,1,1,1,,,,,,,,,,,,*48
$GPGSV,1,1,1,1,1,1,1,,,,,,,,,,,,*48
$GPGGA,000249,03903.1545,N,07727.2342,W,1,8,1.1,0.7623628358739722,M,24.5,M,,0000*62
$GPGSA,A,3,,,,,,,,,,,,,1.500,2.121,2.121,*1a
$GPGSV,1,1,1,1,1,1,1,,,,,,,,,,,,*48
$GPGSV,1,1,1,1,1,1,1,,,,,,,,,,,,*48
$GPGGA,000250,03903.1540,N,07727.2342,W,1,8,1.1,1.0053091060186472,M,24.5,M,,0000*60
$GPGSA,A,3,,,,,,,,,,,,,1.500,2.121,2.121,*1a
$GPGSV,1,1,1,1,1,1,1,,,,,,,,,,,,*48
$GPGSV,1,1,1,1,1,1,1,,,,,,,,,,,,*48
$GPGGA,000251,03903.1550,N,07727.2344,W,1,8,1.1,2.841268302195092,M,24.5,M,,0000*55
$GPGSA,A,3,,,,,,,,,,,,,1.500,2.121,2.121,*1a
$GPGSV,1,1,1,1,1,1,1,,,,,,,,,,,,*48
$GPGSV,1,1,1,1,1,1,1,,,,,,,,,,,,*48
$GPGGA,000252,03903.1543,N,07727.2342,W,1,8,1.1,0.33738773775190656,M,24.5,M,,0000*51
$GPGSA,A,3,,,,,,,,,,,,,1.500,2.121,2.121,*1a
$GPGSV,1,1,1,1,1,1,1,,,,,,,,,,,,*48
$GPGSV,1,1,1,1,1,1,1,,,,,,,,,,,,*48
$GPGGA,000253,03903.1543,N,07727.2341,W,1,8,1.1,-0.10095173252356204,M,24.5,M,,0000*72
$GPGSA,A,3,,,,,,,,,,,,,1.500,2.121,2.121,*1a
$GPGSV,1,1,1,1,1,1,1,,,,,,,,,,,,*48
$GPGSV,1,1,1,1,1,1,1,,,,,,,,,,,,*48
$GPGGA,000254,03903.1559,N,07727.2341,W,1,8,1.1,0.12330071665363262,M,24.5,M,,0000*58
$GPGSA,A,3,,,,,,,,,,,,,1.500,2.121,2.121,*1a
$GPGSV,1,1,1,1,1,1,1,,,,,,,,,,,,*48
$GPGSV,1,1,1,1,1,1,1,,,,,,,,,,,,*48
$GPGGA,000255,03903.1555,N,07727.2340,W,1,8,1.1,1.7746285738948484,M,24.5,M,,0000*69
$GPGSA,A,3,,,,,,,,,,,,,1.500,2.121,2.121,*1a
$GPGSV,1,1,1,1,1,1,1,,,,,,,,,,,,*48
$GPGSV,1,1,1,1,1,1,1,,,,,,,,,,,,*48
$GPGGA,000256,03903.1541,N,07727.2342,W,1,8,1.1,3.093646757186089,M,24.5,M,,0000*56
$GPGSA,A,3,,,,,,,,,,,,,1.500,2.121,2.121,*1a
$GPGSV,1,1,1,1,1,1,1,,,,,,,,,,,,*48
$GPGSV,1,1,1,1,1,1,1,,,,,,,,,,,,*48
$GPGGA,000257,03903.1556,N,07727.2354,W,1,8,1.1,-0.6067601869082462,M,24.5,M,,0000*40
$GPGSA,A,3,,,,,,,,,,,,,1.500,2.121,2.121,*1a
$GPGSV,1,1,1,1,1,1,1,,,,,,,,,,,,*48
$GPGSV,1,1,1,1,1,1,1,,,,,,,,,,,,*48
$GPGGA,000258,03903.1533,N,07727.2336,W,1,8,1.1,1.9018298311082962,M,24.5,M,,0000*6e
$GPGSA,A,3,,,,,,,,,,,,,1.500,2.121,2.121,*1a
$GPGSV,1,1,1,1,1,1,1,,,,,,,,,,,,*48
$GPGSV,1,1,1,1,1,1,1,,,,,,,,,,,,*48
$GPGGA,000259,03903.1542,N,07727.2333,W,1,8,1.1,3.0298745369991185,M,24.5,M,,0000*6d
$GPGSA,A,3,,,,,,,,,,,,,1.500,2.121,2.121,*1a
$GPGSV,1,1,1,1,1,1,1,,,,,,,,,,,,*48
$GPGSV,1,1,1,1,1,1,1,,,,,,,,,,,,*48
$GPGGA,000260,03903.1544,N,07727.2330,W,1,8,1.1,0.11899066138728931,M,24.5,M,,0000*51
$GPGSA,A,3,,,,,,,,,,,,,1.500,2.121,2.121,*1a
$GPGSV,1,1,1,1,1,1,1,,,,,,,,,,,,*48
$GPGSV,1,1,1,1,1,1,1,,,,,,,,,,,,*48
$GPGGA,000261,03903.1545,N,07727.2346,W,1,8,1.1,0.5400872158022558,M,24.5,M,,0000*6c
$GPGSA,A,3,,,,,,,,,,,,,1.500,2.121,2.121,*1a
$GPGSV,1,1,1,1,1,1,1,,,,,,,,,,,,*48
$GPGSV,1,1,1,1,1,1,1,,,,,,,,,,,,*48
$GPGGA,000262,03903.1559,N,07727.2337,W,1,8,1.1,2.9531395881948095,M,24.5,M,,0000*67
$GPGSA,A,3,,,,,,,,,,,,,1.500,2.121,2.121,*1a
$GPGSV,1,1,1,1,1,1,1,,,,,,,,,,,,*48
$GPGSV,1,1,1,1,1,1,1,,,,,,,,,,,,*48
$GPGGA,000263,03903.1547,N,07727.2342,W,1,8,1.1,-0.24581511911109244,M,24.5,M,,0000*71
$GPGSA,A,3,,,,,,,,,,,,,1.500,2.121,2.121,*1a
$GPGSV,1,1,1,1,1,1,1,,,,,,,,,,,,*48
$GPGSV,1,1,1,1,1,1,1,,,,,,,,,,,,*48
$GPGGA,000264,03903.1546,N,07727.2341,W,1,8,1.1,2.2411810697689756,M,24.5,M,,0000*63
$GPGSA,A,3,,,,,,,,,,,,,1.500,2.121,2.121,*1a
$GPGSV,1,1,1,1,1,1,1,,,,,,,,,,,,*48
$GPGSV,1,1,1,1,1,1,1,,,,,,,,,,,,*48
$GPGGA,000265,03903.1544,N,07727.2341,W,1,8,1.1,0.8716757053105497,M,24.5,M,,0000*63
$GPGSA,A,3,,,,,,,,,,,,,1.500,2.121,2.121,*1a
$GPGSV,1,1,1,1,1,1,1,,,,,,,,,,,,*48
$GPGSV,1,1,1,1,1,1,1,,,,,,,,,,,,*48
$GPGGA,000266,03903.1547,N,07727.2341,W,1,8,1.1,1.969172950002295,M,24.5,M,,0000*55
$GPGSA,A,3,,,,,,,,,,,,,1.500,2.121,2.121,*1a
$GPGSV,1,1,1,1,1,1,1,,,,,,,,,,,,*48
$GPGSV,1,1,1,1,1,1,1,,,,,,,,,,,,*48
$GPGGA,000267,03903.1546,N,07727.2340,W,1,8,1.1,1.5421626867241311,M,24.5,M,,0000*6b
$GPGSA,A,3,,,,,,,,,,,,,1.500,2.121,2.121,*1a
$GPGSV,1,1,1,1,1,1,1,,,,,,,,,,,,*48
$GPGSV,1,1,1,1,1,1,1,,,,,,,,,,,,*48
$GPGGA,000268,03903.1551,N,07727.2344,W,1,8,1.1,2.7839433327999563,M,24.5,M,,0000*66
$GPGSA,A,3,,,,,,,,,,,,,1.500,2.121,2.121,*1a
$GPGSV,1,1,1,1,1,1,1,,,,,,,,,,,,*48
$GPGSV,1,1,1,1,1,1,1,,,,,,,,,,,,*48
$GPGGA,000269,03903.1546,N,07727.2340,W,1,8,1.1,-0.7095272562625348,M,24.5,M,,0000*47
$GPGSA,A,3,,,,,,,,,,,,,1.500,2.121,2.121,*1a
$GPGSV,1,1,1,1,1,1,1,,,,,,,,,,,,*48
$GPGSV,1,1,1,1,1,1,1,,,,,,,,,,,,*48
$GPGGA,000270,03903.1524,N,07727.2344,W,1,8,1.1,2.332843682882977,M,24.5,M,,0000*59
$GPGSA,A,3,,,,,,,,,,,,,1.500,2.121,2.121,*1a
$GPGSV,1,1,1,1,1,1,1,,,,,,,,,,,,*48
$GPGSV,1,1,1,1,1,1,1,,,,,,,,,,,,*48
$GPGGA,000271,03903.1541,N,07727.2330,W,1,8,1.1,4.374672669227868,M,24.5,M,,0000*5f
$GPGSA,A,3,,,,,,,,,,,,,1.500,2.121,2.121,*1a
$GPGSV,1,1,1,1,1,1,1,,,,,,,,,,,,*48
$GPGSV,1,1,1,1,1,1,1,,,,,,,,,,,,*48
$GPGGA,000272,03903.1530,N,07727.2326,W,1,8,1.1,2.2814541874641665,M,24.5,M,,0000*62
$GPGSA,A,3,,,,,,,,,,,,,1.500,2.121,2.121,*1a
$GPGSV,1,1,1,1,1,1,1,,,,,,,,,,,,*48
$GPGSV,1,1,1,1,1,1,1,,,,,,,,,,,,*48
$GPGGA,000273,03903.1546,N,07727.2339,W,1,8,1.1,-0.0867860195930934,M,24.5,M,,0000*4f
$GPGSA,A,3,,,,,,,,,,,,,1.500,2.121,2.121,*1a
$GPGSV,1,1,1,1,1,1,1,,,,,,,,,,,,*48
$GPGSV,1,1,1,1,1,1,1,,,,,,,,,,,,*48
$GPGGA,000274,03903.1546,N,07727.2351,W,1,8,1.1,1.853870180936026,M,24.5,M,,0000*54
$GPGSA,A,3,,,,,,,,,,,,,1.500,2.121,2.121,*1a
$GPGSV,1,1,1,1,1,1,1,,,,,,,,,,,,*48
$GPGSV,1,1,1,1,1,1,1,,,,,,,,,,,,*48
$GPGGA,000275,03903.1546,N,07727.2341,W,1,8,1.1,-0.3782341167614236,M,24.5,M,,0000*44
$GPGSA,A,3,,,,,,,,,,,,,1.500,2.121,2.121,*1a
$GPGSV,1,1,1,1,1,1,1,,,,,,,,,,,,*48
$GPGSV,1,1,1,1,1,1,1,,,,,,,,,,,,*48
$GPGGA,000276,03903.1535,N,07727.2350,W,1,8,1.1,0.9638803710368989,M,24.5,M,,0000*6e
$GPGSA,A,3,,,,,,,,,,,,,1.500,2.121,2.121,*1a
$GPGSV,1,1,1,1,1,1,1,,,,,,,,,,,,*48
$GPGSV,1,1,1,1,1,1,1,,,,,,,,,,,,*48
$GPGGA,000277,03903.1544,N,07727.2343,W,1,8,1.1,-2.7677226170079976,M,24.5,M,,0000*4f
$GPGSA,A,3,,,,,,,,,,,,,1.500,2.121,2.121,*1a
$GPGSV,1,1,1,1,1,1,1,,,,,,,,,,,,*48
$GPGSV,1,1,1,1,1,1,1,,,,,,,,,,,,*48
$GPGGA,000278,03903.1541,N,07727.2348,W,1,8,1.1,-0.043586350328825185,M,24.5,M,,0000*4b
$GPGSA,A,3,,,,,,,,,,,,,1.500,2.121,2.121,*1a
$GPGSV,1,1,1,1,1,1,1,,,,,,,,,,,,*48
$GPGSV,1,1,1,1,1,1,1,,,,,,,,,,,,*48
$GPGGA,000279,03903.1541,N,07727.2343,W,1,8,1.1,0.5035916093195578,M,24.5,M,,0000*6c
$GPGSA,A,3,,,,,,,,,,,,,1.500,2.121,2.121,*1a
$GPGSV,1,1,1,1,1,1,1,,,,,,,,,,,,*48
$GPGSV,1,1,1,1,1,1,1,,,,,,,,,,,,*48
$GPGGA,000280,03903.1547,N,07727.2339,W,1,8,1.1,1.7627887246420868,M,24.5,M,,0000*63
$GPGSA,A,3,,,,,,,,,,,,,1.500,2.121,2.121,*1a
$GPGSV,1,1,1,1,1,1,1,,,,,,,,,,,,*48
$GPGSV,1,1,1,1,1,1,1,,,,,,,,,,,,*48
$GPGGA,000281,03903.1559,N,07727.2331,W,1,8,1.1,-0.3771975019175975,M,24.5,M,,0000*43
$GPGSA,A,3,,,,,,,,,,,,,1.500,2.121,2.121,*1a
$GPGSV,1,1,1,1,1,1,1,,,,,,,,,,,,*48
$GPGSV,1,1,1,1,1,1,1,,,,,,,,,,,,*48
$GPGGA,000282,03903.1546,N,07727.2341,W,1,8,1.1,0.6295475366028658,M,24.5,M,,0000*61
$GPGSA,A,3,,,,,,,,,,,,,1.500,2.121,2.121,*1a
$GPGSV,1,1,1,1,1,1,1,,,,,,,,,,,,*48
$GPGSV,1,1,1,1,1,1,1,,,,,,,,,,,,*48
$GPGGA,000283,03903.1553,N,07727.2343,W,1,8,1.1,3.231352822888108,M,24.5,M,,0000*54
$GPGSA,A,3,,,,,,,,,,,,,1.500,2.121,2.121,*1a
$GPGSV,1,1,1,1,1,1,1,,,,,,,,,,,,*48
$GPGSV,1,1,1,1,1,1,1,,,,,,,,,,,,*48
$GPGGA,000284,03903.1534,N,07727.2335,W,1,8,1.1,4.353636078492449,M,24.5,M,,0000*56
$GPGSA,A,3,,,,,,,,,,,,,1.500,2.121,2.121,*1a
$GPGSV,1,1,1,1,1,1,1,,,,,,,,,,,,*48
$GPGSV,1,1,1,1,1,1,1,,,,,,,,,,,,*48
$GPGGA,000285,03903.1552,N,07727.2342,W,1,8,1.1,0.8165980651236757,M,24.5,M,,0000*67
$GPGSA,A,3,,,,,,,,,,,,,1.500,2.121,2.121,*1a
$GPGSV,1,1,1,1,1,1,1,,,,,,,,,,,,*48
$GPGSV,1,1,1,1,1,1,1,,,,,,,,,,,,*48
$GPGGA,000286,03903.1537,N,07727.2368,W,1,8,1.1,3.2739511752205503,M,24.5,M,,0000*6c
$GPGSA,A,3,,,,,,,,,,,,,1.500,2.121,2.121,*1a
$GPGSV,1,1,1,1,1,1,1,,,,,,,,,,,,*48
$GPGSV,1,1,1,1,1,1,1,,,,,,,,,,,,*48
$GPGGA,000287,03903.1548,N,07727.2342,W,1,8,1.1,1.7390468374724086,M,24.5,M,,0000*6c
$GPGSA,A,3,,,,,,,,,,,,,1.500,2.121,2.121,*1a
$GPGSV,1,1,1,1,1,1,1,,,,,,,,,,,,*48
$GPGSV,1,1,1,1,1,1,1,,,,,,,,,,,,*48
$GPGGA,000288,03903.1542,N,07727.2337,W,1,8,1.1,0.8224424230013464,M,24.5,M,,0000*69
$GPGSA,A,3,,,,,,,,,,,,,1.500,2.121,2.121,*1a
$GPGSV,1,1,1,1,1,1,1,,,,,,,,,,,,*48
$GPGSV,1,1,1,1,1,1,1,,,,,,,,,,,,*48
$GPGGA,000289,03903.1541,N,07727.2341,W,1,8,1.1,2.8142762326280035,M,24.5,M,,0000*64
$GPGSA,A,3,,,,,,,,,,,,,1.500,2.121,2.121,*1a
$GPGSV,1,1,1,1,1,1,1,,,,,,,,,,,,*48
$GPGSV,1,1,1,1,1,1,1,,,,,,,,,,,,*48
$GPGGA,000290,03903.1542,N,07727.2330,W,1,8,1.1,1.9626014128023312,M,24.5,M,,0000*69
$GPGSA,A,3,,,,,,,,,,,,,1.500,2.121,2.121,*1a
$GPGSV,1,1,1,1,1,1,1,,,,,,,,,,,,*48
$GPGSV,1,1,1,1,1,1,1,,,,,,,,,,,,*48
$GPGGA,000291,03903.1550,N,07727.2342,W,1,8,1.1,3.337690561618018,M,24.5,M,,0000*54
$GPGSA,A,3,,,,,,,,,,,,,1.500,2.121,2.121,*1a
$GPGSV,1,1,1,1,1,1,1,,,,,,,,,,,,*48
$GPGSV,1,1,1,1,1,1,1,,,,,,,,,,,,*48
$GPGGA,000292,03903.1547,N,07727.2337,W,1,8,1.1,2.625190868642721,M,24.5,M,,0000*55
$GPGSA,A,3,,,,,,,,,,,,,1.500,2.121,2.121,*1a
$GPGSV,1,1,1,1,1,1,1,,,,,,,,,,,,*48
$GPGSV,1,1,1,1,1,1,1,,,,,,,,,,,,*48
$GPGGA,000293,03903.1543,N,07727.2341,W,1,8,1.1,0.6656972215787427,M,24.5,M,,0000*68
$GPGSA,A,3,,,,,,,,,,,,,1.500,2.121,2.121,*1a
$GPGSV,1,1,1,1,1,1,1,,,,,,,,,,,,*48
$GPGSV,1,1,1,1,1,1,1,,,,,,,,,,,,*48
$GPGGA,000294,03903.1547,N,07727.2340,W,1,8,1.1,1.3514133669527715,M,24.5,M,,0000*63
$GPGSA,A,3,,,,,,,,,,,,,1.500,2.121,2.121,*1a
$GPGSV,1,1,1,1,1,1,1,,,,,,,,,,,,*48
$GPGSV,1,1,1,1,1,1,1,,,,,,,,,,,,*48
$GPGGA,000295,03903.1548,N,07727.2341,W,1,8,1.1,1.5911833987743331,M,24.5,M,,0000*67
$GPGSA,A,3,,,,,,,,,,,,,1.500,2.121,2.121,*1a
$GPGSV,1,1,1,1,1,1,1,,,,,,,,,,,,*48
$GPGSV,1,1,1,1,1,1,1,,,,,,,,,,,,*48
$GPGGA,000296,03903.1546,N,07727.2344,W,1,8,1.1,-0.8296757793506959,M,24.5,M,,0000*4b
$GPGSA,A,3,,,,,,,,,,,,,1.500,2.121,2.121,*1a
$GPGSV,1,1,1,1,1,1,1,,,,,,,,,,,,*48
$GPGSV,1,1,1,1,1,1,1,,,,,,,,,,,,*48
